{
  "type": "FeatureCollection",
  "features": [
    {
      "type": "Feature",
      "geometry": {
        "type": "Point",
        "coordinates": [
          132.7628125,
          33.3063859
        ]
      },
      "properties": {
        "id": "0027213a-1547-44fe-9374-9e1f23912ca2",
        "name": "古川集会所前（金網）",
        "address": "大字川上225-3古川集会所前（金網）",
        "city": "鬼北町",
        "number": "50",
        "status": "done"
      }
    },
    {
      "type": "Feature",
      "geometry": {
        "type": "Point",
        "coordinates": [
          132.1158544,
          33.3720126
        ]
      },
      "properties": {
        "id": "003150a0-0557-4a86-94ed-f2b795515afc",
        "name": "大佐田集会所付近",
        "address": "伊方町大佐田",
        "city": "伊方町",
        "number": "25-99",
        "status": "done"
      }
    },
    {
      "type": "Feature",
      "geometry": {
        "type": "Point",
        "coordinates": [
          132.6562619,
          33.2607812
        ]
      },
      "properties": {
        "id": "0055b156-2867-447b-984a-1da9fc466514",
        "name": "横山三四ヱ方前ガードパイプ",
        "address": "大字内深田969-1横山三四ヱ方前ガードパイプ",
        "city": "鬼北町",
        "number": "25",
        "status": "done"
      }
    },
    {
      "type": "Feature",
      "geometry": {
        "type": "Point",
        "coordinates": [
          132.7562946,
          33.8554934
        ]
      },
      "properties": {
        "id": "0058f875-5641-487a-8cab-00bd61815bef",
        "name": "市営本町団地3号棟東側金網",
        "address": "山越町460-3",
        "city": "松山市",
        "number": "10-1",
        "status": "done"
      }
    },
    {
      "type": "Feature",
      "geometry": {
        "type": "Point",
        "coordinates": [
          133.640222,
          33.918937
        ]
      },
      "properties": {
        "id": "006c906d-a55a-493f-859b-1fcfea74f991",
        "name": "四社神社入口",
        "address": "新宮町馬立277付近",
        "city": "四国中央市",
        "number": "40-4",
        "status": "not_yet"
      }
    },
    {
      "type": "Feature",
      "geometry": {
        "type": "Point",
        "coordinates": [
          133.2012753,
          34.2592006
        ]
      },
      "properties": {
        "id": "006f6530-af70-4cb3-8310-c0eefc4ffd72",
        "name": "せとうち交流館前",
        "address": "弓削下弓削１０３７番地２",
        "city": "上島町",
        "number": "9",
        "status": "not_yet"
      }
    },
    {
      "type": "Feature",
      "geometry": {
        "type": "Point",
        "coordinates": [
          133.209928,
          34.2749665
        ]
      },
      "properties": {
        "id": "0079ae2a-50d7-4cd4-a41a-ea6c8eb1fefe",
        "name": "高校教員住宅付近",
        "address": "弓削上弓削４６６番地",
        "city": "上島町",
        "number": "5",
        "status": "not_yet"
      }
    },
    {
      "type": "Feature",
      "geometry": {
        "type": "Point",
        "coordinates": [
          133.423705,
          33.955802
        ]
      },
      "properties": {
        "id": "0081c820-344e-4c29-95f7-c491e3147af6",
        "name": "土居文化会館駐車場ガードパイプ",
        "address": "土居町入野943",
        "city": "四国中央市",
        "number": "32-5",
        "status": "not_yet"
      }
    },
    {
      "type": "Feature",
      "geometry": {
        "type": "Point",
        "coordinates": [
          133.2185468,
          33.92704829
        ]
      },
      "properties": {
        "id": "0082164b-b818-4918-be2f-b20567a5a27d",
        "name": "下島山児童遊園（グラウンド）北側",
        "address": "西条市下島山甲2055-88地先",
        "city": "西条市",
        "number": "24",
        "status": "not_yet"
      }
    },
    {
      "type": "Feature",
      "geometry": {
        "type": "Point",
        "coordinates": [
          133.580104,
          34.011708
        ]
      },
      "properties": {
        "id": "009488ca-937e-47c2-aa16-452554ca62e4",
        "name": "四国中央病院駐車場フェンス",
        "address": "川之江町2233付近",
        "city": "四国中央市",
        "number": "2-5",
        "status": "not_yet"
      }
    },
    {
      "type": "Feature",
      "geometry": {
        "type": "Point",
        "coordinates": [
          132.90402,
          33.97734
        ]
      },
      "properties": {
        "id": "00c3a855-7d3f-4ebd-a07d-d6e8eb3d84e0",
        "name": "寺前バス停上側",
        "address": "玉川町龍岡上甲353-3先",
        "city": "今治市",
        "number": "34-4",
        "status": "done"
      }
    },
    {
      "type": "Feature",
      "geometry": {
        "type": "Point",
        "coordinates": [
          132.9953,
          34.2737
        ]
      },
      "properties": {
        "id": "00f93c8c-2be9-40c9-8179-58970e20b97b",
        "name": "旧肥海保育園横フェンス",
        "address": "大三島町肥海1265番地1",
        "city": "今治市",
        "number": "60-4",
        "status": "done"
      }
    },
    {
      "type": "Feature",
      "geometry": {
        "type": "Point",
        "coordinates": [
          133.03972,
          34.02654
        ]
      },
      "properties": {
        "id": "01052899-4481-4023-90f0-80de73017777",
        "name": "古国分公園緑地金網",
        "address": "桜井1-甲83-1",
        "city": "今治市",
        "number": "18-1",
        "status": "done"
      }
    },
    {
      "type": "Feature",
      "geometry": {
        "type": "Point",
        "coordinates": [
          132.9660207,
          33.6213746
        ]
      },
      "properties": {
        "id": "0132ac39-fba3-406e-a1c3-f07e6f669945",
        "name": "田渡野瀬バス停留所先",
        "address": "上黒岩２１７５",
        "city": "久万高原町",
        "number": "19-4",
        "status": "not_yet"
      }
    },
    {
      "type": "Feature",
      "geometry": {
        "type": "Point",
        "coordinates": [
          132.63047,
          33.09106
        ]
      },
      "properties": {
        "id": "0139f548-5296-4480-844b-c5d80940e6db",
        "name": "槇川バス停付近",
        "address": "津島町槇川1296番地（10区）",
        "city": "宇和島市",
        "number": "62-06",
        "status": "not_yet"
      }
    },
    {
      "type": "Feature",
      "geometry": {
        "type": "Point",
        "coordinates": [
          132.6147743,
          32.9984515
        ]
      },
      "properties": {
        "id": "014cb786-7fdd-446b-a600-764a47c19a6f",
        "name": "梶郷集会所前",
        "address": "緑甲1843-5",
        "city": "愛南町",
        "number": "2-10",
        "status": "not_yet"
      }
    },
    {
      "type": "Feature",
      "geometry": {
        "type": "Point",
        "coordinates": [
          132.6636005,
          33.4299141
        ]
      },
      "properties": {
        "id": "0165cd5f-d18b-4ba8-b471-a03af9da9b5f",
        "name": "大屋敷バス停横ガードレール",
        "address": "肱川町大谷3222先",
        "city": "大洲市",
        "number": "38-3",
        "status": "not_yet"
      }
    },
    {
      "type": "Feature",
      "geometry": {
        "type": "Point",
        "coordinates": [
          132.243424,
          33.4581325
        ]
      },
      "properties": {
        "id": "016705c2-0a57-4daf-8c84-8d0e553ec710",
        "name": "天理教付近",
        "address": "伊方町三机",
        "city": "伊方町",
        "number": "14-50",
        "status": "done"
      }
    },
    {
      "type": "Feature",
      "geometry": {
        "type": "Point",
        "coordinates": [
          132.749927,
          33.24443039
        ]
      },
      "properties": {
        "id": "01688963-6b98-4944-b81b-aecd25792d4c",
        "name": "奥内集会所前",
        "address": "大字蕨生3540-1",
        "city": "松野町",
        "number": "23",
        "status": "not_yet"
      }
    },
    {
      "type": "Feature",
      "geometry": {
        "type": "Point",
        "coordinates": [
          132.4945583,
          33.5929314
        ]
      },
      "properties": {
        "id": "017036e4-c93f-49ea-b6da-f620741d95e6",
        "name": "大和コミュニティセンター前ガードパイプ",
        "address": "長浜町下須戒甲1739先",
        "city": "大洲市",
        "number": "31-4",
        "status": "not_yet"
      }
    },
    {
      "type": "Feature",
      "geometry": {
        "type": "Point",
        "coordinates": [
          132.537169,
          33.504441
        ]
      },
      "properties": {
        "id": "0197c2a2-b77a-432e-84c6-1ee5a5d85092",
        "name": "八尾・椎ノ森集会所前ガードレール",
        "address": "西大洲甲1960-9先",
        "city": "大洲市",
        "number": "1-7",
        "status": "not_yet"
      }
    },
    {
      "type": "Feature",
      "geometry": {
        "type": "Point",
        "coordinates": [
          133.6721717,
          33.9970009
        ]
      },
      "properties": {
        "id": "019afd3c-1306-4455-8638-f7182f99af18",
        "name": "七田バス停（徳島方面）付近フェンス",
        "address": "川滝町下山355付近",
        "city": "四国中央市",
        "number": "14-5",
        "status": "not_yet"
      }
    },
    {
      "type": "Feature",
      "geometry": {
        "type": "Point",
        "coordinates": [
          132.8784048,
          33.6955032
        ]
      },
      "properties": {
        "id": "01af88eb-fdc7-43c2-b0ae-e697ff7b260b",
        "name": "中組集会所前",
        "address": "東明神甲９９６－２",
        "city": "久万高原町",
        "number": "5-3",
        "status": "not_yet"
      }
    },
    {
      "type": "Feature",
      "geometry": {
        "type": "Point",
        "coordinates": [
          132.6679577,
          33.6334352
        ]
      },
      "properties": {
        "id": "01f1f421-a0a5-45db-96dc-bb115ce2f658",
        "name": "永木構造改善センター 金網フェンス",
        "address": "永木",
        "city": "伊予市",
        "number": "18-96",
        "status": "not_yet"
      }
    },
    {
      "type": "Feature",
      "geometry": {
        "type": "Point",
        "coordinates": [
          132.2955258,
          33.469795
        ]
      },
      "properties": {
        "id": "020edcdb-511d-44fc-8f09-09158d6894a5",
        "name": "旧町見中学校付近",
        "address": "伊方町二見",
        "city": "伊方町",
        "number": "10-39",
        "status": "done"
      }
    },
    {
      "type": "Feature",
      "geometry": {
        "type": "Point",
        "coordinates": [
          133.0624259,
          33.90624534
        ]
      },
      "properties": {
        "id": "024b7da3-104b-4592-8128-9e4fd5fc04a2",
        "name": "丹原401＿丹原小学校",
        "address": "西条市丹原町池田1778-1",
        "city": "西条市",
        "number": "401",
        "status": "done"
      }
    },
    {
      "type": "Feature",
      "geometry": {
        "type": "Point",
        "coordinates": [
          132.7036923,
          33.7608995
        ]
      },
      "properties": {
        "id": "02751df2-025d-47ca-bd1b-f0d810d3bcb6",
        "name": "伊予商工会議所北側フェンス",
        "address": "下吾川",
        "city": "伊予市",
        "number": "10-49",
        "status": "done"
      }
    },
    {
      "type": "Feature",
      "geometry": {
        "type": "Point",
        "coordinates": [
          132.6859376,
          33.2577136
        ]
      },
      "properties": {
        "id": "028dac33-73e6-44f3-9e62-c4ade7e86f76",
        "name": "きばく優愛の里",
        "address": "大字近永496-1きばく優愛の里",
        "city": "鬼北町",
        "number": "5",
        "status": "done"
      }
    },
    {
      "type": "Feature",
      "geometry": {
        "type": "Point",
        "coordinates": [
          132.779663,
          33.936069
        ]
      },
      "properties": {
        "id": "0292072d-7cca-4e00-805a-315cdaab497c",
        "name": "masked",
        "address": "常竹368-5",
        "city": "松山市",
        "number": "118-2",
        "status": "done"
      }
    },
    {
      "type": "Feature",
      "geometry": {
        "type": "Point",
        "coordinates": [
          133.0853438,
          33.90745453
        ]
      },
      "properties": {
        "id": "02a60a3d-99a1-40df-af19-acbf39560a8d",
        "name": "東予209＿徳威神社南",
        "address": "西条市吉田211-1",
        "city": "西条市",
        "number": "209",
        "status": "done"
      }
    },
    {
      "type": "Feature",
      "geometry": {
        "type": "Point",
        "coordinates": [
          132.7195406,
          33.274797
        ]
      },
      "properties": {
        "id": "02b87f9d-1d93-4962-901c-6cfe0ba97f44",
        "name": "小西野々38番地付近（石垣）",
        "address": "大字小西野々38小西野々38番地付近（石垣）",
        "city": "鬼北町",
        "number": "69",
        "status": "done"
      }
    },
    {
      "type": "Feature",
      "geometry": {
        "type": "Point",
        "coordinates": [
          133.0746479,
          33.88081467
        ]
      },
      "properties": {
        "id": "02b8fed6-66b4-4d70-8c94-cf58a49711e9",
        "name": "小松525＿大頭①",
        "address": "西条市小松町大頭甲98-1",
        "city": "西条市",
        "number": "525",
        "status": "done"
      }
    },
    {
      "type": "Feature",
      "geometry": {
        "type": "Point",
        "coordinates": [
          133.0581942,
          33.95139842
        ]
      },
      "properties": {
        "id": "02e80993-0a5c-4f2f-9f1b-a761a6c812b4",
        "name": "東予283＿三芳②",
        "address": "西条市三芳1273-5",
        "city": "西条市",
        "number": "283",
        "status": "done"
      }
    },
    {
      "type": "Feature",
      "geometry": {
        "type": "Point",
        "coordinates": [
          133.33321,
          33.933946
        ]
      },
      "properties": {
        "id": "03097ed1-fb47-4c18-82d6-474f51faf22a",
        "name": "特別養護老人ホームふたばの森 西向いガードレール",
        "address": "船木3101番地1",
        "city": "新居浜市",
        "number": "22-5",
        "status": "not_yet"
      }
    },
    {
      "type": "Feature",
      "geometry": {
        "type": "Point",
        "coordinates": [
          133.2159217,
          33.91380953
        ]
      },
      "properties": {
        "id": "031406c7-0472-4826-84a6-7b1d0e1ca838",
        "name": "長屋敷①",
        "address": "西条市飯岡3112",
        "city": "西条市",
        "number": "11",
        "status": "done"
      }
    },
    {
      "type": "Feature",
      "geometry": {
        "type": "Point",
        "coordinates": [
          132.733145,
          33.8894848
        ]
      },
      "properties": {
        "id": "03274791-0894-479d-a69e-a5742ae4d684",
        "name": "和気小学校南側駐車場の南側",
        "address": "太山寺町671-3",
        "city": "松山市",
        "number": "49-1",
        "status": "done"
      }
    },
    {
      "type": "Feature",
      "geometry": {
        "type": "Point",
        "coordinates": [
          132.99228,
          34.06077
        ]
      },
      "properties": {
        "id": "0355e883-1e10-4f79-83b7-bfb42f79ba4c",
        "name": "日吉中学校裏門横（向って左）",
        "address": "中日吉町1-3-70",
        "city": "今治市",
        "number": "6-5",
        "status": "done"
      }
    },
    {
      "type": "Feature",
      "geometry": {
        "type": "Point",
        "coordinates": [
          132.7654696,
          33.8293585
        ]
      },
      "properties": {
        "id": "03730b4d-5d8f-407f-94f2-4180ca1a571d",
        "name": "伊予鉄室町車コ北側鉄柵",
        "address": "室町1丁目2",
        "city": "松山市",
        "number": "15-4",
        "status": "done"
      }
    },
    {
      "type": "Feature",
      "geometry": {
        "type": "Point",
        "coordinates": [
          132.7596424,
          33.86193
        ]
      },
      "properties": {
        "id": "03877e74-aaa5-4f61-8d08-c8e373d3b02c",
        "name": "イオンザビッグ松山山越店南側市道鉄柵",
        "address": "山越3丁目13-18",
        "city": "松山市",
        "number": "65-7",
        "status": "done"
      }
    },
    {
      "type": "Feature",
      "geometry": {
        "type": "Point",
        "coordinates": [
          132.684768,
          33.7264944
        ]
      },
      "properties": {
        "id": "03a98dd1-ebda-4769-856e-64eed5f1e393",
        "name": "三秋バス停前付近ガードレール (市道三秋線)",
        "address": "三秋",
        "city": "伊予市",
        "number": "4-22",
        "status": "done"
      }
    },
    {
      "type": "Feature",
      "geometry": {
        "type": "Point",
        "coordinates": [
          133.569338,
          34.003445
        ]
      },
      "properties": {
        "id": "03aa0075-fb55-46b8-a285-4b28a3478cad",
        "name": "丸住製紙㈱駐車場前ガードパイブ",
        "address": "川之江町826番地付近",
        "city": "四国中央市",
        "number": "3-8",
        "status": "done"
      }
    },
    {
      "type": "Feature",
      "geometry": {
        "type": "Point",
        "coordinates": [
          133.0536597,
          33.96510735
        ]
      },
      "properties": {
        "id": "03b4e709-5433-4c4b-aede-bc7076b0b2b6",
        "name": "東予288＿楠③",
        "address": "西条市楠甲1491-3",
        "city": "西条市",
        "number": "288",
        "status": "done"
      }
    },
    {
      "type": "Feature",
      "geometry": {
        "type": "Point",
        "coordinates": [
          132.897888,
          33.6140481
        ]
      },
      "properties": {
        "id": "03c974bf-c98a-4b5e-85de-5aae76548942",
        "name": "やまぶき荘前",
        "address": "露峰甲2543-2",
        "city": "久万高原町",
        "number": "14-2",
        "status": "not_yet"
      }
    },
    {
      "type": "Feature",
      "geometry": {
        "type": "Point",
        "coordinates": [
          132.96492,
          34.03687
        ]
      },
      "properties": {
        "id": "03da4bd3-39b1-48f8-b10b-f948f598f26c",
        "name": "masked",
        "address": "高橋甲1001-5",
        "city": "今治市",
        "number": "24-6",
        "status": "done"
      }
    },
    {
      "type": "Feature",
      "geometry": {
        "type": "Point",
        "coordinates": [
          132.5947347,
          33.5310782
        ]
      },
      "properties": {
        "id": "03f1afb2-41c1-4269-8abd-a01e9abbb31d",
        "name": "大洲福祉会館前ガードレール",
        "address": "新谷乙688-1",
        "city": "大洲市",
        "number": "20-6",
        "status": "not_yet"
      }
    },
    {
      "type": "Feature",
      "geometry": {
        "type": "Point",
        "coordinates": [
          133.224205,
          33.91708653
        ]
      },
      "properties": {
        "id": "03f77677-94b8-420a-b4f0-1be20d60cdeb",
        "name": "西原①",
        "address": "西条市飯岡2617-1",
        "city": "西条市",
        "number": "6",
        "status": "not_yet"
      }
    },
    {
      "type": "Feature",
      "geometry": {
        "type": "Point",
        "coordinates": [
          132.8409111,
          33.5753277
        ]
      },
      "properties": {
        "id": "040612b1-6062-4e2d-8e44-b7d8fd399af0",
        "name": "中川三嶋神社前",
        "address": "中川2908",
        "city": "内子町",
        "number": "87",
        "status": "not_yet"
      }
    },
    {
      "type": "Feature",
      "geometry": {
        "type": "Point",
        "coordinates": [
          132.71891022,
          33.38645794
        ]
      },
      "properties": {
        "id": "041868e4-dfd4-4f75-970a-aa1b0f7aa436",
        "name": "中津川神田橋横ガードレール",
        "address": "魚成950",
        "city": "西予市",
        "number": "4-20",
        "status": "done"
      }
    },
    {
      "type": "Feature",
      "geometry": {
        "type": "Point",
        "coordinates": [
          132.7778269,
          33.816793
        ]
      },
      "properties": {
        "id": "04222ac5-e090-455b-a363-1f4f0ad8d68c",
        "name": "スーパーセブンスター駐車場北側市道鉄柵",
        "address": "東石井2丁目",
        "city": "松山市",
        "number": "37-8",
        "status": "done"
      }
    },
    {
      "type": "Feature",
      "geometry": {
        "type": "Point",
        "coordinates": [
          133.03929,
          34.11408
        ]
      },
      "properties": {
        "id": "042615a9-2d4b-471b-9c65-5cbf45b43a6f",
        "name": "南浦バス停横",
        "address": "吉海町南浦374番地1",
        "city": "今治市",
        "number": "48-7",
        "status": "done"
      }
    },
    {
      "type": "Feature",
      "geometry": {
        "type": "Point",
        "coordinates": [
          132.56693,
          33.05849
        ]
      },
      "properties": {
        "id": "04302fcc-640d-4fd3-9801-a85e10711c2c",
        "name": "付近",
        "address": "津島町下畑地乙265番地3（上槙下）",
        "city": "宇和島市",
        "number": "64-02",
        "status": "not_yet"
      }
    },
    {
      "type": "Feature",
      "geometry": {
        "type": "Point",
        "coordinates": [
          132.8003978,
          33.6923322
        ]
      },
      "properties": {
        "id": "043be205-8d80-4320-b5c2-c44bbf24ba55",
        "name": "川下集会所付近ガードレール",
        "address": "伊予郡砥部町 川登333",
        "city": "砥部町",
        "number": "12",
        "status": "not_yet"
      }
    },
    {
      "type": "Feature",
      "geometry": {
        "type": "Point",
        "coordinates": [
          132.820862,
          33.970795
        ]
      },
      "properties": {
        "id": "043eb7a9-d7c5-4065-be91-2b479b79e6fa",
        "name": "才之原集会所西側ゲートボール場前フェンス",
        "address": "才之原745-6",
        "city": "松山市",
        "number": "111-1",
        "status": "done"
      }
    },
    {
      "type": "Feature",
      "geometry": {
        "type": "Point",
        "coordinates": [
          132.52915,
          33.12896
        ]
      },
      "properties": {
        "id": "044b1552-886a-4b07-ad04-97106974409f",
        "name": "宇和島自動車車庫付近",
        "address": "津島町岩松甲242番地1（三島拝高）",
        "city": "宇和島市",
        "number": "56-07",
        "status": "done"
      }
    },
    {
      "type": "Feature",
      "geometry": {
        "type": "Point",
        "coordinates": [
          132.7115631,
          33.7665812
        ]
      },
      "properties": {
        "id": "04547a1f-bdb1-4352-b2a5-066070b9d5dc",
        "name": "鳥ノ木団地南側市道沿い自転車置場",
        "address": "鳥ノ木",
        "city": "伊予市",
        "number": "12-62",
        "status": "done"
      }
    },
    {
      "type": "Feature",
      "geometry": {
        "type": "Point",
        "coordinates": [
          133.1273215,
          33.8941478
        ]
      },
      "properties": {
        "id": "0455520a-5379-474d-9a01-f918614eac85",
        "name": "氷見小学校南側",
        "address": "西条市氷見乙1143-2",
        "city": "西条市",
        "number": "145",
        "status": "done"
      }
    },
    {
      "type": "Feature",
      "geometry": {
        "type": "Point",
        "coordinates": [
          132.502584,
          33.477013
        ]
      },
      "properties": {
        "id": "046fe930-3939-40d6-918d-c81a05faa1f7",
        "name": "明日香集会所進入口横植込",
        "address": "平野町野田乙687",
        "city": "大洲市",
        "number": "10-3",
        "status": "not_yet"
      }
    },
    {
      "type": "Feature",
      "geometry": {
        "type": "Point",
        "coordinates": [
          133.03808,
          34.02006
        ]
      },
      "properties": {
        "id": "04afd84f-e368-4c21-8cc9-f91e6c6df7ef",
        "name": "JA越智桜井支店横フェンス",
        "address": "桜井4-13-7",
        "city": "今治市",
        "number": "18-3",
        "status": "done"
      }
    },
    {
      "type": "Feature",
      "geometry": {
        "type": "Point",
        "coordinates": [
          133.1850688,
          34.2685459
        ]
      },
      "properties": {
        "id": "04b6134c-af16-4ad3-b4fa-17726ef92284",
        "name": "生名総合支所前",
        "address": "生名６２１番地１",
        "city": "上島町",
        "number": "40",
        "status": "not_yet"
      }
    },
    {
      "type": "Feature",
      "geometry": {
        "type": "Point",
        "coordinates": [
          133.1812823,
          33.920137
        ]
      },
      "properties": {
        "id": "04bd7012-9efc-4044-8793-9491a44b9b01",
        "name": "市役所庁舎駐輪場",
        "address": "西条市明屋敷162-3",
        "city": "西条市",
        "number": "67",
        "status": "done"
      }
    },
    {
      "type": "Feature",
      "geometry": {
        "type": "Point",
        "coordinates": [
          132.97031,
          34.02654
        ]
      },
      "properties": {
        "id": "04bd83ed-25a2-4272-81d7-3d0983ddfe7d",
        "name": "小鴨部消防車庫の下側",
        "address": "玉川町小鴨部甲108先",
        "city": "今治市",
        "number": "32-1",
        "status": "done"
      }
    },
    {
      "type": "Feature",
      "geometry": {
        "type": "Point",
        "coordinates": [
          132.8125942,
          34.008903
        ]
      },
      "properties": {
        "id": "04c48049-2173-4201-93b5-ee6e9ab23e17",
        "name": "masked",
        "address": "浅海本谷601",
        "city": "松山市",
        "number": "108-2",
        "status": "done"
      }
    },
    {
      "type": "Feature",
      "geometry": {
        "type": "Point",
        "coordinates": [
          132.53781,
          33.12877
        ]
      },
      "properties": {
        "id": "04faee8b-0271-4c9d-b4b7-4f8c28072a00",
        "name": "稲中集会所付近",
        "address": "津島町高田乙234番地2（稲中）",
        "city": "宇和島市",
        "number": "57-02",
        "status": "done"
      }
    },
    {
      "type": "Feature",
      "geometry": {
        "type": "Point",
        "coordinates": [
          132.53625,
          33.30688
        ]
      },
      "properties": {
        "id": "051638d5-c3ac-42e1-8298-cf41b1353b1b",
        "name": "小名バス停横",
        "address": "吉田町立間２番耕地1594番地先（小名）",
        "city": "宇和島市",
        "number": "42-03",
        "status": "done"
      }
    },
    {
      "type": "Feature",
      "geometry": {
        "type": "Point",
        "coordinates": [
          132.7596459,
          33.8089723
        ]
      },
      "properties": {
        "id": "0525dab8-242f-4788-a3a8-ca63a6b7edf5",
        "name": "ダイドービバレッジサービス株式会社東側フェンス",
        "address": "古川西2丁目3-30",
        "city": "松山市",
        "number": "63-8",
        "status": "done"
      }
    },
    {
      "type": "Feature",
      "geometry": {
        "type": "Point",
        "coordinates": [
          133.0669708,
          33.966644
        ]
      },
      "properties": {
        "id": "053e6d14-faff-4cc8-9a83-01c0dd697861",
        "name": "東予293＿道場寺東",
        "address": "西条市河原津甲123",
        "city": "西条市",
        "number": "293",
        "status": "done"
      }
    },
    {
      "type": "Feature",
      "geometry": {
        "type": "Point",
        "coordinates": [
          133.594737,
          34.011135
        ]
      },
      "properties": {
        "id": "055db489-54f7-4d7b-a6b1-fbb52f86ed7e",
        "name": "生きがい研修センターフェンス",
        "address": "金生町山田井882",
        "city": "四国中央市",
        "number": "6-5",
        "status": "done"
      }
    },
    {
      "type": "Feature",
      "geometry": {
        "type": "Point",
        "coordinates": [
          133.05172,
          34.23921
        ]
      },
      "properties": {
        "id": "0571391c-a716-4458-be91-7aa8197b3256",
        "name": "masked",
        "address": "上浦町甘崎2194番地3",
        "city": "今治市",
        "number": "57-1",
        "status": "done"
      }
    },
    {
      "type": "Feature",
      "geometry": {
        "type": "Point",
        "coordinates": [
          133.00892,
          34.00177
        ]
      },
      "properties": {
        "id": "057e6638-dfe2-4b8b-a5c3-90d65d96f622",
        "name": "臼坂ふるさと交流館横",
        "address": "朝倉下甲977番地7横",
        "city": "今治市",
        "number": "29-5",
        "status": "done"
      }
    },
    {
      "type": "Feature",
      "geometry": {
        "type": "Point",
        "coordinates": [
          133.0648453,
          33.952329
        ]
      },
      "properties": {
        "id": "05971f3c-9906-46cd-909f-b5cae0cd5576",
        "name": "東予278＿日泉ポリテック㈱西条工場北",
        "address": "西条市三芳1839-1",
        "city": "西条市",
        "number": "278",
        "status": "done"
      }
    },
    {
      "type": "Feature",
      "geometry": {
        "type": "Point",
        "coordinates": [
          132.3471573,
          33.4878474
        ]
      },
      "properties": {
        "id": "05b3137f-f70a-4d49-a34a-1d4c94e6f65d",
        "name": "中浦集会所付近",
        "address": "伊方町中浦",
        "city": "伊方町",
        "number": "6-22",
        "status": "done"
      }
    },
    {
      "type": "Feature",
      "geometry": {
        "type": "Point",
        "coordinates": [
          133.03641,
          34.16615
        ]
      },
      "properties": {
        "id": "05c79ba7-a130-4c11-8815-0e31a8db8543",
        "name": "相田南マンホールポンプ操作盤横",
        "address": "吉海町泊2118番地1先",
        "city": "今治市",
        "number": "46-1",
        "status": "done"
      }
    },
    {
      "type": "Feature",
      "geometry": {
        "type": "Point",
        "coordinates": [
          133.307883,
          33.925023
        ]
      },
      "properties": {
        "id": "05dea8c3-0445-4eb1-820e-38b7db50f6b4",
        "name": "上下水道局山根配水場東側フェンス",
        "address": "中筋町一丁目12番10号",
        "city": "新居浜市",
        "number": "33-5",
        "status": "done"
      }
    },
    {
      "type": "Feature",
      "geometry": {
        "type": "Point",
        "coordinates": [
          132.7201681,
          33.85975789
        ]
      },
      "properties": {
        "id": "05df6986-52cf-4640-b9c8-0c186e8fc50b",
        "name": "宮前小学校正門横金網",
        "address": "祓川1丁目3-39",
        "city": "松山市",
        "number": "54-1",
        "status": "error_wrong_place"
      }
    },
    {
      "type": "Feature",
      "geometry": {
        "type": "Point",
        "coordinates": [
          132.92542,
          34.11462
        ]
      },
      "properties": {
        "id": "05e4bd29-1f2d-4b11-9ffa-ea37504c9311",
        "name": "masked",
        "address": "波方町馬刀潟甲62の2地先",
        "city": "今治市",
        "number": "37-5",
        "status": "done"
      }
    },
    {
      "type": "Feature",
      "geometry": {
        "type": "Point",
        "coordinates": [
          132.40249,
          33.18641
        ]
      },
      "properties": {
        "id": "060644ab-da99-4413-8e1f-23b8ce7dddb3",
        "name": "JAえひめ南農協大島委託店前",
        "address": "蒋淵2633番地先（大島）",
        "city": "宇和島市",
        "number": "24-01",
        "status": "not_yet"
      }
    },
    {
      "type": "Feature",
      "geometry": {
        "type": "Point",
        "coordinates": [
          132.727615,
          33.850952
        ]
      },
      "properties": {
        "id": "0614b1a8-8494-4229-a3b1-d31c9d9bd37c",
        "name": "新田高校北側門の横ブロック",
        "address": "山西町663",
        "city": "松山市",
        "number": "46-1",
        "status": "done"
      }
    },
    {
      "type": "Feature",
      "geometry": {
        "type": "Point",
        "coordinates": [
          132.958561,
          33.6723319
        ]
      },
      "properties": {
        "id": "0636c300-00ce-4fd4-8b53-2a16aac2a056",
        "name": "嵯峨山停留所前",
        "address": "下畑野川甲１７１０－９",
        "city": "久万高原町",
        "number": "7-4",
        "status": "done"
      }
    },
    {
      "type": "Feature",
      "geometry": {
        "type": "Point",
        "coordinates": [
          133.0912201,
          33.9329787
        ]
      },
      "properties": {
        "id": "063f880d-cd5e-4f3b-a744-107fb08e33bc",
        "name": "東予247＿三津屋南①",
        "address": "西条市三津屋南7-46",
        "city": "西条市",
        "number": "247",
        "status": "done"
      }
    },
    {
      "type": "Feature",
      "geometry": {
        "type": "Point",
        "coordinates": [
          133.572301,
          34.014951
        ]
      },
      "properties": {
        "id": "0646fdae-e5ae-4bba-a79a-657aca8724f0",
        "name": "川之江信用金庫本店 擁壁",
        "address": "川之江町1706-1",
        "city": "四国中央市",
        "number": "3-2",
        "status": "done"
      }
    },
    {
      "type": "Feature",
      "geometry": {
        "type": "Point",
        "coordinates": [
          132.64779,
          33.5781581
        ]
      },
      "properties": {
        "id": "0649a17d-f9f4-46b9-82c9-707490119cbe",
        "name": "内子東自治センター論田自治会館付近",
        "address": "河内1654-1",
        "city": "内子町",
        "number": "18",
        "status": "not_yet"
      }
    },
    {
      "type": "Feature",
      "geometry": {
        "type": "Point",
        "coordinates": [
          132.6846403,
          33.722954
        ]
      },
      "properties": {
        "id": "0654d6f8-9b57-4373-bdc9-d00f13d161e1",
        "name": "三秋消防詰め所前ガードレール",
        "address": "三秋",
        "city": "伊予市",
        "number": "4-23",
        "status": "done"
      }
    },
    {
      "type": "Feature",
      "geometry": {
        "type": "Point",
        "coordinates": [
          133.322088,
          33.973881
        ]
      },
      "properties": {
        "id": "06566ece-115d-4061-b935-c95293cca761",
        "name": "市役所川東分署東側生垣",
        "address": "松神子一丁目８番２０号",
        "city": "新居浜市",
        "number": "17-4",
        "status": "done"
      }
    },
    {
      "type": "Feature",
      "geometry": {
        "type": "Point",
        "coordinates": [
          132.799468,
          33.8051535
        ]
      },
      "properties": {
        "id": "0661c5b9-4965-4431-97e8-813f0f723d58",
        "name": "来住公園東側の金網",
        "address": "来住町984",
        "city": "松山市",
        "number": "30-2",
        "status": "done"
      }
    },
    {
      "type": "Feature",
      "geometry": {
        "type": "Point",
        "coordinates": [
          132.5247,
          33.13583
        ]
      },
      "properties": {
        "id": "06a071f5-56ba-4b5c-9d6e-38500762ad17",
        "name": "つしま亭前空地",
        "address": "津島町高田甲723番地3（久保津）",
        "city": "宇和島市",
        "number": "57-01",
        "status": "done"
      }
    },
    {
      "type": "Feature",
      "geometry": {
        "type": "Point",
        "coordinates": [
          132.7147893,
          33.8595864
        ]
      },
      "properties": {
        "id": "06a91d6a-000d-4762-9927-dcc095b4ee63",
        "name": "三津浜小学校正門西側フェンス",
        "address": "梅田町2-41",
        "city": "松山市",
        "number": "53-1",
        "status": "done"
      }
    },
    {
      "type": "Feature",
      "geometry": {
        "type": "Point",
        "coordinates": [
          132.9124955,
          33.7037169
        ]
      },
      "properties": {
        "id": "06c2cae8-a8ad-406f-956a-1e074d824f4b",
        "name": "旧松山生協ひのもと店駐車場前",
        "address": "上畑野川甲８４０－３",
        "city": "久万高原町",
        "number": "8-2",
        "status": "not_yet"
      }
    },
    {
      "type": "Feature",
      "geometry": {
        "type": "Point",
        "coordinates": [
          133.1187477,
          33.89976785
        ]
      },
      "properties": {
        "id": "06c9b6ff-0059-4146-b230-6a23f5811d14",
        "name": "小松511＿新屋敷③",
        "address": "西条市小松町新屋敷甲97-1",
        "city": "西条市",
        "number": "511",
        "status": "done"
      }
    },
    {
      "type": "Feature",
      "geometry": {
        "type": "Point",
        "coordinates": [
          133.274145,
          33.96828
        ]
      },
      "properties": {
        "id": "06d731fb-a332-49d2-a90c-6a376dc1b343",
        "name": "口屋跡記念公民館北側海岸通り沿いガードレール",
        "address": "西町6番2号付近",
        "city": "新居浜市",
        "number": "3-5",
        "status": "not_yet"
      }
    },
    {
      "type": "Feature",
      "geometry": {
        "type": "Point",
        "coordinates": [
          132.6936549,
          33.7405947
        ]
      },
      "properties": {
        "id": "06e4e5eb-9de9-4844-941c-1b4ea199e6b6",
        "name": "鹿島団地敷地内ガードパイプ",
        "address": "中村",
        "city": "伊予市",
        "number": "2-14",
        "status": "done"
      }
    },
    {
      "type": "Feature",
      "geometry": {
        "type": "Point",
        "coordinates": [
          132.7871462,
          33.9621774
        ]
      },
      "properties": {
        "id": "06f1a0da-7ed0-4cfa-b4fd-649a12950f18",
        "name": "正岡松尾公園北入口の横、西側フェンス",
        "address": "中西外687-2",
        "city": "松山市",
        "number": "106-3",
        "status": "done"
      }
    },
    {
      "type": "Feature",
      "geometry": {
        "type": "Point",
        "coordinates": [
          133.05234,
          33.98862
        ]
      },
      "properties": {
        "id": "06f8cddc-b7ae-41cb-b84d-a454859db1d4",
        "name": "孫兵衛作バス停付近ガードレール ",
        "address": "孫兵衛作甲237",
        "city": "今治市",
        "number": "16-6",
        "status": "done"
      }
    },
    {
      "type": "Feature",
      "geometry": {
        "type": "Point",
        "coordinates": [
          132.2034008,
          33.4238364
        ]
      },
      "properties": {
        "id": "06fd310a-3035-4261-9603-268408b9b12e",
        "name": "佐田岬リゾート大久3069番地付近",
        "address": "伊方町大久",
        "city": "伊方町",
        "number": "19-73",
        "status": "done"
      }
    },
    {
      "type": "Feature",
      "geometry": {
        "type": "Point",
        "coordinates": [
          132.5558627,
          32.9968434
        ]
      },
      "properties": {
        "id": "06ff4844-8191-4281-8c8a-5fcfa25b075f",
        "name": "masked",
        "address": "御荘和口339-2",
        "city": "愛南町",
        "number": "7-28",
        "status": "not_yet"
      }
    },
    {
      "type": "Feature",
      "geometry": {
        "type": "Point",
        "coordinates": [
          132.2524829,
          33.4392801
        ]
      },
      "properties": {
        "id": "07037357-1435-465a-b8e8-4117c762fa58",
        "name": "塩成933-1番地付近",
        "address": "伊方町塩成",
        "city": "伊方町",
        "number": "15-61",
        "status": "done"
      }
    },
    {
      "type": "Feature",
      "geometry": {
        "type": "Point",
        "coordinates": [
          132.56977,
          33.23713
        ]
      },
      "properties": {
        "id": "07095fe1-c7c9-4bc4-bc59-23d5fa29b037",
        "name": "福山通運㈱宇和島営業所前",
        "address": "伊吹町甲1179番地1先（北宇和島町）",
        "city": "宇和島市",
        "number": "06-08",
        "status": "done"
      }
    },
    {
      "type": "Feature",
      "geometry": {
        "type": "Point",
        "coordinates": [
          132.7137202,
          33.794494
        ]
      },
      "properties": {
        "id": "072ca5a8-fd18-4f68-a262-1706a81c3132",
        "name": "町道西古泉筒井線",
        "address": "大字西古泉496番地5",
        "city": "松前町",
        "number": "50",
        "status": "error_wrong_place"
      }
    },
    {
      "type": "Feature",
      "geometry": {
        "type": "Point",
        "coordinates": [
          132.9089164,
          33.6434183
        ]
      },
      "properties": {
        "id": "072e255c-82bf-4533-94da-d2e856d52364",
        "name": "野尻公民館",
        "address": "上野尻甲１９０",
        "city": "久万高原町",
        "number": "2-3",
        "status": "done"
      }
    },
    {
      "type": "Feature",
      "geometry": {
        "type": "Point",
        "coordinates": [
          132.1163733,
          33.4107723
        ]
      },
      "properties": {
        "id": "072e7f3d-d79f-49f2-a1e4-95aba52db2a2",
        "name": "農道ごみステーション付近",
        "address": "伊方町松",
        "city": "伊方町",
        "number": "30-121",
        "status": "done"
      }
    },
    {
      "type": "Feature",
      "geometry": {
        "type": "Point",
        "coordinates": [
          133.567018,
          33.990893
        ]
      },
      "properties": {
        "id": "072f9034-0ca1-44cd-aa54-5bf7d7b6d110",
        "name": "県道 はるやま前交差点ガードパイプ",
        "address": "妻鳥町1656付近",
        "city": "四国中央市",
        "number": "10-4",
        "status": "not_yet"
      }
    },
    {
      "type": "Feature",
      "geometry": {
        "type": "Point",
        "coordinates": [
          132.4398786,
          33.5131895
        ]
      },
      "properties": {
        "id": "0738aabb-8e6f-4770-b974-2e339a9553a3",
        "name": "榎野集会所前ガードレール",
        "address": "日土町7番耕地3097－3地先",
        "city": "八幡浜市",
        "number": "64",
        "status": "not_yet"
      }
    },
    {
      "type": "Feature",
      "geometry": {
        "type": "Point",
        "coordinates": [
          133.1504935,
          34.2602211
        ]
      },
      "properties": {
        "id": "0744fa80-e712-4580-8a98-e099ca92d59d",
        "name": "赤石公民館横",
        "address": "岩城３８１８番地",
        "city": "上島町",
        "number": "30",
        "status": "not_yet"
      }
    },
    {
      "type": "Feature",
      "geometry": {
        "type": "Point",
        "coordinates": [
          132.3410618,
          33.3845956
        ]
      },
      "properties": {
        "id": "07563f09-b875-490d-9358-971559317962",
        "name": "大島神社下",
        "address": "大島2番耕地80番地",
        "city": "八幡浜市",
        "number": "57",
        "status": "not_yet"
      }
    },
    {
      "type": "Feature",
      "geometry": {
        "type": "Point",
        "coordinates": [
          133.572936,
          34.011149
        ]
      },
      "properties": {
        "id": "075c7513-0876-4a69-b954-514494e02ce4",
        "name": "山下公園入口柵",
        "address": "川之江町1961",
        "city": "四国中央市",
        "number": "3-5",
        "status": "done"
      }
    },
    {
      "type": "Feature",
      "geometry": {
        "type": "Point",
        "coordinates": [
          132.6251692,
          33.5498484
        ]
      },
      "properties": {
        "id": "075e9f73-03ec-4869-8883-c08021447301",
        "name": "佐伯商店前ガードレール",
        "address": "喜多山乙274先",
        "city": "大洲市",
        "number": "21-2",
        "status": "not_yet"
      }
    },
    {
      "type": "Feature",
      "geometry": {
        "type": "Point",
        "coordinates": [
          132.7503814,
          33.8797843
        ]
      },
      "properties": {
        "id": "078b822a-4941-48f4-98a1-b9afeb1844a8",
        "name": "潮見94号線鉄柵",
        "address": "志津川町153",
        "city": "松山市",
        "number": "50-5",
        "status": "done"
      }
    },
    {
      "type": "Feature",
      "geometry": {
        "type": "Point",
        "coordinates": [
          132.4491297,
          33.4688
        ]
      },
      "properties": {
        "id": "07a62896-d3df-4eef-9898-414a78bc24f8",
        "name": "197号線ガードパイプ",
        "address": "松柏丙99－5地先",
        "city": "八幡浜市",
        "number": "33",
        "status": "not_yet"
      }
    },
    {
      "type": "Feature",
      "geometry": {
        "type": "Point",
        "coordinates": [
          132.7643921,
          33.8521633
        ]
      },
      "properties": {
        "id": "07aac673-8167-4ad1-96bb-15d2f97f5c35",
        "name": "勝山中学校正門横ブロック",
        "address": "清水町3丁目148-2",
        "city": "松山市",
        "number": "9-1",
        "status": "done"
      }
    },
    {
      "type": "Feature",
      "geometry": {
        "type": "Point",
        "coordinates": [
          132.95838,
          34.06506
        ]
      },
      "properties": {
        "id": "07b71da2-7021-478c-bc86-d462fa6fd29b",
        "name": "乃万公民館前ガードレール",
        "address": "延喜甲237-5",
        "city": "今治市",
        "number": "26-4",
        "status": "done"
      }
    },
    {
      "type": "Feature",
      "geometry": {
        "type": "Point",
        "coordinates": [
          132.97815,
          34.05548
        ]
      },
      "properties": {
        "id": "07cb835c-5ad6-45e8-abdf-733ec28aa6f1",
        "name": "masked",
        "address": "片山1-6地先",
        "city": "今治市",
        "number": "25-3",
        "status": "done"
      }
    },
    {
      "type": "Feature",
      "geometry": {
        "type": "Point",
        "coordinates": [
          132.98431,
          34.09787
        ]
      },
      "properties": {
        "id": "07cd2e6b-0e6a-46a8-b5d6-18abfc737f49",
        "name": "コスモ沖磯石油大浜SS横",
        "address": "大浜町1-4-1地先",
        "city": "今治市",
        "number": "15-2",
        "status": "done"
      }
    },
    {
      "type": "Feature",
      "geometry": {
        "type": "Point",
        "coordinates": [
          132.3648272,
          33.4794248
        ]
      },
      "properties": {
        "id": "07cf568b-4146-4a95-9a93-77ae3b3113bb",
        "name": "中之浜児童遊園付近",
        "address": "伊方町中之浜",
        "city": "伊方町",
        "number": "4-17",
        "status": "done"
      }
    },
    {
      "type": "Feature",
      "geometry": {
        "type": "Point",
        "coordinates": [
          132.92595,
          34.06477
        ]
      },
      "properties": {
        "id": "07d222ab-db99-40cc-8c39-6153d36ab697",
        "name": "大西体育館前ガードパイプ",
        "address": "大西町新町甲795-2",
        "city": "今治市",
        "number": "39-2",
        "status": "done"
      }
    },
    {
      "type": "Feature",
      "geometry": {
        "type": "Point",
        "coordinates": [
          132.386317,
          33.527078
        ]
      },
      "properties": {
        "id": "0800ffcb-df21-40b5-8516-14cf3649af7a",
        "name": "喜木津神社横道路壁面",
        "address": "保内町喜木津2番耕地377番地",
        "city": "八幡浜市",
        "number": "94",
        "status": "not_yet"
      }
    },
    {
      "type": "Feature",
      "geometry": {
        "type": "Point",
        "coordinates": [
          132.7560622,
          33.8285662
        ]
      },
      "properties": {
        "id": "08021536-3ee6-455c-9323-1d243882838c",
        "name": "友沢モータープール北側ブロック",
        "address": "小栗6丁目9-29",
        "city": "松山市",
        "number": "17-6",
        "status": "done"
      }
    },
    {
      "type": "Feature",
      "geometry": {
        "type": "Point",
        "coordinates": [
          133.2350352,
          33.92718047
        ]
      },
      "properties": {
        "id": "0812df60-256d-4ccb-bea0-4e0b5406bb0c",
        "name": "オレンジハイツ北入口駐車場",
        "address": "西条市下島山乙101-4",
        "city": "西条市",
        "number": "1",
        "status": "not_yet"
      }
    },
    {
      "type": "Feature",
      "geometry": {
        "type": "Point",
        "coordinates": [
          132.99771,
          34.24902
        ]
      },
      "properties": {
        "id": "081981be-df10-4b95-b246-b4c1164513b9",
        "name": "本川橋横ガードパイプ",
        "address": "大三島町宮浦5653番地先",
        "city": "今治市",
        "number": "61-3",
        "status": "done"
      }
    },
    {
      "type": "Feature",
      "geometry": {
        "type": "Point",
        "coordinates": [
          132.0813709,
          33.3893965
        ]
      },
      "properties": {
        "id": "08254ea2-0f10-4141-802a-8b4abf2b8f9c",
        "name": "与侈集会所付近",
        "address": "伊方町与侈",
        "city": "伊方町",
        "number": "26-103",
        "status": "done"
      }
    },
    {
      "type": "Feature",
      "geometry": {
        "type": "Point",
        "coordinates": [
          132.700181,
          33.7429894
        ]
      },
      "properties": {
        "id": "082ba12b-2cc5-4f6b-b0a2-447dac12cf2b",
        "name": "masked",
        "address": "稲荷西",
        "city": "伊予市",
        "number": "6-32",
        "status": "done"
      }
    },
    {
      "type": "Feature",
      "geometry": {
        "type": "Point",
        "coordinates": [
          132.54863,
          33.29262
        ]
      },
      "properties": {
        "id": "082c2e5d-7f88-4394-98ee-e98f2e0cbcf8",
        "name": "青野プレス工場前歩道",
        "address": "吉田町立間1番耕地338番地（寺家郷蔵）",
        "city": "宇和島市",
        "number": "40-02",
        "status": "done"
      }
    },
    {
      "type": "Feature",
      "geometry": {
        "type": "Point",
        "coordinates": [
          132.7964143,
          33.6626883
        ]
      },
      "properties": {
        "id": "086d9365-dda0-4991-832a-ee255f490663",
        "name": "広田出荷組合前ガードパイプ",
        "address": "伊予郡砥部町 玉谷741",
        "city": "砥部町",
        "number": "45",
        "status": "done"
      }
    },
    {
      "type": "Feature",
      "geometry": {
        "type": "Point",
        "coordinates": [
          132.4112887,
          33.343329
        ]
      },
      "properties": {
        "id": "087633a3-0781-43f5-825e-483227fdbb05",
        "name": "masked",
        "address": "皆江1882-1",
        "city": "西予市",
        "number": "5-16",
        "status": "done"
      }
    },
    {
      "type": "Feature",
      "geometry": {
        "type": "Point",
        "coordinates": [
          132.63369,
          33.29235
        ]
      },
      "properties": {
        "id": "087e100f-a5b4-414e-bea2-f22d0056881a",
        "name": "付近",
        "address": "三間町金銅312番地1先",
        "city": "宇和島市",
        "number": "54-04",
        "status": "done"
      }
    },
    {
      "type": "Feature",
      "geometry": {
        "type": "Point",
        "coordinates": [
          133.311014,
          33.982099
        ]
      },
      "properties": {
        "id": "088418dc-d2b5-4736-9440-fcb19ad5b902",
        "name": "八幡神社西側ブロック塀",
        "address": "八幡三丁目４番６９号",
        "city": "新居浜市",
        "number": "15-3",
        "status": "not_yet"
      }
    },
    {
      "type": "Feature",
      "geometry": {
        "type": "Point",
        "coordinates": [
          132.4214058,
          33.4818305
        ]
      },
      "properties": {
        "id": "088e0613-6454-401c-8a4d-ed08f3e6b476",
        "name": "新田神社横ガードパイプ",
        "address": "保内町須川376番地1",
        "city": "八幡浜市",
        "number": "69",
        "status": "not_yet"
      }
    },
    {
      "type": "Feature",
      "geometry": {
        "type": "Point",
        "coordinates": [
          133.10723,
          34.22132
        ]
      },
      "properties": {
        "id": "089be808-9167-47b9-81de-eeaf9577066c",
        "name": "masked",
        "address": "伯方町北浦乙161番地1先",
        "city": "今治市",
        "number": "55-1",
        "status": "done"
      }
    },
    {
      "type": "Feature",
      "geometry": {
        "type": "Point",
        "coordinates": [
          133.290355,
          33.952284
        ]
      },
      "properties": {
        "id": "08ac429a-1132-4e0e-95a7-fdd0bbb4b880",
        "name": "ウィメンズプラザ南駐車場東側フェンス",
        "address": "庄内町四丁目4番21号",
        "city": "新居浜市",
        "number": "6-4",
        "status": "done"
      }
    },
    {
      "type": "Feature",
      "geometry": {
        "type": "Point",
        "coordinates": [
          132.6511412,
          33.2493719
        ]
      },
      "properties": {
        "id": "08c6a2c6-ac66-49f4-8307-63cc240e418b",
        "name": "今在家集会所",
        "address": "大字奈良1840-2今在家集会所",
        "city": "鬼北町",
        "number": "10",
        "status": "done"
      }
    },
    {
      "type": "Feature",
      "geometry": {
        "type": "Point",
        "coordinates": [
          133.284548,
          33.972949
        ]
      },
      "properties": {
        "id": "08ca5923-d5eb-480e-9fdd-d6711377ba4d",
        "name": "日本エイアンドエル㈱倉庫南東フェンス",
        "address": "菊本町一丁目9番",
        "city": "新居浜市",
        "number": "11-7",
        "status": "not_yet"
      }
    },
    {
      "type": "Feature",
      "geometry": {
        "type": "Point",
        "coordinates": [
          133.2015671,
          33.9241355
        ]
      },
      "properties": {
        "id": "09065ad5-807e-49d3-b2d1-94cd6cfacfcd",
        "name": "玉津①",
        "address": "西条市玉津406",
        "city": "西条市",
        "number": "25",
        "status": "done"
      }
    },
    {
      "type": "Feature",
      "geometry": {
        "type": "Point",
        "coordinates": [
          132.8465402,
          33.7745011
        ]
      },
      "properties": {
        "id": "092a80a2-7ce3-41da-a94b-632f96ce7374",
        "name": "上村集会所北側",
        "address": "上村甲537番地",
        "city": "東温市",
        "number": "7-40",
        "status": "done"
      }
    },
    {
      "type": "Feature",
      "geometry": {
        "type": "Point",
        "coordinates": [
          132.6406772,
          32.9268199
        ]
      },
      "properties": {
        "id": "09401535-f736-475b-9061-0d5183fcc1ab",
        "name": "masked",
        "address": "脇本266-1",
        "city": "愛南町",
        "number": "10-34",
        "status": "done"
      }
    },
    {
      "type": "Feature",
      "geometry": {
        "type": "Point",
        "coordinates": [
          132.7951142,
          33.88543884
        ]
      },
      "properties": {
        "id": "0950e6df-fbe6-4f96-8db9-fafc2445e040",
        "name": "本村地区ソーコ前市道鉄柵",
        "address": "上伊台町212",
        "city": "松山市",
        "number": "20-7",
        "status": "done"
      }
    },
    {
      "type": "Feature",
      "geometry": {
        "type": "Point",
        "coordinates": [
          132.8912741,
          33.79217505
        ]
      },
      "properties": {
        "id": "09599ec1-5738-457e-a667-45c211fb3b8d",
        "name": "masked",
        "address": "南方2628番地",
        "city": "東温市",
        "number": "11-69",
        "status": "done"
      }
    },
    {
      "type": "Feature",
      "geometry": {
        "type": "Point",
        "coordinates": [
          132.9141158,
          33.79778769
        ]
      },
      "properties": {
        "id": "0969228c-093c-4589-8ca5-1efd22788103",
        "name": "川内支所前バス停横",
        "address": "南方286番地",
        "city": "東温市",
        "number": "10-53",
        "status": "done"
      }
    },
    {
      "type": "Feature",
      "geometry": {
        "type": "Point",
        "coordinates": [
          132.5031369,
          32.9508625
        ]
      },
      "properties": {
        "id": "096c9d06-de42-45c7-8e68-146a4e1c680a",
        "name": "観光船案内板横ガードレール",
        "address": "船越651",
        "city": "愛南町",
        "number": "3-7",
        "status": "not_yet"
      }
    },
    {
      "type": "Feature",
      "geometry": {
        "type": "Point",
        "coordinates": [
          132.70683,
          33.76664
        ]
      },
      "properties": {
        "id": "09747388-a2e2-40fc-ae66-cdc750078be4",
        "name": "DCM伊予店南側入り口フェンス",
        "address": "南新川",
        "city": "伊予市",
        "number": "11-55",
        "status": "error_wrong_place"
      }
    },
    {
      "type": "Feature",
      "geometry": {
        "type": "Point",
        "coordinates": [
          133.339416,
          33.974627
        ]
      },
      "properties": {
        "id": "097ca1dc-57e7-43cb-9488-1c179989c109",
        "name": "岡城館歴史公園駐車場北側ガードパイプ",
        "address": "楠崎一丁目８番１０号付近",
        "city": "新居浜市",
        "number": "17-8",
        "status": "not_yet"
      }
    },
    {
      "type": "Feature",
      "geometry": {
        "type": "Point",
        "coordinates": [
          132.5657321,
          32.963092
        ]
      },
      "properties": {
        "id": "098ef185-2545-49bf-b5c5-6cb114a724ee",
        "name": "山泉自動車駐車場",
        "address": "御荘平城2110-1",
        "city": "愛南町",
        "number": "2-5",
        "status": "done"
      }
    },
    {
      "type": "Feature",
      "geometry": {
        "type": "Point",
        "coordinates": [
          132.7751779,
          33.8633073
        ]
      },
      "properties": {
        "id": "09982e6d-4fff-4f1c-9932-f98188c8322a",
        "name": "コーポ祝谷の西側鉄柵",
        "address": "祝谷6丁目1271",
        "city": "松山市",
        "number": "25-9",
        "status": "done"
      }
    },
    {
      "type": "Feature",
      "geometry": {
        "type": "Point",
        "coordinates": [
          132.386317,
          33.527078
        ]
      },
      "properties": {
        "id": "099b3044-25b2-47a0-bc93-666d3ce5d1b6",
        "name": "喜木津集会所西側ガードレール",
        "address": "保内町喜木津2番耕地330−2地先",
        "city": "八幡浜市",
        "number": "93",
        "status": "not_yet"
      }
    },
    {
      "type": "Feature",
      "geometry": {
        "type": "Point",
        "coordinates": [
          132.791058,
          33.8276494
        ]
      },
      "properties": {
        "id": "09a128bc-6eb1-434d-a7b1-36691f0f92ee",
        "name": "協立設備(株)前市道鉄柵",
        "address": "松末1丁目7-32",
        "city": "松山市",
        "number": "27-3",
        "status": "done"
      }
    },
    {
      "type": "Feature",
      "geometry": {
        "type": "Point",
        "coordinates": [
          133.483117,
          33.967505
        ]
      },
      "properties": {
        "id": "09a32cfc-cd40-47e3-a0dc-ae91c2ef52cd",
        "name": "とよた薬局前交差点ガードパイプ",
        "address": "豊岡町大町1753-1付近",
        "city": "四国中央市",
        "number": "23-8",
        "status": "not_yet"
      }
    },
    {
      "type": "Feature",
      "geometry": {
        "type": "Point",
        "coordinates": [
          132.0391223,
          33.3544679
        ]
      },
      "properties": {
        "id": "09d3a7f6-b59d-496a-99ab-cfedc3bdc85b",
        "name": "正野集会所付近",
        "address": "伊方町正野",
        "city": "伊方町",
        "number": "27-107",
        "status": "done"
      }
    },
    {
      "type": "Feature",
      "geometry": {
        "type": "Point",
        "coordinates": [
          133.529538,
          33.970673
        ]
      },
      "properties": {
        "id": "09e119cd-1f67-4049-b9fb-77811aa916b5",
        "name": "幸橋北ガードレール",
        "address": "具定町387付近",
        "city": "四国中央市",
        "number": "21-8",
        "status": "not_yet"
      }
    },
    {
      "type": "Feature",
      "geometry": {
        "type": "Point",
        "coordinates": [
          132.6794974,
          33.2429167
        ]
      },
      "properties": {
        "id": "09e4a1e4-aa41-46b2-90b0-0fea5f687d69",
        "name": "鬼北消防署前ガードパイプ",
        "address": "大字芝215-2鬼北消防署前ガードパイプ",
        "city": "鬼北町",
        "number": "12",
        "status": "done"
      }
    },
    {
      "type": "Feature",
      "geometry": {
        "type": "Point",
        "coordinates": [
          132.9035318,
          33.80498238
        ]
      },
      "properties": {
        "id": "09e82aa6-3da7-4ab2-9022-33f8052c7cb2",
        "name": "川上小学校西側市道沿",
        "address": "北方2532番地1",
        "city": "東温市",
        "number": "11-65",
        "status": "done"
      }
    },
    {
      "type": "Feature",
      "geometry": {
        "type": "Point",
        "coordinates": [
          133.2090495,
          33.91035846
        ]
      },
      "properties": {
        "id": "09eeb46d-fd16-4454-9122-791e5da86e78",
        "name": "地蔵原児童遊園入口前",
        "address": "西条市福武甲139",
        "city": "西条市",
        "number": "102",
        "status": "done"
      }
    },
    {
      "type": "Feature",
      "geometry": {
        "type": "Point",
        "coordinates": [
          132.6450298,
          33.6913066
        ]
      },
      "properties": {
        "id": "0a0e1772-cde7-45dd-9b75-592c7ec244ea",
        "name": "小網公民館横ガードレール (市道灘町小網線)",
        "address": "小網",
        "city": "伊予市",
        "number": "21-110",
        "status": "error_wrong_place"
      }
    },
    {
      "type": "Feature",
      "geometry": {
        "type": "Point",
        "coordinates": [
          132.7709621,
          33.8304344
        ]
      },
      "properties": {
        "id": "0a145964-e98a-49bd-8429-ec34771b75c6",
        "name": "masked",
        "address": "立花1丁目3-49",
        "city": "松山市",
        "number": "4-9",
        "status": "done"
      }
    },
    {
      "type": "Feature",
      "geometry": {
        "type": "Point",
        "coordinates": [
          132.7614857,
          33.5800416
        ]
      },
      "properties": {
        "id": "0a259933-0790-48ae-865e-f5f8248ff28b",
        "name": "梅津停留所横",
        "address": "大瀬東2567",
        "city": "内子町",
        "number": "29",
        "status": "not_yet"
      }
    },
    {
      "type": "Feature",
      "geometry": {
        "type": "Point",
        "coordinates": [
          132.771164,
          33.898045
        ]
      },
      "properties": {
        "id": "0a617556-69f4-4d6b-991c-06fc14c055d6",
        "name": "masked",
        "address": "権現町15",
        "city": "松山市",
        "number": "51-2",
        "status": "done"
      }
    },
    {
      "type": "Feature",
      "geometry": {
        "type": "Point",
        "coordinates": [
          132.570376,
          32.9716944
        ]
      },
      "properties": {
        "id": "0a6c21df-0e0a-493d-aff2-43687e6558a9",
        "name": "旧御荘学校給食センター",
        "address": "御荘和口174",
        "city": "愛南町",
        "number": "7-27",
        "status": "other"
      }
    },
    {
      "type": "Feature",
      "geometry": {
        "type": "Point",
        "coordinates": [
          132.7682827,
          33.8190827
        ]
      },
      "properties": {
        "id": "0a758b58-5398-435a-a19a-f6d59f85513b",
        "name": "石井北小学校西側金網",
        "address": "和泉南1丁目3-32",
        "city": "松山市",
        "number": "62-1",
        "status": "done"
      }
    },
    {
      "type": "Feature",
      "geometry": {
        "type": "Point",
        "coordinates": [
          133.544236,
          33.981094
        ]
      },
      "properties": {
        "id": "0a8d6ba9-5de6-48f3-a107-c8f758cb8944",
        "name": "三島小学校公民館前フェンス",
        "address": "三島中央3丁目2-23",
        "city": "四国中央市",
        "number": "18-10",
        "status": "done"
      }
    },
    {
      "type": "Feature",
      "geometry": {
        "type": "Point",
        "coordinates": [
          133.0059466,
          33.5490553
        ]
      },
      "properties": {
        "id": "0aad3970-bd48-4565-8d50-2041b2bf4758",
        "name": "masked",
        "address": "柳井川８１５９先",
        "city": "久万高原町",
        "number": "25-3",
        "status": "not_yet"
      }
    },
    {
      "type": "Feature",
      "geometry": {
        "type": "Point",
        "coordinates": [
          133.412593,
          33.961828
        ]
      },
      "properties": {
        "id": "0ab50a22-bd58-4bf6-b597-774837a0b885",
        "name": "市道 大谷橋 西ガードレール",
        "address": "土居町北野21付近",
        "city": "四国中央市",
        "number": "31-7",
        "status": "not_yet"
      }
    },
    {
      "type": "Feature",
      "geometry": {
        "type": "Point",
        "coordinates": [
          132.5836397,
          32.9783988
        ]
      },
      "properties": {
        "id": "0acede0f-0159-44ec-b7f8-c66845e09bf9",
        "name": "旧長月小学校",
        "address": "御荘長月853",
        "city": "愛南町",
        "number": "8-31",
        "status": "done"
      }
    },
    {
      "type": "Feature",
      "geometry": {
        "type": "Point",
        "coordinates": [
          133.0468908,
          33.89177081
        ]
      },
      "properties": {
        "id": "0ad735cc-9296-46c7-8056-f18cd381cc4d",
        "name": "丹原436＿高松①",
        "address": "西条市丹原町高松甲458-2",
        "city": "西条市",
        "number": "436",
        "status": "not_yet"
      }
    },
    {
      "type": "Feature",
      "geometry": {
        "type": "Point",
        "coordinates": [
          132.6338859,
          33.2484202
        ]
      },
      "properties": {
        "id": "0adda7cc-130e-4897-8829-b625a1b64188",
        "name": "生きがいづくりセンター西端部（金網）",
        "address": "大字北川1110-1生きがいづくりセンター西端部（金網）",
        "city": "鬼北町",
        "number": "15",
        "status": "done"
      }
    },
    {
      "type": "Feature",
      "geometry": {
        "type": "Point",
        "coordinates": [
          133.269975,
          33.966285
        ]
      },
      "properties": {
        "id": "0ae06ace-4f49-48d6-88de-a21df861843a",
        "name": "一宮興産㈱月極駐車場フェンス",
        "address": "西原町二丁目甲1546番38",
        "city": "新居浜市",
        "number": "10-2",
        "status": "not_yet"
      }
    },
    {
      "type": "Feature",
      "geometry": {
        "type": "Point",
        "coordinates": [
          132.897888,
          33.6140481
        ]
      },
      "properties": {
        "id": "0ae1e780-d396-4205-9d5c-dc6c6eeee0cd",
        "name": "masked",
        "address": "露峰甲父野川甲797-5",
        "city": "久万高原町",
        "number": "13-3",
        "status": "not_yet"
      }
    },
    {
      "type": "Feature",
      "geometry": {
        "type": "Point",
        "coordinates": [
          133.5111345,
          33.9666582
        ]
      },
      "properties": {
        "id": "0af2b3ab-8c0e-472e-bb16-905bf87e7876",
        "name": "天地親神神社東側ガードレール",
        "address": "寒川町2519付近",
        "city": "四国中央市",
        "number": "22-6",
        "status": "not_yet"
      }
    },
    {
      "type": "Feature",
      "geometry": {
        "type": "Point",
        "coordinates": [
          133.0033893,
          33.5731231
        ]
      },
      "properties": {
        "id": "0af55bc6-1c9e-4ab6-b719-08a7a3d7337c",
        "name": "釣井",
        "address": "日野浦黒藤川788",
        "city": "久万高原町",
        "number": "24-2",
        "status": "not_yet"
      }
    },
    {
      "type": "Feature",
      "geometry": {
        "type": "Point",
        "coordinates": [
          132.47732,
          33.2714
        ]
      },
      "properties": {
        "id": "0afbb8f9-065d-406e-8815-41c2483f2b91",
        "name": "楠ヶ浦埋立",
        "address": "吉田町奥浦乙211番地2先（船間2区）",
        "city": "宇和島市",
        "number": "34-05",
        "status": "done"
      }
    },
    {
      "type": "Feature",
      "geometry": {
        "type": "Point",
        "coordinates": [
          132.94555,
          33.98555
        ]
      },
      "properties": {
        "id": "0b0a5f50-12d7-40a5-a25c-9a744ae97791",
        "name": "masked",
        "address": "玉川町鈍川乙85-3",
        "city": "今治市",
        "number": "33-3",
        "status": "done"
      }
    },
    {
      "type": "Feature",
      "geometry": {
        "type": "Point",
        "coordinates": [
          132.92588,
          34.06086
        ]
      },
      "properties": {
        "id": "0b170507-f3ea-4beb-b93b-2a182d613bfd",
        "name": "大西支所前ガードレール",
        "address": "大西町宮脇甲506-1地先",
        "city": "今治市",
        "number": "39-1",
        "status": "done"
      }
    },
    {
      "type": "Feature",
      "geometry": {
        "type": "Point",
        "coordinates": [
          132.6601002,
          33.5343704
        ]
      },
      "properties": {
        "id": "0b3b471e-c95f-40eb-8aa3-0a61f19b1968",
        "name": "平岡児童公園前（西沖）",
        "address": "平岡甲36",
        "city": "内子町",
        "number": "66",
        "status": "done"
      }
    },
    {
      "type": "Feature",
      "geometry": {
        "type": "Point",
        "coordinates": [
          133.1305189,
          33.89715655
        ]
      },
      "properties": {
        "id": "0b404139-f990-4ab7-ad94-b86a1322cca4",
        "name": "末長①",
        "address": "西条市氷見乙977-5",
        "city": "西条市",
        "number": "147",
        "status": "done"
      }
    },
    {
      "type": "Feature",
      "geometry": {
        "type": "Point",
        "coordinates": [
          132.8234976,
          33.9096145
        ]
      },
      "properties": {
        "id": "0b6715c7-5b57-4155-87a7-60cb847dba02",
        "name": "産王権現神社向かいの市道鉄柵",
        "address": "城山町160",
        "city": "松山市",
        "number": "19-3",
        "status": "done"
      }
    },
    {
      "type": "Feature",
      "geometry": {
        "type": "Point",
        "coordinates": [
          132.5486421,
          32.9429932
        ]
      },
      "properties": {
        "id": "0b6a5db2-760d-4a22-bf75-8db0793d23be",
        "name": "久良ふるさとセンター前",
        "address": "久良2095-2",
        "city": "愛南町",
        "number": "9-32",
        "status": "not_yet"
      }
    },
    {
      "type": "Feature",
      "geometry": {
        "type": "Point",
        "coordinates": [
          132.552872,
          33.9855
        ]
      },
      "properties": {
        "id": "0b9628d4-0b2a-4091-8f84-751d78e6187a",
        "name": "県漁協中島三和支所上怒和事業所横のグラウンド北側",
        "address": "上怒和388",
        "city": "松山市",
        "number": "202-1",
        "status": "not_yet"
      }
    },
    {
      "type": "Feature",
      "geometry": {
        "type": "Point",
        "coordinates": [
          132.3781086,
          33.4980384
        ]
      },
      "properties": {
        "id": "0ba9c820-52b0-4036-a312-6c44ab60209b",
        "name": "masked",
        "address": "保内町宮内10番耕地674−3地先",
        "city": "八幡浜市",
        "number": "90",
        "status": "done"
      }
    },
    {
      "type": "Feature",
      "geometry": {
        "type": "Point",
        "coordinates": [
          133.282278,
          33.961738
        ]
      },
      "properties": {
        "id": "0bbcf807-2266-4ad4-ae45-53fb3542ff35",
        "name": "市民文化センター東側緑地南寄り",
        "address": "繁本町8番",
        "city": "新居浜市",
        "number": "1-5",
        "status": "done"
      }
    },
    {
      "type": "Feature",
      "geometry": {
        "type": "Point",
        "coordinates": [
          132.6747042,
          33.2626101
        ]
      },
      "properties": {
        "id": "0bc85973-33b7-4293-a1f7-b8590d1ae0d2",
        "name": "清延集会所",
        "address": "大字清延751清延集会所",
        "city": "鬼北町",
        "number": "19",
        "status": "done"
      }
    },
    {
      "type": "Feature",
      "geometry": {
        "type": "Point",
        "coordinates": [
          132.475407,
          33.608908
        ]
      },
      "properties": {
        "id": "0bc89ce4-a8a0-4c52-94dc-e5229f3f4aad",
        "name": "沖浦バス停横ガードレール",
        "address": "長浜町沖浦丙2081先",
        "city": "大洲市",
        "number": "29-1",
        "status": "error_wrong_place"
      }
    },
    {
      "type": "Feature",
      "geometry": {
        "type": "Point",
        "coordinates": [
          133.545127,
          33.985854
        ]
      },
      "properties": {
        "id": "0bca707e-9bea-43a7-a267-75713abf29a3",
        "name": "三島神社東ガードパイプ",
        "address": "三島宮川1丁目6-4",
        "city": "四国中央市",
        "number": "19-6",
        "status": "not_yet"
      }
    },
    {
      "type": "Feature",
      "geometry": {
        "type": "Point",
        "coordinates": [
          132.5617,
          33.19482
        ]
      },
      "properties": {
        "id": "0bd73b6f-9e78-4f3c-bd2b-97560c235a51",
        "name": "薬師谷バス停横（集会所横）",
        "address": "川内甲1829番地先（薬師谷）",
        "city": "宇和島市",
        "number": "17-04",
        "status": "done"
      }
    },
    {
      "type": "Feature",
      "geometry": {
        "type": "Point",
        "coordinates": [
          132.5463925,
          33.5070204
        ]
      },
      "properties": {
        "id": "0be7e75f-d1f2-40e7-9f6c-308dc954cca3",
        "name": "大洲市役所長浜支所植込",
        "address": "長浜甲480-3",
        "city": "大洲市",
        "number": "25-1",
        "status": "not_yet"
      }
    },
    {
      "type": "Feature",
      "geometry": {
        "type": "Point",
        "coordinates": [
          132.57307,
          33.23124
        ]
      },
      "properties": {
        "id": "0bed632c-08e9-4226-9d8b-1ffdbda913bc",
        "name": "和霊公民館",
        "address": "和霊東町3丁目1番1号",
        "city": "宇和島市",
        "number": "06-03",
        "status": "done"
      }
    },
    {
      "type": "Feature",
      "geometry": {
        "type": "Point",
        "coordinates": [
          132.9003228,
          33.6472775
        ]
      },
      "properties": {
        "id": "0bfd38f2-4afc-48f4-a6dc-2fbdde02b32c",
        "name": "旧久万ブロック前町道入口ガ",
        "address": "上野尻甲２６",
        "city": "久万高原町",
        "number": "2-5",
        "status": "not_yet"
      }
    },
    {
      "type": "Feature",
      "geometry": {
        "type": "Point",
        "coordinates": [
          133.0425354,
          33.90780565
        ]
      },
      "properties": {
        "id": "0c21ba8e-d3f2-47d6-920a-ec6a7b630fc3",
        "name": "丹原419＿古田②",
        "address": "西条市丹原町古田甲819-1",
        "city": "西条市",
        "number": "419",
        "status": "not_yet"
      }
    },
    {
      "type": "Feature",
      "geometry": {
        "type": "Point",
        "coordinates": [
          132.979364,
          33.62364
        ]
      },
      "properties": {
        "id": "0c37cf76-27e7-4412-b229-1d0bc3c326bf",
        "name": "筒城集会所",
        "address": "七鳥仕出501",
        "city": "久万高原町",
        "number": "22-7",
        "status": "not_yet"
      }
    },
    {
      "type": "Feature",
      "geometry": {
        "type": "Point",
        "coordinates": [
          132.8589142,
          33.6490191
        ]
      },
      "properties": {
        "id": "0c500f1c-9ec9-4b53-9495-3602a1b0c683",
        "name": "masked",
        "address": "二名甲３３００",
        "city": "久万高原町",
        "number": "11-2",
        "status": "not_yet"
      }
    },
    {
      "type": "Feature",
      "geometry": {
        "type": "Point",
        "coordinates": [
          132.712082,
          33.89542
        ]
      },
      "properties": {
        "id": "0c552dcb-35bb-42c7-9f67-a89be709d41f",
        "name": "高浜公園北側フェンス",
        "address": "高浜町6丁目1777",
        "city": "松山市",
        "number": "56-7",
        "status": "done"
      }
    },
    {
      "type": "Feature",
      "geometry": {
        "type": "Point",
        "coordinates": [
          132.7704908,
          33.8147931
        ]
      },
      "properties": {
        "id": "0c5b3731-6687-4a27-bb5f-4de267a78b3a",
        "name": "石井公民館西石井分館南側植込み",
        "address": "西石井5丁目12-10",
        "city": "松山市",
        "number": "62-5",
        "status": "done"
      }
    },
    {
      "type": "Feature",
      "geometry": {
        "type": "Point",
        "coordinates": [
          132.7057285,
          33.7753706
        ]
      },
      "properties": {
        "id": "0c61534e-01a2-4d16-8363-e6fc12ee7d6b",
        "name": "nan",
        "address": "大字南黒田694番地",
        "city": "松前町",
        "number": "2",
        "status": "done"
      }
    },
    {
      "type": "Feature",
      "geometry": {
        "type": "Point",
        "coordinates": [
          132.3705745,
          33.4754643
        ]
      },
      "properties": {
        "id": "0c658c49-83b9-49ab-b907-db5788b09b5b",
        "name": "大黒建設備付近",
        "address": "伊方町大浜",
        "city": "伊方町",
        "number": "3-14",
        "status": "done"
      }
    },
    {
      "type": "Feature",
      "geometry": {
        "type": "Point",
        "coordinates": [
          132.5365704,
          33.3457268
        ]
      },
      "properties": {
        "id": "0c6a0bc9-6c22-46c9-8aaa-2e9ea4a91185",
        "name": "下宇和地域づくり活動センター前",
        "address": "宇和町皆田1234",
        "city": "西予市",
        "number": "2-49",
        "status": "done"
      }
    },
    {
      "type": "Feature",
      "geometry": {
        "type": "Point",
        "coordinates": [
          133.586787,
          33.992697
        ]
      },
      "properties": {
        "id": "0c8472e2-3742-4dc2-86c1-81df957451bf",
        "name": "上分小学校体育館東フェンス",
        "address": "上分町795-1",
        "city": "四国中央市",
        "number": "8-4",
        "status": "done"
      }
    },
    {
      "type": "Feature",
      "geometry": {
        "type": "Point",
        "coordinates": [
          132.8589142,
          33.6490191
        ]
      },
      "properties": {
        "id": "0c925595-8ce8-4599-8d36-aae0f0bc757d",
        "name": "永久町道入口",
        "address": "二名甲82-1",
        "city": "久万高原町",
        "number": "12-4",
        "status": "not_yet"
      }
    },
    {
      "type": "Feature",
      "geometry": {
        "type": "Point",
        "coordinates": [
          133.180044,
          33.92262553
        ]
      },
      "properties": {
        "id": "0c92cdad-aadd-4f2a-b94f-1955e897230a",
        "name": "SAIJO BASE西入口",
        "address": "西条市明屋敷131-2",
        "city": "西条市",
        "number": "49",
        "status": "done"
      }
    },
    {
      "type": "Feature",
      "geometry": {
        "type": "Point",
        "coordinates": [
          132.6929448,
          33.5733697
        ]
      },
      "properties": {
        "id": "0ca2265e-6abc-40b3-8d87-9d5e7fceac2e",
        "name": "R379長田口（田代口停留所横）",
        "address": "五百木1425-2",
        "city": "内子町",
        "number": "20",
        "status": "not_yet"
      }
    },
    {
      "type": "Feature",
      "geometry": {
        "type": "Point",
        "coordinates": [
          133.589552,
          33.994044
        ]
      },
      "properties": {
        "id": "0caafe95-d8ae-452c-a43f-7b5346d0e9fb",
        "name": "金生川ダム放流注意看板付近ガードレール",
        "address": "上分町626付近",
        "city": "四国中央市",
        "number": "8-3",
        "status": "not_yet"
      }
    },
    {
      "type": "Feature",
      "geometry": {
        "type": "Point",
        "coordinates": [
          133.282217,
          33.960585
        ]
      },
      "properties": {
        "id": "0cc5396e-aa07-4ea2-b50e-630e37608526",
        "name": "市役所北側ガードパイプ",
        "address": "一宮町一丁目5番1号付近",
        "city": "新居浜市",
        "number": "4-5",
        "status": "done"
      }
    },
    {
      "type": "Feature",
      "geometry": {
        "type": "Point",
        "coordinates": [
          132.50277,
          33.26873
        ]
      },
      "properties": {
        "id": "0ccc8d1c-f5f4-4413-8531-755e76059ae2",
        "name": "南君東集会所（ブロック塀）",
        "address": "吉田町南君970番地2（南君東）",
        "city": "宇和島市",
        "number": "35-02",
        "status": "done"
      }
    },
    {
      "type": "Feature",
      "geometry": {
        "type": "Point",
        "coordinates": [
          133.427181,
          33.96096
        ]
      },
      "properties": {
        "id": "0ccd0105-88ac-436a-92a7-0196c8605a23",
        "name": "土居中学校付近（三好克彦邸前）",
        "address": "土居町土居171-1付近",
        "city": "四国中央市",
        "number": "32-8",
        "status": "not_yet"
      }
    },
    {
      "type": "Feature",
      "geometry": {
        "type": "Point",
        "coordinates": [
          132.7224731,
          33.4349563
        ]
      },
      "properties": {
        "id": "0cfb1520-74dc-4f19-831e-e6be67447edd",
        "name": "大窪西、大窪停留所横ガードレール",
        "address": "舟戸305",
        "city": "西予市",
        "number": "3-41",
        "status": "not_yet"
      }
    },
    {
      "type": "Feature",
      "geometry": {
        "type": "Point",
        "coordinates": [
          132.7378377,
          33.83719982
        ]
      },
      "properties": {
        "id": "0d10f59e-2a31-4299-8d0f-4061b8906413",
        "name": "丸山集会所南側金網",
        "address": "北斎院町32",
        "city": "松山市",
        "number": "45-5",
        "status": "error_wrong_place"
      }
    },
    {
      "type": "Feature",
      "geometry": {
        "type": "Point",
        "coordinates": [
          132.7327936,
          33.8277176
        ]
      },
      "properties": {
        "id": "0d23e458-bddb-46dd-8a64-bbac3a78f6d5",
        "name": "済美平成中等教育学校北側県道鉄柵",
        "address": "空港通5丁目6-3",
        "city": "松山市",
        "number": "18-2",
        "status": "done"
      }
    },
    {
      "type": "Feature",
      "geometry": {
        "type": "Point",
        "coordinates": [
          132.9854735,
          33.4942981
        ]
      },
      "properties": {
        "id": "0d2f9da1-f4b6-4192-bc73-a4ef1f3a49c6",
        "name": "旧猪伏集会所",
        "address": "西谷９１２０",
        "city": "久万高原町",
        "number": "28-6",
        "status": "not_yet"
      }
    },
    {
      "type": "Feature",
      "geometry": {
        "type": "Point",
        "coordinates": [
          133.188464,
          33.92037754
        ]
      },
      "properties": {
        "id": "0d663467-f8f3-4d48-bebb-0355e27cc170",
        "name": "せんい服地のマツケ南側駐車場",
        "address": "西条市大町620",
        "city": "西条市",
        "number": "42",
        "status": "done"
      }
    },
    {
      "type": "Feature",
      "geometry": {
        "type": "Point",
        "coordinates": [
          133.291819,
          33.974471
        ]
      },
      "properties": {
        "id": "0d6ec89d-f170-45f2-83d5-bff752d210e1",
        "name": "愛媛労災病院北西フェンス",
        "address": "南小松原町13番27号",
        "city": "新居浜市",
        "number": "13-6",
        "status": "not_yet"
      }
    },
    {
      "type": "Feature",
      "geometry": {
        "type": "Point",
        "coordinates": [
          133.05497,
          34.14873
        ]
      },
      "properties": {
        "id": "0d76807b-caab-4d9a-a572-4a23f1907347",
        "name": "仁江バス停前三叉路",
        "address": "吉海町仁江2453番地地先",
        "city": "今治市",
        "number": "45-4",
        "status": "done"
      }
    },
    {
      "type": "Feature",
      "geometry": {
        "type": "Point",
        "coordinates": [
          132.553418,
          33.503632
        ]
      },
      "properties": {
        "id": "0d788731-b4d0-4d15-9849-a39232bf99b1",
        "name": "市道如法寺柚木団地線入口三叉路ガードパイプ",
        "address": "柚木877-1先",
        "city": "大洲市",
        "number": "1-5",
        "status": "not_yet"
      }
    },
    {
      "type": "Feature",
      "geometry": {
        "type": "Point",
        "coordinates": [
          132.7079543,
          33.8293425
        ]
      },
      "properties": {
        "id": "0d831d90-332b-40d0-b264-ba6c90da1bff",
        "name": "桃山幼稚園南側フェンス",
        "address": "南吉田町2772-2",
        "city": "松山市",
        "number": "44-1",
        "status": "done"
      }
    },
    {
      "type": "Feature",
      "geometry": {
        "type": "Point",
        "coordinates": [
          132.588511,
          32.9516433
        ]
      },
      "properties": {
        "id": "0d9886de-a754-4d71-936c-e52079a93473",
        "name": "南楽荘入口付近",
        "address": "深浦3-1",
        "city": "愛南町",
        "number": "6-24",
        "status": "done"
      }
    },
    {
      "type": "Feature",
      "geometry": {
        "type": "Point",
        "coordinates": [
          132.7560619,
          33.8465043
        ]
      },
      "properties": {
        "id": "0d9ba1a4-1546-4e43-b89e-eecdbfe7f232",
        "name": "若草幼稚園西側フェンス",
        "address": "味酒町3丁目5-1",
        "city": "松山市",
        "number": "11-4",
        "status": "done"
      }
    },
    {
      "type": "Feature",
      "geometry": {
        "type": "Point",
        "coordinates": [
          132.71670684,
          33.41531149
        ]
      },
      "properties": {
        "id": "0db3a80b-d294-4fb6-92f9-30dbe2708d4a",
        "name": "横林地域づくり活動センター横ガードレール",
        "address": "坂石",
        "city": "西予市",
        "number": "3-34",
        "status": "done"
      }
    },
    {
      "type": "Feature",
      "geometry": {
        "type": "Point",
        "coordinates": [
          133.0134,
          34.06045
        ]
      },
      "properties": {
        "id": "0db4c0e3-52fc-4963-a29e-620c1e6467e5",
        "name": "旧城東小学校正門横（向かって右）",
        "address": "東門町4-3-16",
        "city": "今治市",
        "number": "8-4",
        "status": "done"
      }
    },
    {
      "type": "Feature",
      "geometry": {
        "type": "Point",
        "coordinates": [
          132.6091457,
          32.9509104
        ]
      },
      "properties": {
        "id": "0db8c3ba-25c4-4148-a04e-23849250514f",
        "name": "満倉集会所前",
        "address": "満倉2686",
        "city": "愛南町",
        "number": "8-25",
        "status": "done"
      }
    },
    {
      "type": "Feature",
      "geometry": {
        "type": "Point",
        "coordinates": [
          132.59946,
          33.28898
        ]
      },
      "properties": {
        "id": "0dd97257-748c-4da8-b456-721494f74546",
        "name": "JAえひめ南農協成妙支所（東側）",
        "address": "三間町戸雁458番地1",
        "city": "宇和島市",
        "number": "50-01",
        "status": "done"
      }
    },
    {
      "type": "Feature",
      "geometry": {
        "type": "Point",
        "coordinates": [
          132.7385547,
          33.8183508
        ]
      },
      "properties": {
        "id": "0de4862a-966b-419b-be30-eaa47db6b849",
        "name": "masked",
        "address": "余戸東5丁目11-16",
        "city": "松山市",
        "number": "41-3",
        "status": "done"
      }
    },
    {
      "type": "Feature",
      "geometry": {
        "type": "Point",
        "coordinates": [
          132.7785579,
          33.8477788
        ]
      },
      "properties": {
        "id": "0dfae928-c477-4f2c-acb1-b80e47208ae3",
        "name": "愛媛県県民文化会館P南側金網",
        "address": "道後一万1-2",
        "city": "松山市",
        "number": "24-7",
        "status": "done"
      }
    },
    {
      "type": "Feature",
      "geometry": {
        "type": "Point",
        "coordinates": [
          132.6916727,
          33.7493665
        ]
      },
      "properties": {
        "id": "0dfc6b14-776a-483b-ba31-f8507f3ec45f",
        "name": "県営伊予団地入口向側街路樹壇(市道尾崎中村線)",
        "address": "尾崎",
        "city": "伊予市",
        "number": "3-18",
        "status": "done"
      }
    },
    {
      "type": "Feature",
      "geometry": {
        "type": "Point",
        "coordinates": [
          132.46836,
          33.14114
        ]
      },
      "properties": {
        "id": "0e081c71-0a2c-4dc1-b6eb-d471e044280f",
        "name": "北灘小学校付近",
        "address": "津島町北灘乙153番地（家次）",
        "city": "宇和島市",
        "number": "74-01",
        "status": "done"
      }
    },
    {
      "type": "Feature",
      "geometry": {
        "type": "Point",
        "coordinates": [
          132.5853062,
          32.9629089
        ]
      },
      "properties": {
        "id": "0e0deb5e-45ad-47fb-bb21-7c616baa4eb8",
        "name": "城辺保健福祉センター前",
        "address": "城辺甲2487",
        "city": "愛南町",
        "number": "1-2",
        "status": "done"
      }
    },
    {
      "type": "Feature",
      "geometry": {
        "type": "Point",
        "coordinates": [
          132.9918528,
          33.5828413
        ]
      },
      "properties": {
        "id": "0e1879ee-f5a0-45df-8450-55b4ea96e55d",
        "name": "masked",
        "address": "日野浦３１２４",
        "city": "久万高原町",
        "number": "21-4",
        "status": "not_yet"
      }
    },
    {
      "type": "Feature",
      "geometry": {
        "type": "Point",
        "coordinates": [
          132.56968,
          33.229
        ]
      },
      "properties": {
        "id": "0e200f74-91ca-40c1-ac1f-249cdee5b936",
        "name": "片山酒店前JRモータープール",
        "address": "和霊中町1丁目3番",
        "city": "宇和島市",
        "number": "06-02",
        "status": "done"
      }
    },
    {
      "type": "Feature",
      "geometry": {
        "type": "Point",
        "coordinates": [
          132.778437,
          33.6536955
        ]
      },
      "properties": {
        "id": "0e251535-880e-4e56-9c2b-473ddadeeb2d",
        "name": "黒木集会所前ガードレール",
        "address": "伊予郡砥部町 中野川477",
        "city": "砥部町",
        "number": "40",
        "status": "not_yet"
      }
    },
    {
      "type": "Feature",
      "geometry": {
        "type": "Point",
        "coordinates": [
          133.1472385,
          34.2478606
        ]
      },
      "properties": {
        "id": "0e380f38-c7cf-4de9-974a-51b2dd4214af",
        "name": "岩城中学校裏門付近",
        "address": "岩城１６２２番地",
        "city": "上島町",
        "number": "25",
        "status": "done"
      }
    },
    {
      "type": "Feature",
      "geometry": {
        "type": "Point",
        "coordinates": [
          132.94111,
          34.01908
        ]
      },
      "properties": {
        "id": "0e383a81-237a-4c6c-896e-bb67d6fa791b",
        "name": "玉川支所前バス停",
        "address": "玉川町三反地甲21-5",
        "city": "今治市",
        "number": "31-3",
        "status": "done"
      }
    },
    {
      "type": "Feature",
      "geometry": {
        "type": "Point",
        "coordinates": [
          132.762151,
          33.425791
        ]
      },
      "properties": {
        "id": "0e478aa4-5dee-4071-bab8-9bf20764016e",
        "name": "遊子川地域づくり活動センター前ガードレール",
        "address": "遊子谷2394",
        "city": "西予市",
        "number": "4-2",
        "status": "done"
      }
    },
    {
      "type": "Feature",
      "geometry": {
        "type": "Point",
        "coordinates": [
          133.481036,
          33.966062
        ]
      },
      "properties": {
        "id": "0e50072b-6259-41a1-adfe-be38c3d659e0",
        "name": "豊岡小学校プール北側（公民館東側）",
        "address": "豊岡町豊田5",
        "city": "四国中央市",
        "number": "23-7",
        "status": "not_yet"
      }
    },
    {
      "type": "Feature",
      "geometry": {
        "type": "Point",
        "coordinates": [
          132.917093,
          33.77255692
        ]
      },
      "properties": {
        "id": "0e83d99c-7c40-4f78-8639-64ffe46b21b2",
        "name": "西谷小学校入口県道沿",
        "address": "則之内乙1186番地1",
        "city": "東温市",
        "number": "13-75",
        "status": "done"
      }
    },
    {
      "type": "Feature",
      "geometry": {
        "type": "Point",
        "coordinates": [
          133.02161,
          33.99587
        ]
      },
      "properties": {
        "id": "0e869581-ce29-435d-b73a-c4c74ea59c75",
        "name": "朝倉支所前",
        "address": "朝倉北甲397番地",
        "city": "今治市",
        "number": "29-1",
        "status": "done"
      }
    },
    {
      "type": "Feature",
      "geometry": {
        "type": "Point",
        "coordinates": [
          132.53841,
          33.28257
        ]
      },
      "properties": {
        "id": "0eab6a46-9fe8-42f7-984c-cc331d808bc1",
        "name": "吉田町図書館駐車場",
        "address": "吉田町立間尻甲1802番地2（御殿内1区）",
        "city": "宇和島市",
        "number": "46-01",
        "status": "done"
      }
    },
    {
      "type": "Feature",
      "geometry": {
        "type": "Point",
        "coordinates": [
          133.1782389,
          33.92130433
        ]
      },
      "properties": {
        "id": "0ec783da-0e00-4cfb-94cd-74913e4a9535",
        "name": "滋巷①",
        "address": "西条市明屋敷438-2",
        "city": "西条市",
        "number": "70",
        "status": "done"
      }
    },
    {
      "type": "Feature",
      "geometry": {
        "type": "Point",
        "coordinates": [
          133.5061568,
          33.8742151
        ]
      },
      "properties": {
        "id": "0ed0d925-19da-4dfb-99bd-01ede408fa39",
        "name": "自治会上猿田集会所前（旧26-2）前回改選（令和3年）と場所が変更",
        "address": "富郷町寒川山1010-2",
        "city": "四国中央市",
        "number": "24-4",
        "status": "not_yet"
      }
    },
    {
      "type": "Feature",
      "geometry": {
        "type": "Point",
        "coordinates": [
          132.7111176,
          33.7789891
        ]
      },
      "properties": {
        "id": "0ed490f3-874b-4338-9279-4562ba500850",
        "name": "貴布弥神社",
        "address": "大字北黒田264番地",
        "city": "松前町",
        "number": "7",
        "status": "done"
      }
    },
    {
      "type": "Feature",
      "geometry": {
        "type": "Point",
        "coordinates": [
          132.671936,
          33.905502
        ]
      },
      "properties": {
        "id": "0edf03b4-1cde-4446-8c23-e646af6ca87d",
        "name": "由良港の乗入口の東側鉄柵",
        "address": "由良町1234",
        "city": "松山市",
        "number": "57-4",
        "status": "not_yet"
      }
    },
    {
      "type": "Feature",
      "geometry": {
        "type": "Point",
        "coordinates": [
          132.711212,
          33.781155
        ]
      },
      "properties": {
        "id": "0ef891af-1332-4cbf-937f-af82271e8cbc",
        "name": "黒田保育所",
        "address": "大字北黒田711番地1",
        "city": "松前町",
        "number": "6",
        "status": "done"
      }
    },
    {
      "type": "Feature",
      "geometry": {
        "type": "Point",
        "coordinates": [
          132.779617,
          33.978985
        ]
      },
      "properties": {
        "id": "0efc37fa-4a46-4dcc-8df6-c47d367fa566",
        "name": "伊予銀行北条支店北側鉄柵",
        "address": "北条住1381",
        "city": "松山市",
        "number": "101-5",
        "status": "done"
      }
    },
    {
      "type": "Feature",
      "geometry": {
        "type": "Point",
        "coordinates": [
          132.514177,
          32.961246
        ]
      },
      "properties": {
        "id": "0f187838-fad9-4d23-9e2d-1b0672c8c787",
        "name": "高畑バス停付近ガードパイプ",
        "address": "高畑189-5",
        "city": "愛南町",
        "number": "11-43",
        "status": "not_yet"
      }
    },
    {
      "type": "Feature",
      "geometry": {
        "type": "Point",
        "coordinates": [
          132.7224731,
          33.4349563
        ]
      },
      "properties": {
        "id": "0f3619a4-d9e2-48cb-a771-82788bc5849c",
        "name": "知野お堂前ガードレール",
        "address": "舟戸2215",
        "city": "西予市",
        "number": "3-42",
        "status": "not_yet"
      }
    },
    {
      "type": "Feature",
      "geometry": {
        "type": "Point",
        "coordinates": [
          132.8223493,
          33.653231
        ]
      },
      "properties": {
        "id": "0f426abe-7cf0-4c46-953a-a7ce434efa54",
        "name": "仙波分校跡地",
        "address": "伊予郡砥部町 仙波465",
        "city": "砥部町",
        "number": "41",
        "status": "not_yet"
      }
    },
    {
      "type": "Feature",
      "geometry": {
        "type": "Point",
        "coordinates": [
          132.4142333,
          33.4837284
        ]
      },
      "properties": {
        "id": "0f5f4b65-4b7e-4472-aebc-2b6f701441d2",
        "name": "喜須来地区公民館金網",
        "address": "保内町須川78番地1",
        "city": "八幡浜市",
        "number": "70",
        "status": "done"
      }
    },
    {
      "type": "Feature",
      "geometry": {
        "type": "Point",
        "coordinates": [
          132.1158708,
          33.3757435
        ]
      },
      "properties": {
        "id": "0f74415d-078b-4c7e-b84d-ead7fe4da559",
        "name": "佐田集会所付近",
        "address": "伊方町佐田",
        "city": "伊方町",
        "number": "25-97",
        "status": "done"
      }
    },
    {
      "type": "Feature",
      "geometry": {
        "type": "Point",
        "coordinates": [
          133.0643268,
          33.89339451
        ]
      },
      "properties": {
        "id": "0f7afaa8-1ad5-4f11-bcb8-65861922ae5b",
        "name": "丹原423＿（旧）農協光下田出張所",
        "address": "西条市丹原町田野上方698-4",
        "city": "西条市",
        "number": "423",
        "status": "done"
      }
    },
    {
      "type": "Feature",
      "geometry": {
        "type": "Point",
        "coordinates": [
          133.1670186,
          33.91652778
        ]
      },
      "properties": {
        "id": "0f82bfcf-71ed-4599-a1b5-5d041c79f229",
        "name": "北団地東入口南側",
        "address": "西条市古川甲371",
        "city": "西条市",
        "number": "84",
        "status": "not_yet"
      }
    },
    {
      "type": "Feature",
      "geometry": {
        "type": "Point",
        "coordinates": [
          132.0504067,
          33.3709443
        ]
      },
      "properties": {
        "id": "0f9c858d-067d-4b81-bb57-e9dbf4910a4a",
        "name": "串新農道終点付近",
        "address": "伊方町串",
        "city": "伊方町",
        "number": "24-95",
        "status": "done"
      }
    },
    {
      "type": "Feature",
      "geometry": {
        "type": "Point",
        "coordinates": [
          132.54059,
          33.2822
        ]
      },
      "properties": {
        "id": "0fa916e5-4cd3-47a4-85d5-5495fe1f2506",
        "name": "市立吉田病院",
        "address": "吉田町北小路甲217（北小路3区）",
        "city": "宇和島市",
        "number": "31-05",
        "status": "done"
      }
    },
    {
      "type": "Feature",
      "geometry": {
        "type": "Point",
        "coordinates": [
          133.0570424,
          33.96311459
        ]
      },
      "properties": {
        "id": "0fc7fb45-5f58-4417-95c7-2c335031d70c",
        "name": "東予287＿河北会館北",
        "address": "西条市楠甲1295-1",
        "city": "西条市",
        "number": "287",
        "status": "done"
      }
    },
    {
      "type": "Feature",
      "geometry": {
        "type": "Point",
        "coordinates": [
          132.8064966,
          33.8074923
        ]
      },
      "properties": {
        "id": "0fd9c02d-223e-4c26-a648-74e5a847ccf9",
        "name": "軍ヶ森神社東側ブロック",
        "address": "来住町226",
        "city": "松山市",
        "number": "30-7",
        "status": "done"
      }
    },
    {
      "type": "Feature",
      "geometry": {
        "type": "Point",
        "coordinates": [
          132.42087509,
          33.39339451
        ]
      },
      "properties": {
        "id": "0fe0dc9b-1e01-40d8-9df2-b90206b41689",
        "name": "三瓶病院前ガードレール",
        "address": "朝立2-1-7",
        "city": "西予市",
        "number": "5-7",
        "status": "done"
      }
    },
    {
      "type": "Feature",
      "geometry": {
        "type": "Point",
        "coordinates": [
          133.07063,
          34.17176
        ]
      },
      "properties": {
        "id": "0fe315a1-ff0f-4979-aa9f-414dbdfea1bd",
        "name": "国道317号ガードパイプ",
        "address": "宮窪町宮窪4753番地1先",
        "city": "今治市",
        "number": "49-6",
        "status": "done"
      }
    },
    {
      "type": "Feature",
      "geometry": {
        "type": "Point",
        "coordinates": [
          132.502981,
          33.480418
        ]
      },
      "properties": {
        "id": "101b34b2-fc7e-4e9d-992c-271fb84ce4da",
        "name": "富元団地入口ガードレール",
        "address": "平野町野田2733先",
        "city": "大洲市",
        "number": "10-2",
        "status": "not_yet"
      }
    },
    {
      "type": "Feature",
      "geometry": {
        "type": "Point",
        "coordinates": [
          132.4251354,
          33.3145423
        ]
      },
      "properties": {
        "id": "10234362-f3b7-48a2-aa1f-71c70a18beef",
        "name": "旧高山保育園フェンス",
        "address": "明浜町宮野浦313",
        "city": "西予市",
        "number": "1-9",
        "status": "done"
      }
    },
    {
      "type": "Feature",
      "geometry": {
        "type": "Point",
        "coordinates": [
          133.362364,
          33.991145
        ]
      },
      "properties": {
        "id": "102925eb-72c1-4750-ac62-3167548cd6fa",
        "name": "市道大島本線ガードレール",
        "address": "大島甲1599番地",
        "city": "新居浜市",
        "number": "21-6",
        "status": "not_yet"
      }
    },
    {
      "type": "Feature",
      "geometry": {
        "type": "Point",
        "coordinates": [
          132.473021,
          33.501713
        ]
      },
      "properties": {
        "id": "104a031a-3024-438c-a6a4-eeba08ce6e9f",
        "name": "横野集会所横ガードレール",
        "address": "平野町平地1048先",
        "city": "大洲市",
        "number": "9-4",
        "status": "not_yet"
      }
    },
    {
      "type": "Feature",
      "geometry": {
        "type": "Point",
        "coordinates": [
          132.7923732,
          33.7840869
        ]
      },
      "properties": {
        "id": "10582372-cedf-450d-adc7-48f0bf16cfa8",
        "name": "八瀬集会所フェンス",
        "address": "伊予郡砥部町 高尾田128",
        "city": "砥部町",
        "number": "35",
        "status": "done"
      }
    },
    {
      "type": "Feature",
      "geometry": {
        "type": "Point",
        "coordinates": [
          133.0382126,
          33.79689652
        ]
      },
      "properties": {
        "id": "105ff4a9-96bf-4156-978c-32ff4f95fb1e",
        "name": "丹原460＿下影地区入口市道",
        "address": "西条市丹原町明河乙613",
        "city": "西条市",
        "number": "460",
        "status": "not_yet"
      }
    },
    {
      "type": "Feature",
      "geometry": {
        "type": "Point",
        "coordinates": [
          132.711212,
          33.781155
        ]
      },
      "properties": {
        "id": "10919130-816b-436c-8b95-8e9044a858d3",
        "name": "地蔵町公園",
        "address": "大字北黒田853番地1",
        "city": "松前町",
        "number": "5",
        "status": "error_wrong_place"
      }
    },
    {
      "type": "Feature",
      "geometry": {
        "type": "Point",
        "coordinates": [
          132.3928711,
          33.4145249
        ]
      },
      "properties": {
        "id": "10d1f869-45ee-4ba3-9d01-2fc49839293d",
        "name": "masked",
        "address": "真網代乙354番地1",
        "city": "八幡浜市",
        "number": "53",
        "status": "done"
      }
    },
    {
      "type": "Feature",
      "geometry": {
        "type": "Point",
        "coordinates": [
          132.99683,
          34.06634
        ]
      },