{
  "type": "FeatureCollection",
  "features": [
    {
      "type": "Feature",
      "geometry": {
        "type": "Point",
        "coordinates": [
          137.9746039,
          36.2311171
        ]
      },
      "properties": {
        "id": "0002081e-ed40-4055-892b-e086be679994",
        "name": "まつもと市民芸術館北側",
        "address": "深志3-10-1",
        "city": "松本市",
        "number": "2-6",
        "status": "done"
      }
    },
    {
      "type": "Feature",
      "geometry": {
        "type": "Point",
        "coordinates": [
          137.8186552,
          35.5256388
        ]
      },
      "properties": {
        "id": "0005d0a6-7d61-4636-b632-674b9c81b59f",
        "name": "市営今宮球場スコアボード裏フェンス",
        "address": "今宮町4丁目8183番地",
        "city": "飯田市",
        "number": "34",
        "status": "done"
      }
    },
    {
      "type": "Feature",
      "geometry": {
        "type": "Point",
        "coordinates": [
          138.358743,
          36.7447697
        ]
      },
      "properties": {
        "id": "000e4f93-7f5e-4a9d-90c7-c2f953a5f109",
        "name": "旧ニュープラスチック東側駐車場端",
        "address": "岩船 260-1",
        "city": "中野市",
        "number": "78",
        "status": "done"
      }
    },
    {
      "type": "Feature",
      "geometry": {
        "type": "Point",
        "coordinates": [
          138.25116099,
          36.61398643
        ]
      },
      "properties": {
        "id": "0014f095-1fde-435c-b15d-e104cb814f24",
        "name": "長野市若穂支所入口フェンス",
        "address": null,
        "city": "長野市",
        "number": null,
        "status": "done"
      }
    },
    {
      "type": "Feature",
      "geometry": {
        "type": "Point",
        "coordinates": [
          138.0569176,
          36.2084909
        ]
      },
      "properties": {
        "id": "001efd75-b6bf-419a-b2b3-48f89267e883",
        "name": "旧中入分校跡地前（県道沿）",
        "address": "入山辺6945-1",
        "city": "松本市",
        "number": "31-3",
        "status": "done"
      }
    },
    {
      "type": "Feature",
      "geometry": {
        "type": "Point",
        "coordinates": [
          137.8805033,
          36.3201837
        ]
      },
      "properties": {
        "id": "0024cf16-6eef-4288-a77e-24a958de460f",
        "name": "masked",
        "address": "穂高柏原526-1",
        "city": "安曇野市",
        "number": "34-7",
        "status": "done"
      }
    },
    {
      "type": "Feature",
      "geometry": {
        "type": "Point",
        "coordinates": [
          138.450952,
          35.9164096
        ]
      },
      "properties": {
        "id": "002f2d6e-f5bc-43b4-8097-5eac0965a472",
        "name": "masked",
        "address": "大字平沢82",
        "city": "南牧村",
        "number": "9",
        "status": "not_yet"
      }
    },
    {
      "type": "Feature",
      "geometry": {
        "type": "Point",
        "coordinates": [
          138.2606961,
          36.4068734
        ]
      },
      "properties": {
        "id": "002f4080-5b65-49d6-be2a-c6406ce81461",
        "name": "第6投票区",
        "address": "上田1664番地",
        "city": "上田市",
        "number": "42",
        "status": "done"
      }
    },
    {
      "type": "Feature",
      "geometry": {
        "type": "Point",
        "coordinates": [
          138.148842,
          35.988932
        ]
      },
      "properties": {
        "id": "003065e7-ef7a-40db-8000-b6554d526177",
        "name": "中河原公民館",
        "address": "中河原",
        "city": "茅野市",
        "number": "70",
        "status": "done"
      }
    },
    {
      "type": "Feature",
      "geometry": {
        "type": "Point",
        "coordinates": [
          137.955032,
          35.856201
        ]
      },
      "properties": {
        "id": "00434fa5-0e21-4192-b0b9-8640a03cb457",
        "name": "黒河内　康氏畑",
        "address": "小出一区",
        "city": "伊那市",
        "number": "41-1",
        "status": "error_wrong_place"
      }
    },
    {
      "type": "Feature",
      "geometry": {
        "type": "Point",
        "coordinates": [
          138.21690218,
          36.65036435
        ]
      },
      "properties": {
        "id": "004c5701-d532-4c32-b58d-7d5fc3bfb5ec",
        "name": "松ノ木公園南側フェンス",
        "address": null,
        "city": "長野市",
        "number": null,
        "status": "done"
      }
    },
    {
      "type": "Feature",
      "geometry": {
        "type": "Point",
        "coordinates": [
          137.8465034,
          35.5216135
        ]
      },
      "properties": {
        "id": "004d1a47-b243-4948-8846-04b7e2f6726e",
        "name": "飯沼諏訪神社登り口",
        "address": "上郷飯沼2464番地",
        "city": "飯田市",
        "number": "368",
        "status": "done"
      }
    },
    {
      "type": "Feature",
      "geometry": {
        "type": "Point",
        "coordinates": [
          138.3478422,
          36.7874243
        ]
      },
      "properties": {
        "id": "004ea14f-6ddc-42e1-b737-dc09040f4c5e",
        "name": "コミュニティーセンターカタクリ前",
        "address": "壁田 1134-6",
        "city": "中野市",
        "number": "110",
        "status": "not_yet"
      }
    },
    {
      "type": "Feature",
      "geometry": {
        "type": "Point",
        "coordinates": [
          138.1453124,
          36.0010631
        ]
      },
      "properties": {
        "id": "00503459-d501-46d7-a900-7973ca8ce1db",
        "name": null,
        "address": "上原",
        "city": "茅野市",
        "number": "10",
        "status": "done"
      }
    },
    {
      "type": "Feature",
      "geometry": {
        "type": "Point",
        "coordinates": [
          138.4667411,
          36.1612312
        ]
      },
      "properties": {
        "id": "0054d53a-5925-4685-8c98-6a1af9f7b316",
        "name": "ブロック塀",
        "address": "大字上 42-6",
        "city": "佐久穂町",
        "number": "4-2",
        "status": "done"
      }
    },
    {
      "type": "Feature",
      "geometry": {
        "type": "Point",
        "coordinates": [
          137.631439,
          35.623253
        ]
      },
      "properties": {
        "id": "0067b2a0-8f17-4319-a550-6d7f876df62b",
        "name": "役場前",
        "address": "読書3668-1",
        "city": "南木曽町",
        "number": "24",
        "status": "done"
      }
    },
    {
      "type": "Feature",
      "geometry": {
        "type": "Point",
        "coordinates": [
          137.919347,
          36.4377117
        ]
      },
      "properties": {
        "id": "0069fa02-c05c-472e-b698-4d0911d4e283",
        "name": "日岐　公民館前",
        "address": "大字北陸郷８７７７",
        "city": "生坂村",
        "number": "1-7",
        "status": "not_yet"
      }
    },
    {
      "type": "Feature",
      "geometry": {
        "type": "Point",
        "coordinates": [
          138.41381836,
          36.23741913
        ]
      },
      "properties": {
        "id": "006be56d-2960-4169-b9c9-4eaa08109ef7",
        "name": "平井",
        "address": "根岸3533-2",
        "city": "佐久市",
        "number": "24−う",
        "status": "not_yet"
      }
    },
    {
      "type": "Feature",
      "geometry": {
        "type": "Point",
        "coordinates": [
          137.912537,
          36.31004
        ]
      },
      "properties": {
        "id": "006e9987-9484-49a9-9324-ec7a48cfff9f",
        "name": "masked",
        "address": "豊科南穂高2643-1",
        "city": "安曇野市",
        "number": "8-4",
        "status": "done"
      }
    },
    {
      "type": "Feature",
      "geometry": {
        "type": "Point",
        "coordinates": [
          138.329068,
          36.270205
        ]
      },
      "properties": {
        "id": "00745598-d89d-4aea-95d8-88f38d2a00c0",
        "name": "masked",
        "address": "茂田井８３９",
        "city": "北佐久郡立科町",
        "number": "94",
        "status": "not_yet"
      }
    },
    {
      "type": "Feature",
      "geometry": {
        "type": "Point",
        "coordinates": [
          137.949875,
          36.307274
        ]
      },
      "properties": {
        "id": "0078aba8-ebc0-4a57-b35d-eb2f752888aa",
        "name": "上川手認定こども園前ガードレール",
        "address": "豊科田沢4916-6",
        "city": "安曇野市",
        "number": "18-1",
        "status": "done"
      }
    },
    {
      "type": "Feature",
      "geometry": {
        "type": "Point",
        "coordinates": [
          137.893825,
          35.549211
        ]
      },
      "properties": {
        "id": "007e7e63-048d-47ca-a5fa-d3646dd3d159",
        "name": "村道 ：やまぜん倉庫前一貫道路歩道ガードパイプ ",
        "address": "大字神稲 118番地13 ",
        "city": "豊丘村",
        "number": "11",
        "status": "done"
      }
    },
    {
      "type": "Feature",
      "geometry": {
        "type": "Point",
        "coordinates": [
          138.3894461,
          36.6754113
        ]
      },
      "properties": {
        "id": "007eb28e-0090-490d-887f-7732113b3068",
        "name": "牧",
        "address": "大字牧1115-1",
        "city": "高山村",
        "number": "23",
        "status": "done"
      }
    },
    {
      "type": "Feature",
      "geometry": {
        "type": "Point",
        "coordinates": [
          137.7933577,
          35.2430105
        ]
      },
      "properties": {
        "id": "0081503b-5797-464f-a2e9-a6041cd2728c",
        "name": "坂部集会所",
        "address": "神原2176",
        "city": "天龍村",
        "number": "14",
        "status": "not_yet"
      }
    },
    {
      "type": "Feature",
      "geometry": {
        "type": "Point",
        "coordinates": [
          138.596892,
          36.347898
        ]
      },
      "properties": {
        "id": "00868f9a-5745-430b-8f5e-2253c9e107cd",
        "name": "軽井沢町役場南側",
        "address": "長倉２３８１−１",
        "city": "軽井沢町",
        "number": "4-10",
        "status": "done"
      }
    },
    {
      "type": "Feature",
      "geometry": {
        "type": "Point",
        "coordinates": [
          138.3551158,
          36.372795
        ]
      },
      "properties": {
        "id": "00898670-b3c0-4c19-8230-262d2f6edb19",
        "name": "masked",
        "address": "祢津874-1",
        "city": "東御市",
        "number": "95",
        "status": "done"
      }
    },
    {
      "type": "Feature",
      "geometry": {
        "type": "Point",
        "coordinates": [
          138.243044,
          36.743678
        ]
      },
      "properties": {
        "id": "00a642f8-9edf-40cf-a095-0eef754ce919",
        "name": null,
        "address": "大字豊野福井集落センター前",
        "city": "飯綱町",
        "number": "3-3",
        "status": "done"
      }
    },
    {
      "type": "Feature",
      "geometry": {
        "type": "Point",
        "coordinates": [
          137.9696231,
          35.849361
        ]
      },
      "properties": {
        "id": "00adc5a6-bb48-4e19-a4cd-5a2d82ad5f80",
        "name": "水神橋西交差点",
        "address": "山寺区",
        "city": "伊那市",
        "number": "1-4",
        "status": "not_yet"
      }
    },
    {
      "type": "Feature",
      "geometry": {
        "type": "Point",
        "coordinates": [
          137.933324,
          35.62051
        ]
      },
      "properties": {
        "id": "00b8eb56-519e-48ab-921b-57fc437d21a7",
        "name": "葛北：葛島区民会館前",
        "address": null,
        "city": "中川村",
        "number": "8-42",
        "status": "done"
      }
    },
    {
      "type": "Feature",
      "geometry": {
        "type": "Point",
        "coordinates": [
          137.9393952,
          35.76187295
        ]
      },
      "properties": {
        "id": "00c0f2b8-a0d0-4aaa-b62a-359545ee12a1",
        "name": "町３地区高齢者支え合い拠点施設",
        "address": null,
        "city": "宮田村",
        "number": "41",
        "status": "not_yet"
      }
    },
    {
      "type": "Feature",
      "geometry": {
        "type": "Point",
        "coordinates": [
          138.2204807,
          36.3989107
        ]
      },
      "properties": {
        "id": "00c19ad7-a2a4-4648-95df-f9e68237626c",
        "name": "第26投票区",
        "address": "下之条120番地123",
        "city": "上田市",
        "number": "181",
        "status": "done"
      }
    },
    {
      "type": "Feature",
      "geometry": {
        "type": "Point",
        "coordinates": [
          137.9340239,
          35.728854
        ]
      },
      "properties": {
        "id": "00c3d5d5-41ec-4557-8de1-a6fb1e7ee53e",
        "name": "金村アパート跡地西側ブロック塀",
        "address": null,
        "city": "駒ヶ根市",
        "number": "4-28",
        "status": "not_yet"
      }
    },
    {
      "type": "Feature",
      "geometry": {
        "type": "Point",
        "coordinates": [
          138.2364455,
          36.3857614
        ]
      },
      "properties": {
        "id": "00c704b1-a7d1-469a-a8c3-32b950432d65",
        "name": "第21投票区",
        "address": "諏訪形1378番地8",
        "city": "上田市",
        "number": "149",
        "status": "done"
      }
    },
    {
      "type": "Feature",
      "geometry": {
        "type": "Point",
        "coordinates": [
          137.751142,
          35.974981
        ]
      },
      "properties": {
        "id": "00cd60a7-0269-4967-a514-76b55f17ae45",
        "name": "寺平：小垣外橋南側ガードフェンス",
        "address": "長野県木曽郡木祖村小木曽4014-9",
        "city": "木祖村",
        "number": "6-40",
        "status": "done"
      }
    },
    {
      "type": "Feature",
      "geometry": {
        "type": "Point",
        "coordinates": [
          138.40556335,
          36.27339172
        ]
      },
      "properties": {
        "id": "00d6de72-1c20-4df0-91fd-5f9ef767ec79",
        "name": "下原",
        "address": "甲1351-1",
        "city": "佐久市",
        "number": "64−い",
        "status": "done"
      }
    },
    {
      "type": "Feature",
      "geometry": {
        "type": "Point",
        "coordinates": [
          137.9562804,
          36.1138402
        ]
      },
      "properties": {
        "id": "00e9c228-16dc-4067-a263-59a5573bfbaf",
        "name": "ニデックプレシジョン塩尻事業所南側フェンス",
        "address": "大門六番町3-48",
        "city": "塩尻市",
        "number": "ｼ-23",
        "status": "done"
      }
    },
    {
      "type": "Feature",
      "geometry": {
        "type": "Point",
        "coordinates": [
          138.62787,
          36.306284
        ]
      },
      "properties": {
        "id": "00e9d706-4c07-4fb0-9a65-721fb8c24c91",
        "name": "押立茶屋 北東道路沿い 町所有緑地",
        "address": "発地５−５",
        "city": "軽井沢町",
        "number": "20-5",
        "status": "done"
      }
    },
    {
      "type": "Feature",
      "geometry": {
        "type": "Point",
        "coordinates": [
          137.9810917,
          35.88107822
        ]
      },
      "properties": {
        "id": "00eafa26-e3e1-49c6-a100-85ce9d43397c",
        "name": "南塩ノ井バス停ガードレール（国道西）",
        "address": null,
        "city": "南箕輪村",
        "number": "12",
        "status": "not_yet"
      }
    },
    {
      "type": "Feature",
      "geometry": {
        "type": "Point",
        "coordinates": [
          138.0995486,
          36.3348211
        ]
      },
      "properties": {
        "id": "00eeacc7-a77b-4c82-b156-f5c679392e74",
        "name": "青木の森別荘管理事務所",
        "address": "沓掛1474番地",
        "city": "青木村",
        "number": "45",
        "status": "not_yet"
      }
    },
    {
      "type": "Feature",
      "geometry": {
        "type": "Point",
        "coordinates": [
          137.8583291,
          36.431046
        ]
      },
      "properties": {
        "id": "00f16081-38a9-4fe8-bfc1-f75b1bad4a71",
        "name": "東部　松川村就労センター　北フェンス",
        "address": "東部　松川村就労センター　北フェンス",
        "city": "松川村",
        "number": "5",
        "status": "done"
      }
    },
    {
      "type": "Feature",
      "geometry": {
        "type": "Point",
        "coordinates": [
          137.9907092,
          36.3177389
        ]
      },
      "properties": {
        "id": "00f830ae-3031-4432-90f0-cb350915931e",
        "name": "公園前停留所",
        "address": "刈谷原町425",
        "city": "松本市",
        "number": "54-3",
        "status": "done"
      }
    },
    {
      "type": "Feature",
      "geometry": {
        "type": "Point",
        "coordinates": [
          138.3143417,
          36.5295825
        ]
      },
      "properties": {
        "id": "01039540-0120-41c1-93a4-e4be42cf54e0",
        "name": "第72投票区のポスター掲示場設置場所",
        "address": "菅平高原1223番地930",
        "city": "上田市",
        "number": "507",
        "status": "not_yet"
      }
    },
    {
      "type": "Feature",
      "geometry": {
        "type": "Point",
        "coordinates": [
          137.8380318,
          35.4966194
        ]
      },
      "properties": {
        "id": "01093c0e-2b81-412c-925d-e7e5007ddd2a",
        "name": "鳩が嶺八幡宮前石垣",
        "address": "八幡町1999番地",
        "city": "飯田市",
        "number": "86",
        "status": "done"
      }
    },
    {
      "type": "Feature",
      "geometry": {
        "type": "Point",
        "coordinates": [
          137.8849678,
          36.2106819
        ]
      },
      "properties": {
        "id": "01098c48-ba61-45ba-ac77-950594a5e912",
        "name": "masked",
        "address": "波田1839-1",
        "city": "松本市",
        "number": "68-6",
        "status": "done"
      }
    },
    {
      "type": "Feature",
      "geometry": {
        "type": "Point",
        "coordinates": [
          137.8614736,
          36.650684
        ]
      },
      "properties": {
        "id": "010f2d5a-914a-48d7-b31d-c361cba84715",
        "name": "堀之内",
        "address": null,
        "city": "白馬村",
        "number": null,
        "status": "done"
      }
    },
    {
      "type": "Feature",
      "geometry": {
        "type": "Point",
        "coordinates": [
          138.0605108,
          35.5107505
        ]
      },
      "properties": {
        "id": "0112fbc9-e5db-4015-bbc9-a350528f3334",
        "name": "引の田線入口",
        "address": "大河原 1822",
        "city": "大鹿村",
        "number": "11",
        "status": "done"
      }
    },
    {
      "type": "Feature",
      "geometry": {
        "type": "Point",
        "coordinates": [
          138.307161,
          36.656379
        ]
      },
      "properties": {
        "id": "011426e6-174a-4a85-bbc8-7c3f2d0e9c07",
        "name": "須坂中央駐車場広場（北側フェンス）",
        "address": "北横町",
        "city": "須坂市",
        "number": "42",
        "status": "done"
      }
    },
    {
      "type": "Feature",
      "geometry": {
        "type": "Point",
        "coordinates": [
          138.26669,
          35.93399
        ]
      },
      "properties": {
        "id": "0120b646-96f2-40f2-83cf-e1529a595fae",
        "name": "(立沢)北原久光畑横(立沢工業下辻)",
        "address": null,
        "city": "富士見町",
        "number": "37",
        "status": "not_yet"
      }
    },
    {
      "type": "Feature",
      "geometry": {
        "type": "Point",
        "coordinates": [
          137.8306873,
          36.1999195
        ]
      },
      "properties": {
        "id": "01214178-b099-446e-9f59-494347834ecd",
        "name": "花見公園フェンス",
        "address": "梓川上野648-4",
        "city": "松本市",
        "number": "63-3",
        "status": "done"
      }
    },
    {
      "type": "Feature",
      "geometry": {
        "type": "Point",
        "coordinates": [
          138.07388158,
          36.60525825
        ]
      },
      "properties": {
        "id": "01234fbe-292c-43f4-93a9-41bc6152da3b",
        "name": "masked",
        "address": null,
        "city": "長野市",
        "number": null,
        "status": "not_yet"
      }
    },
    {
      "type": "Feature",
      "geometry": {
        "type": "Point",
        "coordinates": [
          138.1744228,
          35.9614347
        ]
      },
      "properties": {
        "id": "012b25cc-e8ae-4cd2-9e54-909e65ce740d",
        "name": "木舟公民館",
        "address": null,
        "city": "茅野市",
        "number": "264",
        "status": "not_yet"
      }
    },
    {
      "type": "Feature",
      "geometry": {
        "type": "Point",
        "coordinates": [
          137.9676174,
          36.1132169
        ]
      },
      "properties": {
        "id": "012ef78d-8fb8-4009-bd39-c5d79b342b08",
        "name": "桟敷道路沿い土手",
        "address": "桟敷39",
        "city": "塩尻市",
        "number": "ｼ-61",
        "status": "done"
      }
    },
    {
      "type": "Feature",
      "geometry": {
        "type": "Point",
        "coordinates": [
          137.9422211,
          35.76974596
        ]
      },
      "properties": {
        "id": "013cc17d-070e-4fd5-aea1-79fffb7bb387",
        "name": "町１地区高齢者支え合い拠点施設",
        "address": null,
        "city": "宮田村",
        "number": "3",
        "status": "not_yet"
      }
    },
    {
      "type": "Feature",
      "geometry": {
        "type": "Point",
        "coordinates": [
          138.198316,
          36.3861596
        ]
      },
      "properties": {
        "id": "0145773d-b5a9-4887-854d-07542db352f5",
        "name": "第33投票区 ポスター掲示場設置場所",
        "address": "吉田364番地5",
        "city": "上田市",
        "number": "225",
        "status": "done"
      }
    },
    {
      "type": "Feature",
      "geometry": {
        "type": "Point",
        "coordinates": [
          138.1835275,
          36.4679058
        ]
      },
      "properties": {
        "id": "014862e8-0893-49ac-9fe1-c65a0bed57ed",
        "name": "坂城町",
        "address": "坂城1925",
        "city": "坂城町",
        "number": "62",
        "status": "not_yet"
      }
    },
    {
      "type": "Feature",
      "geometry": {
        "type": "Point",
        "coordinates": [
          138.03957582,
          35.99664473
        ]
      },
      "properties": {
        "id": "014cf847-0463-4665-82b8-0769c3b1b5be",
        "name": "鴻ノ田グラウンド前ガードレール",
        "address": "澤底 鴻之田 鴻ノ田グラウンド前ガ-ドレ-ル",
        "city": "辰野町",
        "number": "85",
        "status": "not_yet"
      }
    },
    {
      "type": "Feature",
      "geometry": {
        "type": "Point",
        "coordinates": [
          138.0605108,
          35.5107505
        ]
      },
      "properties": {
        "id": "01517978-840d-48c0-a47e-e7032ab3d03f",
        "name": "masked",
        "address": "大河原 2100-6",
        "city": "大鹿村",
        "number": "18",
        "status": "done"
      }
    },
    {
      "type": "Feature",
      "geometry": {
        "type": "Point",
        "coordinates": [
          138.42199707,
          36.26873398
        ]
      },
      "properties": {
        "id": "0151e69d-8ab4-4990-8bf2-bf3dbe29aeec",
        "name": "塩名田",
        "address": "塩名田566-3",
        "city": "佐久市",
        "number": "59−き",
        "status": "done"
      }
    },
    {
      "type": "Feature",
      "geometry": {
        "type": "Point",
        "coordinates": [
          137.9272,
          36.261723
        ]
      },
      "properties": {
        "id": "01616532-d721-40b1-8fcc-e43797937c8e",
        "name": "たつみ原区公民館南 緑地帯",
        "address": "豊科高家1137-221",
        "city": "安曇野市",
        "number": "12-2",
        "status": "done"
      }
    },
    {
      "type": "Feature",
      "geometry": {
        "type": "Point",
        "coordinates": [
          137.872375,
          35.2586274
        ]
      },
      "properties": {
        "id": "0164adf8-a91a-4775-9005-4de92306a4dc",
        "name": "masked",
        "address": "平岡2509-4",
        "city": "天龍村",
        "number": "42",
        "status": "not_yet"
      }
    },
    {
      "type": "Feature",
      "geometry": {
        "type": "Point",
        "coordinates": [
          138.29686,
          35.87837
        ]
      },
      "properties": {
        "id": "01669990-7684-4766-9af2-f5893e308109",
        "name": "(先達)小林茂樹氏東畑",
        "address": null,
        "city": "富士見町",
        "number": "93",
        "status": "not_yet"
      }
    },
    {
      "type": "Feature",
      "geometry": {
        "type": "Point",
        "coordinates": [
          137.7896944,
          35.4011533
        ]
      },
      "properties": {
        "id": "016a853b-eb8e-492d-b1b5-afe28c5f35dd",
        "name": "第1メゾンコスモス前（山一東）",
        "address": "睦沢9491-5",
        "city": "下條村",
        "number": "10",
        "status": "not_yet"
      }
    },
    {
      "type": "Feature",
      "geometry": {
        "type": "Point",
        "coordinates": [
          138.44836094,
          36.92315502
        ]
      },
      "properties": {
        "id": "0172bc9e-0b03-4c23-b06c-14f5bdaa0f0d",
        "name": "大湯共同浴場",
        "address": "大字豊郷9328",
        "city": "野沢温泉村",
        "number": "6",
        "status": "done"
      }
    },
    {
      "type": "Feature",
      "geometry": {
        "type": "Point",
        "coordinates": [
          138.12982,
          36.04578
        ]
      },
      "properties": {
        "id": "017f8f3c-14a9-41d1-b92c-1a7b62aae56f",
        "name": "尾玉団地入口土手 ガードレール",
        "address": "上諏訪６６６６",
        "city": "諏訪市",
        "number": "26",
        "status": "done"
      }
    },
    {
      "type": "Feature",
      "geometry": {
        "type": "Point",
        "coordinates": [
          137.9669441,
          36.1845457
        ]
      },
      "properties": {
        "id": "0185c9fe-2be3-4e5a-a90e-a7498b6b7102",
        "name": "筑摩野中学校 テニスコート東側フェンスうち南寄り",
        "address": "村井町北2-11-1",
        "city": "松本市",
        "number": "25-8",
        "status": "done"
      }
    },
    {
      "type": "Feature",
      "geometry": {
        "type": "Point",
        "coordinates": [
          138.09791,
          36.02231
        ]
      },
      "properties": {
        "id": "01886243-6fee-41ae-aef4-e485c5430ef6",
        "name": "nan",
        "address": "豊田１５８５",
        "city": "諏訪市",
        "number": "63",
        "status": "done"
      }
    },
    {
      "type": "Feature",
      "geometry": {
        "type": "Point",
        "coordinates": [
          138.3227652,
          36.3696012
        ]
      },
      "properties": {
        "id": "018d87fc-8a0b-414a-a854-288579de9085",
        "name": "海善寺振興センター 東側公園フェンス",
        "address": "海善寺459-1",
        "city": "東御市",
        "number": "124",
        "status": "done"
      }
    },
    {
      "type": "Feature",
      "geometry": {
        "type": "Point",
        "coordinates": [
          138.34802246,
          36.23972321
        ]
      },
      "properties": {
        "id": "018dd9c3-2e95-4840-8786-0a0caf6db36b",
        "name": "比田井",
        "address": "協和6240-1",
        "city": "佐久市",
        "number": "82-え",
        "status": "not_yet"
      }
    },
    {
      "type": "Feature",
      "geometry": {
        "type": "Point",
        "coordinates": [
          138.00147025,
          36.59234636
        ]
      },
      "properties": {
        "id": "018fab6e-016f-4535-86e0-5b695331c35d",
        "name": "万福寺前ブロック",
        "address": null,
        "city": "長野市",
        "number": null,
        "status": "not_yet"
      }
    },
    {
      "type": "Feature",
      "geometry": {
        "type": "Point",
        "coordinates": [
          137.603958,
          35.565105
        ]
      },
      "properties": {
        "id": "01a1b23c-6494-4b75-8b1e-1cdcd09357a4",
        "name": "masked",
        "address": "吾妻2895",
        "city": "南木曽町",
        "number": "35",
        "status": "done"
      }
    },
    {
      "type": "Feature",
      "geometry": {
        "type": "Point",
        "coordinates": [
          138.1928183,
          36.4309294
        ]
      },
      "properties": {
        "id": "01a227f1-7ecc-429a-a38d-973c1e8bf1f0",
        "name": "坂城町",
        "address": "南條782",
        "city": "坂城町",
        "number": "7",
        "status": "done"
      }
    },
    {
      "type": "Feature",
      "geometry": {
        "type": "Point",
        "coordinates": [
          138.4064565,
          36.7438374
        ]
      },
      "properties": {
        "id": "01a26376-b308-4d7c-9146-5621239cd208",
        "name": "四つ角",
        "address": "masked",
        "city": "山ノ内町",
        "number": "17-7",
        "status": "not_yet"
      }
    },
    {
      "type": "Feature",
      "geometry": {
        "type": "Point",
        "coordinates": [
          137.9524183,
          35.9338634
        ]
      },
      "properties": {
        "id": "01a50070-68b9-445a-acd6-019b17d6c29d",
        "name": "下古田 旧下古田公民館東三差路東",
        "address": "大字中箕輪 4863 番地",
        "city": "箕輪町",
        "number": "28",
        "status": "done"
      }
    },
    {
      "type": "Feature",
      "geometry": {
        "type": "Point",
        "coordinates": [
          137.8968795,
          36.1180601
        ]
      },
      "properties": {
        "id": "01a873bf-788a-43ce-a0e7-a6c9fd8345ab",
        "name": "畑南西側",
        "address": "洗馬5294-3",
        "city": "塩尻市",
        "number": "ｾ-23",
        "status": "done"
      }
    },
    {
      "type": "Feature",
      "geometry": {
        "type": "Point",
        "coordinates": [
          137.8952261,
          36.3127823
        ]
      },
      "properties": {
        "id": "01ab8bec-4f1b-4078-afdc-a640a2008d49",
        "name": "細萱公民館フェンス",
        "address": "豊科南穂高3757-11",
        "city": "安曇野市",
        "number": "9-2",
        "status": "done"
      }
    },
    {
      "type": "Feature",
      "geometry": {
        "type": "Point",
        "coordinates": [
          137.95412,
          36.2133118
        ]
      },
      "properties": {
        "id": "01adcb4c-4076-4adf-9233-a8eecaeddcd9",
        "name": "野々宮神社西側公園西側フェンス",
        "address": "征矢野2-14",
        "city": "松本市",
        "number": "5-9",
        "status": "done"
      }
    },
    {
      "type": "Feature",
      "geometry": {
        "type": "Point",
        "coordinates": [
          137.8684778,
          36.3893883
        ]
      },
      "properties": {
        "id": "01af9d8f-0de3-4b57-bf83-752857603d90",
        "name": "masked",
        "address": "masked",
        "city": "松川村",
        "number": "33",
        "status": "done"
      }
    },
    {
      "type": "Feature",
      "geometry": {
        "type": "Point",
        "coordinates": [
          137.849701,
          35.499748
        ]
      },
      "properties": {
        "id": "01afb4a9-6a42-4aa1-ba31-a43a9f661569",
        "name": "市道思井川線県道伊那八幡伊線交差点市道沿い",
        "address": "松尾上溝5642番地",
        "city": "飯田市",
        "number": "79",
        "status": "done"
      }
    },
    {
      "type": "Feature",
      "geometry": {
        "type": "Point",
        "coordinates": [
          138.0704317,
          36.0625545
        ]
      },
      "properties": {
        "id": "01aff79c-0b39-4237-812e-16253562861c",
        "name": "masked",
        "address": "長地権現町四丁目7-2",
        "city": "岡谷市",
        "number": "22-7",
        "status": "done"
      }
    },
    {
      "type": "Feature",
      "geometry": {
        "type": "Point",
        "coordinates": [
          138.293294,
          36.645971
        ]
      },
      "properties": {
        "id": "01b5868c-ca0d-4c22-9fa0-7fb51a4921f0",
        "name": "境沢団地公園",
        "address": "境沢町",
        "city": "須坂市",
        "number": "39",
        "status": "done"
      }
    },
    {
      "type": "Feature",
      "geometry": {
        "type": "Point",
        "coordinates": [
          137.9857337,
          35.9138891
        ]
      },
      "properties": {
        "id": "01b6d5e7-45b7-41c8-984d-d02506f7ed3b",
        "name": "木下南部 国道153号線・箕輪バイパス三叉路信号西側",
        "address": "大字中箕輪 11894-3 番地 木下",
        "city": "箕輪町",
        "number": "72",
        "status": "not_yet"
      }
    },
    {
      "type": "Feature",
      "geometry": {
        "type": "Point",
        "coordinates": [
          137.684936,
          36.0734046
        ]
      },
      "properties": {
        "id": "01b85035-12a3-45ad-b7fa-f5aec2030599",
        "name": "松本市営バス金原停留所横",
        "address": "奈川1977-イ",
        "city": "松本市",
        "number": "62-2",
        "status": "done"
      }
    },
    {
      "type": "Feature",
      "geometry": {
        "type": "Point",
        "coordinates": [
          138.3437267,
          36.3568247
        ]
      },
      "properties": {
        "id": "01c1b798-eccd-4c42-b016-7a20afc914d1",
        "name": "市営住宅常田団地駐車場フェンス",
        "address": "常田360-6",
        "city": "東御市",
        "number": "9",
        "status": "done"
      }
    },
    {
      "type": "Feature",
      "geometry": {
        "type": "Point",
        "coordinates": [
          138.3047932,
          36.3572892
        ]
      },
      "properties": {
        "id": "01c59757-e037-45d8-9219-a13f5846fc81",
        "name": "第69投票区",
        "address": "塩川2834番地3",
        "city": "上田市",
        "number": "488",
        "status": "not_yet"
      }
    },
    {
      "type": "Feature",
      "geometry": {
        "type": "Point",
        "coordinates": [
          137.9235923,
          36.3667152
        ]
      },
      "properties": {
        "id": "01c77cc7-740d-4850-b6fa-54b88774338c",
        "name": "塩川原公民館横グラウンド植込",
        "address": "明科七貴7270-9",
        "city": "安曇野市",
        "number": "72-3",
        "status": "done"
      }
    },
    {
      "type": "Feature",
      "geometry": {
        "type": "Point",
        "coordinates": [
          138.08861763,
          36.57071901
        ]
      },
      "properties": {
        "id": "01cb885f-007c-48c4-8a41-315095c8812a",
        "name": "本郷集会所前",
        "address": null,
        "city": "長野市",
        "number": null,
        "status": "not_yet"
      }
    },
    {
      "type": "Feature",
      "geometry": {
        "type": "Point",
        "coordinates": [
          138.243101,
          36.014624
        ]
      },
      "properties": {
        "id": "01cc55f4-368e-437f-99d3-31f58a4df1f4",
        "name": null,
        "address": null,
        "city": "茅野市",
        "number": "138",
        "status": "error_wrong_place"
      }
    },
    {
      "type": "Feature",
      "geometry": {
        "type": "Point",
        "coordinates": [
          138.10793,
          36.00615
        ]
      },
      "properties": {
        "id": "01cf082e-db4b-4a97-a63b-6008d4c5ea2d",
        "name": "諏訪市こなみ保育園入口",
        "address": "湖南（大熊）",
        "city": "諏訪市",
        "number": "144",
        "status": "done"
      }
    },
    {
      "type": "Feature",
      "geometry": {
        "type": "Point",
        "coordinates": [
          138.110809,
          36.06368
        ]
      },
      "properties": {
        "id": "01d660c8-4c78-4086-bce8-dfe33da1d284",
        "name": "駐車場　旧道 天望園下付近（野立）",
        "address": "東高木９２２６−３",
        "city": "下諏訪町",
        "number": "69",
        "status": "done"
      }
    },
    {
      "type": "Feature",
      "geometry": {
        "type": "Point",
        "coordinates": [
          137.9250967,
          36.1279079
        ]
      },
      "properties": {
        "id": "01dbca89-0df7-43f4-8778-ab3141317f62",
        "name": "JA松本ハイランド奈良井川ライスセンター　石碑の東側",
        "address": "洗馬1581",
        "city": "塩尻市",
        "number": "ｾ-19",
        "status": "done"
      }
    },
    {
      "type": "Feature",
      "geometry": {
        "type": "Point",
        "coordinates": [
          137.9903048,
          36.340325
        ]
      },
      "properties": {
        "id": "01eb3160-84b0-45b9-a552-9136ec053964",
        "name": "保福寺橋北側市道板場船歩道柵",
        "address": "取出962",
        "city": "松本市",
        "number": "53-3",
        "status": "done"
      }
    },
    {
      "type": "Feature",
      "geometry": {
        "type": "Point",
        "coordinates": [
          137.87399,
          35.42162
        ]
      },
      "properties": {
        "id": "01eb9e8c-cdee-4343-806d-b1340b9242e0",
        "name": "野池神社前",
        "address": "千代1248番地",
        "city": "飯田市",
        "number": "144",
        "status": "not_yet"
      }
    },
    {
      "type": "Feature",
      "geometry": {
        "type": "Point",
        "coordinates": [
          137.97645,
          36.6153
        ]
      },
      "properties": {
        "id": "01efcf4e-c778-4ee7-8688-cd9afbf0643f",
        "name": "masked",
        "address": "大字高府17051-2",
        "city": "小川村",
        "number": "9",
        "status": "not_yet"
      }
    },
    {
      "type": "Feature",
      "geometry": {
        "type": "Point",
        "coordinates": [
          137.86304134,
          35.50061952
        ]
      },
      "properties": {
        "id": "01f12190-81c8-4680-ac6f-b6d8a2878815",
        "name": "弁天橋東",
        "address": "伊久間６",
        "city": "喬木村",
        "number": "29",
        "status": "done"
      }
    },
    {
      "type": "Feature",
      "geometry": {
        "type": "Point",
        "coordinates": [
          138.1150943,
          36.3404873
        ]
      },
      "properties": {
        "id": "01f73ddc-4512-47b3-aa6d-25240e7c0c3b",
        "name": "釜房停留所",
        "address": "沓掛756番地7",
        "city": "青木村",
        "number": "52",
        "status": "not_yet"
      }
    },
    {
      "type": "Feature",
      "geometry": {
        "type": "Point",
        "coordinates": [
          138.57952881,
          36.21852112
        ]
      },
      "properties": {
        "id": "01fda0fc-d6d0-4ba8-b36e-ee9ed97c5a25",
        "name": "中村",
        "address": "内山3441",
        "city": "佐久市",
        "number": "36-き",
        "status": "done"
      }
    },
    {
      "type": "Feature",
      "geometry": {
        "type": "Point",
        "coordinates": [
          137.9827023,
          35.89388386
        ]
      },
      "properties": {
        "id": "02056bbb-3f4f-4472-91da-8c22b3d647dc",
        "name": "久保公民館",
        "address": null,
        "city": "南箕輪村",
        "number": "3",
        "status": "done"
      }
    },
    {
      "type": "Feature",
      "geometry": {
        "type": "Point",
        "coordinates": [
          137.8828301,
          36.3975902
        ]
      },
      "properties": {
        "id": "020f9856-2e23-48ff-8252-c523aadc1816",
        "name": "和合団地内排水路フェンス前",
        "address": "大字会染5707-6",
        "city": "池田町",
        "number": "32",
        "status": "done"
      }
    },
    {
      "type": "Feature",
      "geometry": {
        "type": "Point",
        "coordinates": [
          138.2127424,
          36.62886584
        ]
      },
      "properties": {
        "id": "021675ce-96b0-4fe1-b8b2-3f1836c92535",
        "name": "㈱メディセオ長野支店北側フェンス",
        "address": null,
        "city": "長野市",
        "number": null,
        "status": "done"
      }
    },
    {
      "type": "Feature",
      "geometry": {
        "type": "Point",
        "coordinates": [
          138.0558074,
          36.0639109
        ]
      },
      "properties": {
        "id": "021e6723-eb42-428d-93ae-c24908e7eec7",
        "name": "（有）ヘルツフェンス",
        "address": "大栄町一丁目16-13",
        "city": "岡谷市",
        "number": "8-6",
        "status": "done"
      }
    },
    {
      "type": "Feature",
      "geometry": {
        "type": "Point",
        "coordinates": [
          137.9154187,
          36.1291235
        ]
      },
      "properties": {
        "id": "02216efe-f03b-4680-91a3-84c4e29268c3",
        "name": "JA洗馬野菜集出荷場　北東隅",
        "address": "洗馬6247",
        "city": "塩尻市",
        "number": "ｾ-18",
        "status": "done"
      }
    },
    {
      "type": "Feature",
      "geometry": {
        "type": "Point",
        "coordinates": [
          137.9340239,
          35.728854
        ]
      },
      "properties": {
        "id": "02363286-4e52-4bb9-b956-7f43759a8fb7",
        "name": "中間教室北側フェンス",
        "address": null,
        "city": "駒ヶ根市",
        "number": "3-21",
        "status": "not_yet"
      }
    },
    {
      "type": "Feature",
      "geometry": {
        "type": "Point",
        "coordinates": [
          138.166626,
          36.82444
        ]
      },
      "properties": {
        "id": "023ae87c-a8b8-4f02-bcc0-3ffcdc704090",
        "name": "masked",
        "address": "野尻3884-733",
        "city": "信濃町",
        "number": "98",
        "status": "not_yet"
      }
    },
    {
      "type": "Feature",
      "geometry": {
        "type": "Point",
        "coordinates": [
          138.269243,
          36.3198539
        ]
      },
      "properties": {
        "id": "024388ef-deb6-4296-93b9-e5b80f55e25e",
        "name": "第61投票区",
        "address": "上丸子1514番地",
        "city": "上田市",
        "number": "430",
        "status": "done"
      }
    },
    {
      "type": "Feature",
      "geometry": {
        "type": "Point",
        "coordinates": [
          138.3604576,
          36.85032
        ]
      },
      "properties": {
        "id": "02458559-0d9e-439e-b950-000e797a5955",
        "name": "鉄砲町児童公園",
        "address": "南町24-3",
        "city": "飯山市",
        "number": "13.0",
        "status": "done"
      }
    },
    {
      "type": "Feature",
      "geometry": {
        "type": "Point",
        "coordinates": [
          137.953888,
          35.827499
        ]
      },
      "properties": {
        "id": "02498012-1bf8-4f1c-80b3-406525ce9bea",
        "name": "旧北福地バス停横",
        "address": "北福地区",
        "city": "伊那市",
        "number": "18-2",
        "status": "not_yet"
      }
    },
    {
      "type": "Feature",
      "geometry": {
        "type": "Point",
        "coordinates": [
          138.43215942,
          36.25584412
        ]
      },
      "properties": {
        "id": "024ad58d-ffd6-46be-982f-649202dced3a",
        "name": "落合",
        "address": "鳴瀬3531-1",
        "city": "佐久市",
        "number": "13−き",
        "status": "done"
      }
    },
    {
      "type": "Feature",
      "geometry": {
        "type": "Point",
        "coordinates": [
          137.8933258,
          36.3235126
        ]
      },
      "properties": {
        "id": "024effd7-4a1a-4ea9-8317-be56677d0fd6",
        "name": "masked",
        "address": "穂高788-1",
        "city": "安曇野市",
        "number": "32-3",
        "status": "other"
      }
    },
    {
      "type": "Feature",
      "geometry": {
        "type": "Point",
        "coordinates": [
          138.192204,
          36.433343
        ]
      },
      "properties": {
        "id": "0253fd48-77e9-4e7d-ac53-1103ae68d983",
        "name": "坂城町",
        "address": "南條6720",
        "city": "坂城町",
        "number": "12",
        "status": "done"
      }
    },
    {
      "type": "Feature",
      "geometry": {
        "type": "Point",
        "coordinates": [
          137.856018,
          36.51141
        ]
      },
      "properties": {
        "id": "0257ee61-bee5-4fa9-95a7-478f83f7f9b3",
        "name": "中信森林管理署大黒町官舎フェンス",
        "address": "大町4385番地4",
        "city": "大町市",
        "number": "1-8",
        "status": "done"
      }
    },
    {
      "type": "Feature",
      "geometry": {
        "type": "Point",
        "coordinates": [
          138.3583084,
          36.3595907
        ]
      },
      "properties": {
        "id": "025a3585-c5e0-4af8-baf4-d3cda57eb9d9",
        "name": "masked",
        "address": "鞍掛519-1",
        "city": "東御市",
        "number": "75",
        "status": "done"
      }
    },
    {
      "type": "Feature",
      "geometry": {
        "type": "Point",
        "coordinates": [
          137.8600722,
          35.5597526
        ]
      },
      "properties": {
        "id": "026a8532-a89a-48dc-aec6-e335be1d9b82",
        "name": "上県道沿・大島山中央線入口",
        "address": "大島 1118-3",
        "city": "高森町",
        "number": "34",
        "status": "not_yet"
      }
    },
    {
      "type": "Feature",
      "geometry": {
        "type": "Point",
        "coordinates": [
          137.7910523,
          35.4857844
        ]
      },
      "properties": {
        "id": "0276d344-1044-48be-8712-aaf034289b43",
        "name": "中村会館前の協同電工フェンス",
        "address": "中村1264番地",
        "city": "飯田市",
        "number": "311",
        "status": "done"
      }
    },
    {
      "type": "Feature",
      "geometry": {
        "type": "Point",
        "coordinates": [
          137.89844444,
          35.63572222
        ]
      },
      "properties": {
        "id": "0281440b-0a92-4712-980f-a2de35443332",
        "name": "48",
        "address": null,
        "city": "松川町",
        "number": "48",
        "status": "not_yet"
      }
    },
    {
      "type": "Feature",
      "geometry": {
        "type": "Point",
        "coordinates": [
          137.9747619,
          35.87222803
        ]
      },
      "properties": {
        "id": "02908cfe-6af2-44bc-95b9-c7b4189b5041",
        "name": "南箕輪村役場前掲示板",
        "address": null,
        "city": "南箕輪村",
        "number": "31",
        "status": "not_yet"
      }
    },
    {
      "type": "Feature",
      "geometry": {
        "type": "Point",
        "coordinates": [
          138.3140445,
          36.3175903
        ]
      },
      "properties": {
        "id": "02a063eb-3e62-46fc-a627-58ee070bf5d4",
        "name": "masked",
        "address": "八重原2907",
        "city": "東御市",
        "number": "155",
        "status": "done"
      }
    },
    {
      "type": "Feature",
      "geometry": {
        "type": "Point",
        "coordinates": [
          138.55159,
          36.059505
        ]
      },
      "properties": {
        "id": "02a76f9e-b281-4470-bd79-1ce54a7ffb16",
        "name": "小学校フェンス",
        "address": "久保２７１６",
        "city": "北相木村",
        "number": "2-6",
        "status": "done"
      }
    },
    {
      "type": "Feature",
      "geometry": {
        "type": "Point",
        "coordinates": [
          137.946443,
          35.85208874
        ]
      },
      "properties": {
        "id": "02b437ec-e8b0-43fe-8945-b3985106994f",
        "name": "沢尻下水道ポンプ場フェンス",
        "address": null,
        "city": "南箕輪村",
        "number": "55",
        "status": "not_yet"
      }
    },
    {
      "type": "Feature",
      "geometry": {
        "type": "Point",
        "coordinates": [
          138.3240111,
          36.4116735
        ]
      },
      "properties": {
        "id": "02b85404-c142-455a-869c-38089e220ee3",
        "name": "第42投票区のポスター掲示場設置場所",
        "address": "殿城1306番地",
        "city": "上田市",
        "number": "288",
        "status": "not_yet"
      }
    },
    {
      "type": "Feature",
      "geometry": {
        "type": "Point",
        "coordinates": [
          138.39678955,
          36.2616272
        ]
      },
      "properties": {
        "id": "02b989e0-50ed-42c1-9c95-2722b34332ef",
        "name": "矢島",
        "address": "矢嶋57-4",
        "city": "佐久市",
        "number": "68−か",
        "status": "done"
      }
    },
    {
      "type": "Feature",
      "geometry": {
        "type": "Point",
        "coordinates": [
          138.4645971,
          36.0584712
        ]
      },
      "properties": {
        "id": "02badfc8-6644-4a37-a9c5-7e5ddffb3ce2",
        "name": "masked",
        "address": "大字豊里3765-1",
        "city": "小海町",
        "number": "8",
        "status": "not_yet"
      }
    },
    {
      "type": "Feature",
      "geometry": {
        "type": "Point",
        "coordinates": [
          137.813061,
          35.374958
        ]
      },
      "properties": {
        "id": "02c733a1-15ca-42f7-acc8-580f79712d44",
        "name": "門島郵便局前三叉路付近",
        "address": "門島",
        "city": "泰阜村",
        "number": "19",
        "status": "not_yet"
      }
    },
    {
      "type": "Feature",
      "geometry": {
        "type": "Point",
        "coordinates": [
          138.484375,
          36.25655365
        ]
      },
      "properties": {
        "id": "02d18ae7-6d70-459f-b22c-437254b6e270",
        "name": "猿久保東",
        "address": "猿久保44-1",
        "city": "佐久市",
        "number": "04−き",
        "status": "done"
      }
    },
    {
      "type": "Feature",
      "geometry": {
        "type": "Point",
        "coordinates": [
          138.21142094,
          36.650122
        ]
      },
      "properties": {
        "id": "02deebf0-123f-433c-ae78-dcef9065fd28",
        "name": "三重公園北側フェンス",
        "address": null,
        "city": "長野市",
        "number": null,
        "status": "done"
      }
    },
    {
      "type": "Feature",
      "geometry": {
        "type": "Point",
        "coordinates": [
          137.897079,
          36.582199
        ]
      },
      "properties": {
        "id": "02e2bfd8-1a99-4de1-afe6-b925326d2bf4",
        "name": "村営バス車庫",
        "address": "美麻16705番地4",
        "city": "大町市",
        "number": "23-4",
        "status": "done"
      }
    },
    {
      "type": "Feature",
      "geometry": {
        "type": "Point",
        "coordinates": [
          138.082597,
          36.075317
        ]
      },
      "properties": {
        "id": "02e33542-0efa-4593-8996-9c2544ff6465",
        "name": "児童遊園地 フェンス：下諏訪交番横",
        "address": "木の下２３８−１",
        "city": "下諏訪町",
        "number": "25",
        "status": "done"
      }
    },
    {
      "type": "Feature",
      "geometry": {
        "type": "Point",
        "coordinates": [
          137.953888,
          35.827499
        ]
      },
      "properties": {
        "id": "02e8794f-9d0f-48ac-8f4e-307344146c38",
        "name": "masked",
        "address": "非持山",
        "city": "伊那市",
        "number": "64-3",
        "status": "not_yet"
      }
    },
    {
      "type": "Feature",
      "geometry": {
        "type": "Point",
        "coordinates": [
          137.82252,
          35.50438
        ]
      },
      "properties": {
        "id": "030a7ace-39e6-43a7-b82b-52b6dca4bf09",
        "name": "鼎中学校体育館入口横フェンス",
        "address": "鼎上山2591番地7",
        "city": "飯田市",
        "number": "340",
        "status": "done"
      }
    },
    {
      "type": "Feature",
      "geometry": {
        "type": "Point",
        "coordinates": [
          138.23448,
          35.92505
        ]
      },
      "properties": {
        "id": "030b7544-eddf-44f5-971a-286a31ef6296",
        "name": "(富ヶ丘) 富ヶ丘公園内",
        "address": null,
        "city": "富士見町",
        "number": "28",
        "status": "not_yet"
      }
    },
    {
      "type": "Feature",
      "geometry": {
        "type": "Point",
        "coordinates": [
          137.9010854,
          36.3000733
        ]
      },
      "properties": {
        "id": "030c9a97-bc0a-43ca-883d-b5360dd9e724",
        "name": "JR豊科駅 駅輪場フェンス",
        "address": "豊科4901-6",
        "city": "安曇野市",
        "number": "5-5",
        "status": "done"
      }
    },
    {
      "type": "Feature",
      "geometry": {
        "type": "Point",
        "coordinates": [
          138.106171,
          36.025375
        ]
      },
      "properties": {
        "id": "0322c613-d1f6-41ce-b86e-a0a84f02212f",
        "name": "ブロック塀",
        "address": "豊田１０４７",
        "city": "諏訪市",
        "number": "104",
        "status": "done"
      }
    },
    {
      "type": "Feature",
      "geometry": {
        "type": "Point",
        "coordinates": [
          137.9130465,
          36.0797424
        ]
      },
      "properties": {
        "id": "0328136e-335e-4ac4-b971-ae0dba0f7fc5",
        "name": "フェンス側",
        "address": "宗賀3629-1",
        "city": "塩尻市",
        "number": "ｿ-32",
        "status": "done"
      }
    },
    {
      "type": "Feature",
      "geometry": {
        "type": "Point",
        "coordinates": [
          138.00540399,
          36.62040912
        ]
      },
      "properties": {
        "id": "0335802e-1336-4375-8d30-aee5f3a4d76d",
        "name": "奈良井会館西側市道道路敷",
        "address": null,
        "city": "長野市",
        "number": null,
        "status": "not_yet"
      }
    },
    {
      "type": "Feature",
      "geometry": {
        "type": "Point",
        "coordinates": [
          138.20286276,
          36.67580871
        ]
      },
      "properties": {
        "id": "0339a730-144f-4695-a0e3-1d5daa993f15",
        "name": "湯谷小学校北側校門西",
        "address": null,
        "city": "長野市",
        "number": null,
        "status": "done"
      }
    },
    {
      "type": "Feature",
      "geometry": {
        "type": "Point",
        "coordinates": [
          138.4300239,
          36.3380672
        ]
      },
      "properties": {
        "id": "03404b63-4461-43eb-8c29-1be779abfd17",
        "name": "丸山児童遊園地",
        "address": "乙573-1",
        "city": "小諸市",
        "number": "5-2",
        "status": "done"
      }
    },
    {
      "type": "Feature",
      "geometry": {
        "type": "Point",
        "coordinates": [
          138.01079035,
          35.9750368
        ]
      },
      "properties": {
        "id": "0346e358-4eb5-43b4-b0a8-7c61ccd2ab8e",
        "name": "射撃場登りロガードレール",
        "address": "澤底 山寺 射撃場登りロガ-ドレ-ル",
        "city": "辰野町",
        "number": "79",
        "status": "not_yet"
      }
    },
    {
      "type": "Feature",
      "geometry": {
        "type": "Point",
        "coordinates": [
          138.2021415,
          36.0105578
        ]
      },
      "properties": {
        "id": "0348b3ce-cba9-43c0-a174-94ed0aa175e0",
        "name": "塩之目公民館",
        "address": "塩ノ目グリーンヒルズ",
        "city": "茅野市",
        "number": "166",
        "status": "done"
      }
    },
    {
      "type": "Feature",
      "geometry": {
        "type": "Point",
        "coordinates": [
          137.7933577,
          35.4058399
        ]
      },
      "properties": {
        "id": "034c848b-7927-4ce8-b291-a22450852668",
        "name": "masked",
        "address": "睦沢449",
        "city": "下條村",
        "number": "4",
        "status": "not_yet"
      }
    },
    {
      "type": "Feature",
      "geometry": {
        "type": "Point",
        "coordinates": [
          137.8836735,
          36.3455245
        ]
      },
      "properties": {
        "id": "03505793-f4a5-48c7-9bad-4d53cf5a67eb",
        "name": "穂高会館北側入口フェンス",
        "address": "穂高5047",
        "city": "安曇野市",
        "number": "23-3",
        "status": "done"
      }
    },
    {
      "type": "Feature",
      "geometry": {
        "type": "Point",
        "coordinates": [
          138.13709443,
          36.57215907
        ]
      },
      "properties": {
        "id": "036595d3-464c-4b1b-974f-78e18280e0d7",
        "name": "通明小学校グラウンド西側フェンス",
        "address": null,
        "city": "長野市",
        "number": null,
        "status": "done"
      }
    },
    {
      "type": "Feature",
      "geometry": {
        "type": "Point",
        "coordinates": [
          138.0014777,
          35.96650139
        ]
      },
      "properties": {
        "id": "036df69c-5a06-4927-ae81-4027ca467d9d",
        "name": "真金寺入口（上の段）",
        "address": "赤羽 赤羽 真金寺入口(上の段)",
        "city": "辰野町",
        "number": "64",
        "status": "done"
      }
    },
    {
      "type": "Feature",
      "geometry": {
        "type": "Point",
        "coordinates": [
          138.561047,
          36.34904
        ]
      },
      "properties": {
        "id": "03864235-908b-46a6-96a2-2b85893d7123",
        "name": "浅間台交差点 教職員住宅南",
        "address": "長倉５５２４−１",
        "city": "軽井沢町",
        "number": "9-1",
        "status": "done"
      }
    },
    {
      "type": "Feature",
      "geometry": {
        "type": "Point",
        "coordinates": [
          137.9264123,
          36.2271003
        ]
      },
      "properties": {
        "id": "03936caf-e2c0-4cc0-9dee-d7d9f43aef41",
        "name": "masked",
        "address": "島立2396-2",
        "city": "松本市",
        "number": "19-5",
        "status": "done"
      }
    },
    {
      "type": "Feature",
      "geometry": {
        "type": "Point",
        "coordinates": [
          138.06689926,
          36.66777005
        ]
      },
      "properties": {
        "id": "03984cc8-b8f2-4d5f-b0b8-464abb8c1773",
        "name": "masked",
        "address": null,
        "city": "長野市",
        "number": null,
        "status": "not_yet"
      }
    },
    {
      "type": "Feature",
      "geometry": {
        "type": "Point",
        "coordinates": [
          138.4166589,
          36.741228
        ]
      },
      "properties": {
        "id": "03a64816-11a6-40a7-a2b4-355d4286b306",
        "name": "スキー場入口",
        "address": "masked",
        "city": "山ノ内町",
        "number": "15-1",
        "status": "not_yet"
      }
    },
    {
      "type": "Feature",
      "geometry": {
        "type": "Point",
        "coordinates": [
          137.8229179,
          36.1905282
        ]
      },
      "properties": {
        "id": "03b458e6-39e0-4124-9906-0bc360db2d35",
        "name": "昭和電工㈱赤松発電所北側フェンス",
        "address": "波田3028",
        "city": "松本市",
        "number": "73-5",
        "status": "done"
      }
    },
    {
      "type": "Feature",
      "geometry": {
        "type": "Point",
        "coordinates": [
          137.9032829,
          36.2940094
        ]
      },
      "properties": {
        "id": "03b54f15-d397-49f5-ad8b-ddd9b2ed6d45",
        "name": "豊科西公園フェンス",
        "address": "豊科4569",
        "city": "安曇野市",
        "number": "5-8",
        "status": "done"
      }
    },
    {
      "type": "Feature",
      "geometry": {
        "type": "Point",
        "coordinates": [
          137.665166,
          35.4478743
        ]
      },
      "properties": {
        "id": "03c719c4-a864-45bc-bdce-414eaf87f229",
        "name": "智里西公民館入口",
        "address": "智里 中央",
        "city": "阿智村",
        "number": "10-2",
        "status": "not_yet"
      }
    },
    {
      "type": "Feature",
      "geometry": {
        "type": "Point",
        "coordinates": [
          137.9274909,
          36.42517
        ]
      },
      "properties": {
        "id": "03e7d2b7-dca3-45a0-ac7b-d9a45628ba19",
        "name": "古　坂　　旧松島商店横",
        "address": "１００３２-１２１６２－１地先",
        "city": "生坂村",
        "number": "3-22",
        "status": "not_yet"
      }
    },
    {
      "type": "Feature",
      "geometry": {
        "type": "Point",
        "coordinates": [
          137.998184,
          35.858749
        ]
      },
      "properties": {
        "id": "03f455b2-2fe7-4be6-a8d4-5d0981f91b51",
        "name": "masked",
        "address": "野溝",
        "city": "伊那市",
        "number": "45-3",
        "status": "not_yet"
      }
    },
    {
      "type": "Feature",
      "geometry": {
        "type": "Point",
        "coordinates": [
          137.8820094,
          36.4072909
        ]
      },
      "properties": {
        "id": "03f5f64b-ba1d-447e-a1fb-3b0e54ad352e",
        "name": "林中アート梱包運輸前",
        "address": "大字会染4999-10",
        "city": "池田町",
        "number": "26",
        "status": "done"
      }
    },
    {
      "type": "Feature",
      "geometry": {
        "type": "Point",
        "coordinates": [
          137.8212781,
          35.5178751
        ]
      },
      "properties": {
        "id": "03f86ebd-6f12-4ed6-80d0-6237700426f9",
        "name": "県信飯田支店跡駐車場下中央歩道帯",
        "address": "通り町4丁目",
        "city": "飯田市",
        "number": "14",
        "status": "done"
      }
    },
    {
      "type": "Feature",
      "geometry": {
        "type": "Point",
        "coordinates": [
          138.49357605,
          36.22790146
        ]
      },
      "properties": {
        "id": "03fa722d-f67c-40ef-a50a-493471ebc09a",
        "name": "太田部",
        "address": "平賀1484-4",
        "city": "佐久市",
        "number": "33-い",
        "status": "done"
      }
    },
    {
      "type": "Feature",
      "geometry": {
        "type": "Point",
        "coordinates": [
          137.91341667,
          35.60244444
        ]
      },
      "properties": {
        "id": "03fb2574-8046-4c14-abde-6a72bbae7909",
        "name": "68",
        "address": null,
        "city": "松川町",
        "number": "68",
        "status": "done"
      }
    },
    {
      "type": "Feature",
      "geometry": {
        "type": "Point",
        "coordinates": [
          138.35896301,
          36.20888901
        ]
      },
      "properties": {
        "id": "04023005-811f-4141-b531-b5d6eac74c5b",
        "name": "三明",
        "address": "春日3541-7",
        "city": "佐久市",
        "number": "80-う",
        "status": "not_yet"
      }
    },
    {
      "type": "Feature",
      "geometry": {
        "type": "Point",
        "coordinates": [
          138.47532654,
          36.27649689
        ]
      },
      "properties": {
        "id": "0404a60f-12c9-488e-b0d2-dc521b50d8b2",
        "name": "住吉町",
        "address": "岩村田1162-5",
        "city": "佐久市",
        "number": "03−こ",
        "status": "done"
      }
    },
    {
      "type": "Feature",
      "geometry": {
        "type": "Point",
        "coordinates": [
          138.4239924,
          36.7374859
        ]
      },
      "properties": {
        "id": "0408762f-12f1-4b88-9f2b-62be3a8747d3",
        "name": "入口上り坂の向かって左側駐車場のコンクリート擁壁上部",
        "address": "みろく 社会体育館入口駐車場",
        "city": "山ノ内町",
        "number": "3-6",
        "status": "not_yet"
      }
    },
    {
      "type": "Feature",
      "geometry": {
        "type": "Point",
        "coordinates": [
          137.954601,
          36.1889982
        ]
      },
      "properties": {
        "id": "040be933-b1d2-443d-b2cf-17dd33075b48",
        "name": "芳川地区地域づくりセンター",
        "address": "小屋北2-10-1",
        "city": "松本市",
        "number": "26-10",
        "status": "done"
      }
    },
    {
      "type": "Feature",
      "geometry": {
        "type": "Point",
        "coordinates": [
          138.2412189,
          36.4106371
        ]
      },
      "properties": {
        "id": "0411f655-01d0-49c6-83c3-a3e90b79b64c",
        "name": "第11投票区 ポスター掲示場設置場所",
        "address": "常磐城5丁目771番3号",
        "city": "上田市",
        "number": "80",
        "status": "done"
      }
    },
    {
      "type": "Feature",
      "geometry": {
        "type": "Point",
        "coordinates": [
          138.1244822,
          36.0441074
        ]
      },
      "properties": {
        "id": "041b3e1e-5fc3-40cd-b843-53d00964ad85",
        "name": "八十二銀行諏訪岡村アパート跡地 金網 二葉高校下",
        "address": "岡村１－６－１１",
        "city": "諏訪市",
        "number": "25",
        "status": "done"
      }
    },
    {
      "type": "Feature",
      "geometry": {
        "type": "Point",
        "coordinates": [
          137.9532035,
          36.1642038
        ]
      },
      "properties": {
        "id": "0420a8c8-d574-43be-8fec-4dc74fdc1deb",
        "name": "圃場整備道ガードレール",
        "address": "広丘吉田1826",
        "city": "塩尻市",
        "number": "ﾖ-18",
        "status": "done"
      }
    },
    {
      "type": "Feature",
      "geometry": {
        "type": "Point",
        "coordinates": [
          137.8761604,
          35.5608985
        ]
      },
      "properties": {
        "id": "042bb732-a9f5-414c-8c17-6855352d7057",
        "name": "吉田ちびっこ広場・福島接骨医院",
        "address": "吉出 2198-1",
        "city": "高森町",
        "number": "48",
        "status": "not_yet"
      }
    },
    {
      "type": "Feature",
      "geometry": {
        "type": "Point",
        "coordinates": [
          138.15995908,
          36.69203287
        ]
      },
      "properties": {
        "id": "043c7460-d8cd-4366-97e7-687356e893d0",
        "name": "門沢区ごみステーション横",
        "address": null,
        "city": "長野市",
        "number": null,
        "status": "not_yet"
      }
    },
    {
      "type": "Feature",
      "geometry": {
        "type": "Point",
        "coordinates": [
          138.2317797,
          36.2742047
        ]
      },
      "properties": {
        "id": "0445ea76-4e26-427e-98aa-590da2e33aa5",
        "name": "第87投票区",
        "address": "武石小沢根895番地4",
        "city": "上田市",
        "number": "628",
        "status": "not_yet"
      }
    },
    {
      "type": "Feature",
      "geometry": {
        "type": "Point",
        "coordinates": [
          138.20025374,
          36.54927014
        ]
      },
      "properties": {
        "id": "044a186a-a689-4b1c-b233-e7b7682ff5b9",
        "name": "西条小学校東側道沿いフェンス",
        "address": null,
        "city": "長野市",
        "number": null,
        "status": "done"
      }
    },
    {
      "type": "Feature",
      "geometry": {
        "type": "Point",
        "coordinates": [
          137.8619969,
          36.6944098
        ]
      },
      "properties": {
        "id": "04563eda-bf45-476b-a087-4daa2abe11ad",
        "name": "白馬町",
        "address": null,
        "city": "白馬村",
        "number": null,
        "status": "done"
      }
    },
    {
      "type": "Feature",
      "geometry": {
        "type": "Point",
        "coordinates": [
          137.7075336,
          35.8472513
        ]
      },
      "properties": {
        "id": "046e4527-3dc5-4751-beb0-0260193dea14",
        "name": "名鉄整備前",
        "address": "福島1198-1",
        "city": "木曽町",
        "number": "23",
        "status": "done"
      }
    },
    {
      "type": "Feature",
      "geometry": {
        "type": "Point",
        "coordinates": [
          137.909012,
          36.288673
        ]
      },
      "properties": {
        "id": "04736c28-68ff-4aea-a6e5-1491259c2b44",
        "name": "上鳥羽地域農業推進拠点施設フェンス",
        "address": "豊科367-1",
        "city": "安曇野市",
        "number": "1-2",
        "status": "done"
      }
    },
    {
      "type": "Feature",
      "geometry": {
        "type": "Point",
        "coordinates": [
          137.8580419,
          36.4192002
        ]
      },
      "properties": {
        "id": "0475118a-54dc-4d47-926d-86c697a3d0f1",
        "name": "masked",
        "address": "masked",
        "city": "松川村",
        "number": "10",
        "status": "done"
      }
    },
    {
      "type": "Feature",
      "geometry": {
        "type": "Point",
        "coordinates": [
          138.322772,
          36.278741
        ]
      },
      "properties": {
        "id": "0476d4d5-35ba-4f94-ad71-332da4b12e15",
        "name": "旧釜石口バス停前フエンス",
        "address": "芦田１８２２",
        "city": "北佐久郡立科町",
        "number": "17",
        "status": "not_yet"
      }
    },
    {
      "type": "Feature",
      "geometry": {
        "type": "Point",
        "coordinates": [
          138.47182,
          36.16437
        ]
      },
      "properties": {
        "id": "0479a572-bab4-4daf-9e14-0ec49788c213",
        "name": "団地入口",
        "address": "大字高野町 1636-2",
        "city": "佐久穂町",
        "number": "3-8",
        "status": "done"
      }
    },
    {
      "type": "Feature",
      "geometry": {
        "type": "Point",
        "coordinates": [
          138.212842,
          36.212026
        ]
      },
      "properties": {
        "id": "0479fbcf-f54b-447e-a939-697dcf21bc92",
        "name": "仮宿公民館",
        "address": "仮宿２５５５−６",
        "city": "長和町",
        "number": "75",
        "status": "not_yet"
      }
    },
    {
      "type": "Feature",
      "geometry": {
        "type": "Point",
        "coordinates": [
          137.903122,
          36.319546
        ]
      },
      "properties": {
        "id": "047cf8c5-1bf7-4ca1-b5a2-ba34de5706d0",
        "name": "(株)まるたか駐車場北ガードパイプ",
        "address": "豊科南穂高4885",
        "city": "安曇野市",
        "number": "9-4",
        "status": "done"
      }
    },
    {
      "type": "Feature",
      "geometry": {
        "type": "Point",
        "coordinates": [
          138.6088222,
          35.9502755
        ]
      },
      "properties": {
        "id": "047d97ef-c21e-48fd-98e2-fd8c1ab38e64",
        "name": "masked",
        "address": "大字居倉26",
        "city": "川上村",
        "number": "4-20",
        "status": "not_yet"
      }
    },
    {
      "type": "Feature",
      "geometry": {
        "type": "Point",
        "coordinates": [
          138.42204285,
          36.27256393
        ]
      },
      "properties": {
        "id": "04905c2c-b30b-4eb8-810b-f136283459e7",
        "name": "塩名田",
        "address": "塩名田465-1",
        "city": "佐久市",
        "number": "59−お",
        "status": "done"
      }
    },
    {
      "type": "Feature",
      "geometry": {
        "type": "Point",
        "coordinates": [
          138.1893628,
          35.943751
        ]
      },
      "properties": {
        "id": "04ae0aa5-f573-4055-93d7-dd1f635d9dfe",
        "name": "雇用促進住宅",
        "address": null,
        "city": "茅野市",
        "number": "261",
        "status": "not_yet"
      }
    },
    {
      "type": "Feature",
      "geometry": {
        "type": "Point",
        "coordinates": [
          138.25269,
          35.9181
        ]
      },
      "properties": {
        "id": "04ae10f7-1693-454b-a46e-efde35880626",
        "name": "(新田)新田集落センター",
        "address": null,
        "city": "富士見町",
        "number": "53",
        "status": "not_yet"
      }
    },
    {
      "type": "Feature",
      "geometry": {
        "type": "Point",
        "coordinates": [
          137.8234383,
          35.5165432
        ]
      },
      "properties": {
        "id": "04b2cf4f-9e00-470e-b693-8d6c39293c6c",
        "name": "北辰ビル前中央分離帯",
        "address": "通り町3丁目",
        "city": "飯田市",
        "number": "13",
        "status": "done"
      }
    },
    {
      "type": "Feature",
      "geometry": {
        "type": "Point",
        "coordinates": [
          138.638718,
          36.326954
        ]
      },
      "properties": {
        "id": "04b48273-fb9f-465f-aac3-f2dfd5135d30",
        "name": "成沢公民館敷地内",
        "address": "軽井沢１０１９−１９７",
        "city": "軽井沢町",
        "number": "21-5",
        "status": "done"
      }
    },
    {
      "type": "Feature",
      "geometry": {
        "type": "Point",
        "coordinates": [
          137.881683,
          36.361568
        ]
      },
      "properties": {
        "id": "04d00e88-3dd7-4233-ba66-37ed61816955",
        "name": "ヤマモトスーパーDELI・DELI北 フェンス",
        "address": "穂高北穂高2990-5",
        "city": "安曇野市",
        "number": "39-6",
        "status": "done"
      }
    },
    {
      "type": "Feature",
      "geometry": {
        "type": "Point",
        "coordinates": [
          138.0607626,
          36.0438139
        ]
      },
      "properties": {
        "id": "04db0bcc-02a1-48ca-a80a-19e358e845dd",
        "name": "masked",
        "address": "湊三丁目4-6",
        "city": "岡谷市",
        "number": "12-3",
        "status": "done"
      }
    },
    {
      "type": "Feature",
      "geometry": {
        "type": "Point",
        "coordinates": [
          138.3250013,
          36.4475952
        ]
      },
      "properties": {
        "id": "04db9d68-e6e6-4ff2-b00e-4e415f6f718b",
        "name": "第75投票区のポスター掲示場設置場所",
        "address": "真田町長4248番地1",
        "city": "上田市",
        "number": "525",
        "status": "done"
      }
    },
    {
      "type": "Feature",
      "geometry": {
        "type": "Point",
        "coordinates": [
          138.47576904,
          36.23500061
        ]
      },
      "properties": {
        "id": "04dbf417-e92f-47fb-a63f-44bdc66bc25d",
        "name": "三家第1",
        "address": "中込1921-1",
        "city": "佐久市",
        "number": "30-さ",
        "status": "done"
      }
    },
    {
      "type": "Feature",
      "geometry": {
        "type": "Point",
        "coordinates": [
          138.4462046,
          36.3265966
        ]
      },
      "properties": {
        "id": "04f17bc6-ac67-49bf-8b52-5c395b669201",
        "name": "更地金網内側",
        "address": "加増817-7",
        "city": "小諸市",
        "number": "9-14",
        "status": "done"
      }
    },
    {
      "type": "Feature",
      "geometry": {
        "type": "Point",
        "coordinates": [
          138.3345452,
          36.3774853
        ]
      },
      "properties": {
        "id": "04f18ae1-70f4-43c0-9a9a-947de646b4db",
        "name": "東上田研修センター北側遊び場フェンス",
        "address": "和7563-6",
        "city": "東御市",
        "number": "105",
        "status": "done"
      }
    },
    {
      "type": "Feature",
      "geometry": {
        "type": "Point",
        "coordinates": [
          138.12097531,
          36.62639073
        ]
      },
      "properties": {
        "id": "04f37fc3-467e-4bb5-a4d7-e774c2ca9266",
        "name": "masked",
        "address": null,
        "city": "長野市",
        "number": null,
        "status": "not_yet"
      }
    },
    {
      "type": "Feature",
      "geometry": {
        "type": "Point",
        "coordinates": [
          138.46911621,
          36.23913193
        ]
      },
      "properties": {
        "id": "04fa5506-b02f-4c37-8aa0-3ea6cff5b145",
        "name": "石神",
        "address": "中込683-5",
        "city": "佐久市",
        "number": "30-う",
        "status": "done"
      }
    },
    {
      "type": "Feature",
      "geometry": {
        "type": "Point",
        "coordinates": [
          138.200916,
          36.3879884
        ]
      },
      "properties": {
        "id": "05028547-383d-4e94-9139-e89cf26ace1e",
        "name": "第33投票区 ポスター掲示場設置場所",
        "address": "福田60番地5",
        "city": "上田市",
        "number": "224",
        "status": "done"
      }
    },
    {
      "type": "Feature",
      "geometry": {
        "type": "Point",
        "coordinates": [
          138.47463989,
          36.28008652
        ]
      },
      "properties": {
        "id": "0505c522-b6f3-4ef5-b8c2-b634d588ba45",
        "name": "西本町",
        "address": "岩村田991-1",
        "city": "佐久市",
        "number": "03−い",
        "status": "done"
      }
    },
    {
      "type": "Feature",
      "geometry": {
        "type": "Point",
        "coordinates": [
          137.9958807,
          36.3381831
        ]
      },
      "properties": {
        "id": "050da404-a2da-4d82-8220-086a44825609",
        "name": "雷神社付近国道143号歩道柵",
        "address": "取出719",
        "city": "松本市",
        "number": "53-2",
        "status": "done"
      }
    },
    {
      "type": "Feature",
      "geometry": {
        "type": "Point",
        "coordinates": [
          138.49024963,
          36.26390457
        ]
      },
      "properties": {
        "id": "0511d381-5e20-403b-ab28-63e10ba92666",
        "name": "伊勢林",
        "address": "新子田1836-3",
        "city": "佐久市",
        "number": "42−い",
        "status": "done"
      }
    },
    {
      "type": "Feature",
      "geometry": {
        "type": "Point",
        "coordinates": [
          138.5324786,
          36.3076905
        ]
      },
      "properties": {
        "id": "0516f5b1-d4b7-4f49-82a0-bb0b13bf5a2b",
        "name": "第11分団詰所前 広戸712-2【野立て】",
        "address": "広戸712-2",
        "city": "御代田町",
        "number": "57",
        "status": "done"
      }
    },
    {
      "type": "Feature",
      "geometry": {
        "type": "Point",
        "coordinates": [
          138.3500272,
          36.7540696
        ]
      },
      "properties": {
        "id": "0518a285-3c95-444b-a286-cd444ea56651",
        "name": "nan",
        "address": "七瀬 174-1",
        "city": "中野市",
        "number": "87",
        "status": "not_yet"
      }
    },
    {
      "type": "Feature",
      "geometry": {
        "type": "Point",
        "coordinates": [
          138.2070182,
          36.3640764
        ]
      },
      "properties": {
        "id": "051d9444-599c-4308-94b3-8c5d5199410c",
        "name": "第44投票区のポスター掲示場設置場所",
        "address": "五加1083番地2",
        "city": "上田市",
        "number": "303",
        "status": "done"
      }
    },
    {
      "type": "Feature",
      "geometry": {
        "type": "Point",
        "coordinates": [
          137.87457,
          35.43265
        ]
      },
      "properties": {
        "id": "051fd829-6be8-406a-bc68-e1c6de2e2e09",
        "name": "蛇沼集落センター前",
        "address": "上久堅6559",
        "city": "飯田市",
        "number": "133",
        "status": "not_yet"
      }
    },
    {
      "type": "Feature",
      "geometry": {
        "type": "Point",
        "coordinates": [
          138.1747411,
          36.3010502
        ]
      },
      "properties": {
        "id": "052317d1-b437-4cc9-aa5d-059f8b72ed6e",
        "name": "第59投票区 ポスター掲示場設置場所 担当番号413",
        "address": "平井914番地",
        "city": "上田市",
        "number": "413",
        "status": "not_yet"
      }
    },
    {
      "type": "Feature",
      "geometry": {
        "type": "Point",
        "coordinates": [
          137.9700472,
          35.85699556
        ]
      },
      "properties": {
        "id": "05284dc0-bb9e-4255-8f58-c48ee6011d48",
        "name": "神子柴ロータリー南側空き地",
        "address": null,
        "city": "南箕輪村",
        "number": "47",
        "status": "done"
      }
    },
    {
      "type": "Feature",
      "geometry": {
        "type": "Point",
        "coordinates": [
          138.518786,
          36.299157
        ]
      },
      "properties": {
        "id": "053716a8-10af-49a4-9b4f-dc868b5c37aa",
        "name": "萩原瓦店横のコンクリートよう壁(県) 面替408-3",
        "address": "面替408-3",
        "city": "御代田町",
        "number": "64",
        "status": "done"
      }
    },
    {
      "type": "Feature",
      "geometry": {
        "type": "Point",
        "coordinates": [
          137.8984537,
          36.3075301
        ]
      },
      "properties": {
        "id": "054ee660-9426-4984-8bf1-671b9d322212",
        "name": "新田公園前歩道ガードパイプ",
        "address": "豊科5290-1",
        "city": "安曇野市",
        "number": "6-2",
        "status": "done"
      }
    },
    {
      "type": "Feature",
      "geometry": {
        "type": "Point",
        "coordinates": [
          138.1643371,
          36.0040411
        ]
      },
      "properties": {
        "id": "054f7dc6-b5d1-47e1-a98f-c89345cbc4dd",
        "name": "西茅野公民館フェンス",
        "address": null,
        "city": "茅野市",
        "number": "92",
        "status": "not_yet"
      }
    },
    {
      "type": "Feature",
      "geometry": {
        "type": "Point",
        "coordinates": [
          137.953888,
          35.827499
        ]
      },
      "properties": {
        "id": "055197fe-f859-4f30-b205-eec81bab66d2",
        "name": "市役所富県支所前",
        "address": "貝沼区",
        "city": "伊那市",
        "number": "17-3",
        "status": "not_yet"
      }
    },
    {
      "type": "Feature",
      "geometry": {
        "type": "Point",
        "coordinates": [
          138.2765497,
          36.3271142
        ]
      },
      "properties": {
        "id": "0561ae88-579b-4f3d-8fab-88ee4c81c5d1",
        "name": "第62投票区",
        "address": "上丸子149番地",
        "city": "上田市",
        "number": "445",
        "status": "not_yet"
      }
    },
    {
      "type": "Feature",
      "geometry": {
        "type": "Point",
        "coordinates": [
          137.9855352,
          36.2625865
        ]
      },
      "properties": {
        "id": "056b9ca0-c6c6-4358-af0d-45948b79f7bb",
        "name": "松本市本郷小学校グランド 西側フェンス",
        "address": "浅間温泉2-9-5",
        "city": "松本市",
        "number": "38-7",
        "status": "done"
      }
    },
    {
      "type": "Feature",
      "geometry": {
        "type": "Point",
        "coordinates": [
          137.9340239,
          35.728854
        ]
      },
      "properties": {
        "id": "056de522-2de9-47f0-ad27-cb8d0b5fb543",
        "name": "新宮川岸交差点東側公園駐車場北側",
        "address": null,
        "city": "駒ヶ根市",
        "number": "16-119",
        "status": "not_yet"
      }
    },
    {
      "type": "Feature",
      "geometry": {
        "type": "Point",
        "coordinates": [
          138.0567912,
          36.0876639
        ]
      },
      "properties": {
        "id": "056e6353-19bf-41fe-89c2-39c32e735a83",
        "name": "国道20号バイパス歩道ネットフェンス",
        "address": "長地出早三丁目5510番地1",
        "city": "岡谷市",
        "number": "21-1",
        "status": "done"
      }
    },
    {
      "type": "Feature",
      "geometry": {
        "type": "Point",
        "coordinates": [
          137.64561,
          35.94713
        ]
      },
      "properties": {
        "id": "057199e1-a427-42fc-805c-46bd93c04e01",
        "name": "熊野神社付近",
        "address": "開田高原末川1274",
        "city": "木曽町",
        "number": "86",
        "status": "done"
      }
    },
    {
      "type": "Feature",
      "geometry": {
        "type": "Point",
        "coordinates": [
          137.8333931,
          35.5331781
        ]
      },
      "properties": {
        "id": "05738054-f5b3-4a77-86a8-c11b01f48140",
        "name": "masked",
        "address": "上郷黒田3097-4",
        "city": "飯田市",
        "number": "353",
        "status": "done"
      }
    },
    {
      "type": "Feature",
      "geometry": {
        "type": "Point",
        "coordinates": [
          138.09306,
          36.01214
        ]
      },
      "properties": {
        "id": "057fe445-1768-4306-837b-19faeb7c2360",
        "name": "毘沙門堂横公園",
        "address": "湖南（北真志野）",
        "city": "諏訪市",
        "number": "95",
        "status": "done"
      }
    },
    {
      "type": "Feature",
      "geometry": {
        "type": "Point",
        "coordinates": [
          138.631464,
          36.333321
        ]
      },
      "properties": {
        "id": "059aed51-9376-4c39-ae6c-11fee2d92590",
        "name": "民宿あおき入り口脇植込み",
        "address": "軽井沢１０６２−５６",
        "city": "軽井沢町",
        "number": "21-1",
        "status": "done"
      }
    },
    {
      "type": "Feature",
      "geometry": {
        "type": "Point",
        "coordinates": [
          138.19277859,
          36.66403986
        ]
      },
      "properties": {
        "id": "05a53fdc-14cf-430d-a1b7-03be9e00142d",
        "name": "城山公園立体駐車場前転落防止柵向かいのフェンス",
        "address": null,
        "city": "長野市",
        "number": null,
        "status": "done"
      }
    },
    {
      "type": "Feature",
      "geometry": {
        "type": "Point",
        "coordinates": [
          137.8303825,
          35.3380324
        ]
      },
      "properties": {
        "id": "05a7422f-9854-4c33-b9e1-274da759f6da",
        "name": "飯田富山佐久間線 高校グランド上ガードパイプ",
        "address": "北条 2243-11",
        "city": "阿南町",
        "number": "19",
        "status": "not_yet"
      }
    },
    {
      "type": "Feature",
      "geometry": {
        "type": "Point",
        "coordinates": [
          137.9324557,
          36.1652693
        ]
      },
      "properties": {
        "id": "05af5f95-032c-41a3-8964-635c94793fab",
        "name": "柏木保育園",
        "address": "空港東8960-3",
        "city": "松本市",
        "number": "23-6",
        "status": "done"
      }
    },
    {
      "type": "Feature",
      "geometry": {
        "type": "Point",
        "coordinates": [
          138.21632129,
          36.68047262
        ]
      },
      "properties": {
        "id": "05bb3194-528e-4798-8560-9a8f8c34363c",
        "name": "若槻児童館東側フェンス",
        "address": null,
        "city": "長野市",
        "number": null,
        "status": "done"
      }
    },
    {
      "type": "Feature",
      "geometry": {
        "type": "Point",
        "coordinates": [
          138.4064565,
          36.7438374
        ]
      },
      "properties": {
        "id": "05c4f83a-37d5-4735-9777-703343835372",
        "name": "雨舎の松 軒下",
        "address": "masked",
        "city": "山ノ内町",
        "number": "3-10",
        "status": "not_yet"
      }
    },
    {
      "type": "Feature",
      "geometry": {
        "type": "Point",
        "coordinates": [
          137.82535,
          35.43669
        ]
      },
      "properties": {
        "id": "05c7326b-57db-4220-9252-f22cb2fff780",
        "name": "椚平 椚平公園フェンス",
        "address": "龍江7635番地1",
        "city": "飯田市",
        "number": "183",
        "status": "done"
      }
    },
    {
      "type": "Feature",
      "geometry": {
        "type": "Point",
        "coordinates": [
          137.68844,
          35.84322
        ]
      },
      "properties": {
        "id": "05d51c4c-b3cc-4e35-a539-d29d11b5881b",
        "name": "広胖橋詰",
        "address": "福島6150-1",
        "city": "木曽町",
        "number": "16",
        "status": "done"
      }
    },
    {
      "type": "Feature",
      "geometry": {
        "type": "Point",
        "coordinates": [
          137.844345,
          36.487316
        ]
      },
      "properties": {
        "id": "05ddcf59-0968-4a96-aedd-bba93a6f7450",
        "name": "松原団地公園フェンス",
        "address": "常盤5801番地109",
        "city": "大町市",
        "number": "13-7",
        "status": "not_yet"
      }
    },
    {
      "type": "Feature",
      "geometry": {
        "type": "Point",
        "coordinates": [
          137.86529,
          35.49399
        ]
      },
      "properties": {
        "id": "05e0ddbc-feb3-4678-ace6-be9e7b811015",
        "name": "北原霞訪社前",
        "address": "下久堅下虎岩865番地1",
        "city": "飯田市",
        "number": "98",
        "status": "done"
      }
    },
    {
      "type": "Feature",
      "geometry": {
        "type": "Point",
        "coordinates": [
          137.9340239,
          35.728854
        ]
      },
      "properties": {
        "id": "05e74578-efd5-4c79-9932-8dbaeabf3d30",
        "name": "北割保育園園庭東側フェンス",
        "address": null,
        "city": "駒ヶ根市",
        "number": "2-13",
        "status": "not_yet"
      }
    },
    {
      "type": "Feature",
      "geometry": {
        "type": "Point",
        "coordinates": [
          137.9582266,
          36.2217881
        ]
      },
      "properties": {
        "id": "05ea28ed-b918-4594-9ade-53187d794055",
        "name": "松本年金事務所",
        "address": "征矢野1-7-3",
        "city": "松本市",
        "number": "46-7",
        "status": "done"
      }
    },
    {
      "type": "Feature",
      "geometry": {
        "type": "Point",
        "coordinates": [
          138.2436919,
          35.94479835
        ]
      },
      "properties": {
        "id": "05fcfc82-fcd7-416d-9a56-a2fe3fe30ef0",
        "name": "白山神社前",
        "address": "中新田 白山神社前",
        "city": "原村",
        "number": "4-33",
        "status": "not_yet"
      }
    },
    {
      "type": "Feature",
      "geometry": {
        "type": "Point",
        "coordinates": [
          137.8443463,
          36.2640745
        ]
      },
      "properties": {
        "id": "06068ec8-04f7-42a5-b830-a6941bbcd3ad",
        "name": "北小倉公民館",
        "address": "三郷小倉519-13",
        "city": "安曇野市",
        "number": "40-4",
        "status": "done"
      }
    },
    {
      "type": "Feature",
      "geometry": {
        "type": "Point",
        "coordinates": [
          138.39128113,
          36.25919724
        ]
      },
      "properties": {
        "id": "060774ce-b020-4c3d-a896-9a9b8ef4ac7d",
        "name": "矢島",
        "address": "矢嶋356-2",
        "city": "佐久市",
        "number": "68−い",
        "status": "done"
      }
    },
    {
      "type": "Feature",
      "geometry": {
        "type": "Point",
        "coordinates": [
          138.20456316,
          36.56277756
        ]
      },
      "properties": {
        "id": "0609c46b-8ec6-41c5-ae26-bb10637af251",
        "name": "masked",
        "address": null,
        "city": "長野市",
        "number": null,
        "status": "done"
      }
    },
    {
      "type": "Feature",
      "geometry": {
        "type": "Point",
        "coordinates": [
          138.30196,
          35.8913
        ]
      },
      "properties": {
        "id": "060ea5fb-065a-424d-9e7f-f9ab9ffbf483",
        "name": "masked",
        "address": null,
        "city": "富士見町",
        "number": "101",
        "status": "not_yet"
      }
    },
    {
      "type": "Feature",
      "geometry": {
        "type": "Point",
        "coordinates": [
          138.1820348,
          36.0113134
        ]
      },
      "properties": {
        "id": "060eacf5-c05f-4272-ad3d-b9720526a1d7",
        "name": "十五社神社敷地",
        "address": null,
        "city": "茅野市",
        "number": "134",
        "status": "done"
      }
    },
    {
      "type": "Feature",
      "geometry": {
        "type": "Point",
        "coordinates": [
          138.245302,
          36.111826
        ]
      },
      "properties": {
        "id": "06162187-fff9-4c4f-a53d-600ea206e2f9",
        "name": "白樺湖信号北側",
        "address": "芦田八ケ野１５１２",
        "city": "北佐久郡立科町",
        "number": "36",
        "status": "done"
      }
    },
    {
      "type": "Feature",
      "geometry": {
        "type": "Point",
        "coordinates": [
          138.47463989,
          36.28008652
        ]
      },
      "properties": {
        "id": "061891b3-c13f-464b-9861-7f44faea9152",
        "name": "住吉町",
        "address": "岩村田991-1",
        "city": "佐久市",
        "number": "03−け",
        "status": "done"
      }
    },
    {
      "type": "Feature",
      "geometry": {
        "type": "Point",
        "coordinates": [
          138.2866457,
          36.3845508
        ]
      },
      "properties": {
        "id": "061a2242-00d0-48bf-bee8-31f3b76d9735",
        "name": "第17投票区 ポスター掲示場設置場所",
        "address": "蒼久保1766番地",
        "city": "上田市",
        "number": "123",
        "status": "not_yet"
      }
    },
    {
      "type": "Feature",
      "geometry": {
        "type": "Point",
        "coordinates": [
          138.47217,
          36.14896
        ]
      },
      "properties": {
        "id": "0632c289-de31-400c-81b3-f6d5ca805b91",
        "name": "城山コミュニティセンター前",
        "address": "大字畑 3400-1",
        "city": "佐久穂町",
        "number": "14-4",
        "status": "done"
      }
    },
    {
      "type": "Feature",
      "geometry": {
        "type": "Point",
        "coordinates": [
          137.983521,
          35.843136
        ]
      },
      "properties": {
        "id": "063594a6-1487-4667-97a8-5bd1c4add31d",
        "name": "masked",
        "address": "上の原区",
        "city": "伊那市",
        "number": "49-6",
        "status": "not_yet"
      }
    },
    {
      "type": "Feature",
      "geometry": {
        "type": "Point",
        "coordinates": [
          138.0356603,
          35.5792549
        ]
      },
      "properties": {
        "id": "06377323-aa8b-4e2b-bb01-67426e8be905",
        "name": "トライネット入口付近 国道の歩道側",
        "address": "鹿塩 4341-23",
        "city": "大鹿村",
        "number": "2",
        "status": "done"
      }
    },
    {
      "type": "Feature",
      "geometry": {
        "type": "Point",
        "coordinates": [
          137.8961285,
          36.3338851
        ]
      },
      "properties": {
        "id": "0649d752-7bb1-451a-9834-fe3b80b97234",
        "name": "masked",
        "address": "穂高1978-1",
        "city": "安曇野市",
        "number": "21-2",
        "status": "done"
      }
    },
    {
      "type": "Feature",
      "geometry": {
        "type": "Point",
        "coordinates": [
          138.1323643,
          36.56717423
        ]
      },
      "properties": {
        "id": "064f3574-0e4c-4922-bb64-d452051ccd29",
        "name": "masked",
        "address": null,
        "city": "長野市",
        "number": null,
        "status": "done"
      }
    },
    {
      "type": "Feature",
      "geometry": {
        "type": "Point",
        "coordinates": [
          137.978041,
          36.2394625
        ]
      },
      "properties": {
        "id": "06563a34-521b-430a-995c-a81014b11a50",
        "name": "masked",
        "address": "女鳥羽1-6-3",
        "city": "松本市",
        "number": "10-5",
        "status": "done"
      }
    },
    {
      "type": "Feature",
      "geometry": {
        "type": "Point",
        "coordinates": [
          137.9079338,
          36.273188
        ]
      },
      "properties": {
        "id": "066197e6-acb4-4394-a5f5-77d7193d6fcd",
        "name": "立石交差点北300m 居酒屋向いフェンス",
        "address": "豊科510-9",
        "city": "安曇野市",
        "number": "1-4",
        "status": "done"
      }
    },
    {
      "type": "Feature",
      "geometry": {
        "type": "Point",
        "coordinates": [
          137.63753,
          35.82131
        ]
      },
      "properties": {
        "id": "0661a264-708e-4553-b55f-d5d61c44ee80",
        "name": "三尾発電所前三叉路",
        "address": "三岳",
        "city": "木曽町",
        "number": "118",
        "status": "done"
      }
    },
    {
      "type": "Feature",
      "geometry": {
        "type": "Point",
        "coordinates": [
          137.9814765,
          36.3539176
        ]
      },
      "properties": {
        "id": "066a9c0a-4bbc-4a95-b4cf-3bdf5c1fca8e",
        "name": "masked",
        "address": "五常4555",
        "city": "松本市",
        "number": "56-1",
        "status": "done"
      }
    },
    {
      "type": "Feature",
      "geometry": {
        "type": "Point",
        "coordinates": [
          137.9858083,
          36.2397167
        ]
      },
      "properties": {
        "id": "066de0a8-09c3-4a40-bad3-0d29ef18edbb",
        "name": "上下水道局南郷第１水源地フェンス",
        "address": "横田1-26-2",
        "city": "松本市",
        "number": "44-1",
        "status": "done"
      }
    },
    {
      "type": "Feature",
      "geometry": {
        "type": "Point",
        "coordinates": [
          137.9874064,
          36.175943
        ]
      },
      "properties": {
        "id": "0670d100-d765-4383-a486-09e981ddbb6e",
        "name": "アップルランド寿店東側",
        "address": "松原42-8",
        "city": "松本市",
        "number": "51-6",
        "status": "done"
      }
    },
    {
      "type": "Feature",
      "geometry": {
        "type": "Point",
        "coordinates": [
          137.8584433,
          36.4145095
        ]
      },
      "properties": {
        "id": "067564fa-8673-4478-bb83-69aded5fd961",
        "name": "masked",
        "address": "masked",
        "city": "松川村",
        "number": "11",
        "status": "done"
      }
    },
    {
      "type": "Feature",
      "geometry": {
        "type": "Point",
        "coordinates": [
          138.504106,
          36.308316
        ]
      },
      "properties": {
        "id": "0678df00-7320-4d81-aff8-529146614417",
        "name": "西友御代田店パイプフェンス(御代田2763-1)",
        "address": "御代田2791-1",
        "city": "御代田町",
        "number": "53",
        "status": "done"
      }
    },
    {
      "type": "Feature",
      "geometry": {
        "type": "Point",
        "coordinates": [
          138.31457,
          36.6981904
        ]
      },
      "properties": {
        "id": "068395fd-f37e-404c-ac74-20f25a36a1c6",
        "name": "小布施 1458番地1",
        "address": "小布施 1458番地1",
        "city": "小布施町",
        "number": "1-4",
        "status": "done"
      }
    },
    {
      "type": "Feature",
      "geometry": {
        "type": "Point",
        "coordinates": [
          138.2684463,
          36.3514015
        ]
      },
      "properties": {
        "id": "068635ca-1d4b-46c5-aff7-93208119489c",
        "name": "第65投票区",
        "address": "生田4953番地2",
        "city": "上田市",
        "number": "463",
        "status": "done"
      }
    },
    {
      "type": "Feature",
      "geometry": {
        "type": "Point",
        "coordinates": [
          138.0169203,
          36.4309101
        ]
      },
      "properties": {
        "id": "068b9f0d-36da-422c-a0c6-cfd7313632d2",
        "name": "桐山理容店隣",
        "address": "坂北3920番地1",
        "city": "筑北村",
        "number": "206",
        "status": "done"
      }
    },
    {
      "type": "Feature",
      "geometry": {
        "type": "Point",
        "coordinates": [
          137.777035,
          35.948513
        ]
      },
      "properties": {
        "id": "068e2550-a2f4-443c-b278-28040767a550",
        "name": "masked",
        "address": "長野県木曽郡木祖村薮原1780-4",
        "city": "木祖村",
        "number": "4-26",
        "status": "done"
      }
    },
    {
      "type": "Feature",
      "geometry": {
        "type": "Point",
        "coordinates": [
          137.9715818,
          36.1441243
        ]
      },
      "properties": {
        "id": "0690b2c8-8f0d-459c-abe7-89764c7f5379",
        "name": "君石団地集会所前道路沿",
        "address": "片丘4861-1",
        "city": "塩尻市",
        "number": "ｶ-20",
        "status": "done"
      }
    },
    {
      "type": "Feature",
      "geometry": {
        "type": "Point",
        "coordinates": [
          137.896179,
          36.301121
        ]
      },
      "properties": {
        "id": "069b7e28-a254-4f5c-8d20-e753f565ae6d",
        "name": "新田神社柵",
        "address": "豊科5229-2",
        "city": "安曇野市",
        "number": "6-4",
        "status": "done"
      }
    },
    {
      "type": "Feature",
      "geometry": {
        "type": "Point",
        "coordinates": [
          138.06697798,
          36.55712583
        ]
      },
      "properties": {
        "id": "06ac2d76-49cc-47e6-b481-9cf0ec2b4022",
        "name": "グリーン長野農協 中組種子乾燥施設",
        "address": null,
        "city": "長野市",
        "number": null,
        "status": "not_yet"
      }
    },
    {
      "type": "Feature",
      "geometry": {
        "type": "Point",
        "coordinates": [
          138.0638238,
          36.060478
        ]
      },
      "properties": {
        "id": "06ae9abf-9601-48cd-b906-572cfaa765d8",
        "name": "masked",
        "address": "若宮二丁目5-37",
        "city": "岡谷市",
        "number": "4-6",
        "status": "done"
      }
    },
    {
      "type": "Feature",
      "geometry": {
        "type": "Point",
        "coordinates": [
          138.38555908,
          36.28158188
        ]
      },
      "properties": {
        "id": "06af9ffc-96fa-45ea-b535-7fdfb6185e2e",
        "name": "八幡",
        "address": "蓬田206",
        "city": "佐久市",
        "number": "65−い",
        "status": "done"
      }
    },
    {
      "type": "Feature",
      "geometry": {
        "type": "Point",
        "coordinates": [
          138.43371582,
          36.23106766
        ]
      },
      "properties": {
        "id": "06bd9fb4-d8f8-4b4b-bcde-25d876ae895d",
        "name": "熊久保",
        "address": "伴野27-4",
        "city": "佐久市",
        "number": "26−く",
        "status": "done"
      }
    },
    {
      "type": "Feature",
      "geometry": {
        "type": "Point",
        "coordinates": [
          138.3382104,
          36.3911386
        ]
      },
      "properties": {
        "id": "06c475a5-8a84-4686-91a6-9a78b70a9a02",
        "name": "masked",
        "address": "和5211",
        "city": "東御市",
        "number": "118",
        "status": "done"
      }
    },
    {
      "type": "Feature",
      "geometry": {
        "type": "Point",
        "coordinates": [
          137.57476,
          35.96748
        ]
      },
      "properties": {
        "id": "06d0bdbc-2454-4e45-861a-9399e3a2e77e",
        "name": "藤沢ゴミステーション横",
        "address": "開田高原西野3282",
        "city": "木曽町",
        "number": "83",
        "status": "done"
      }
    },
    {
      "type": "Feature",
      "geometry": {
        "type": "Point",
        "coordinates": [
          138.11255,
          36.00401
        ]
      },
      "properties": {
        "id": "06d31b6a-bfa0-4dbe-b814-c728232fbb7c",
        "name": "水戸代第１公園",
        "address": "湖南（大熊）",
        "city": "諏訪市",
        "number": "146",
        "status": "done"
      }
    },
    {
      "type": "Feature",
      "geometry": {
        "type": "Point",
        "coordinates": [
          138.5433744,
          36.1431104
        ]
      },
      "properties": {
        "id": "06de6f3b-9bd6-468b-8dae-af5747f391e6",
        "name": "ブロック塀",
        "address": "大字大日向 3295-1",
        "city": "佐久穂町",
        "number": "9-7",
        "status": "done"
      }
    },
    {
      "type": "Feature",
      "geometry": {
        "type": "Point",
        "coordinates": [
          137.863159,
          35.533566
        ]
      },
      "properties": {
        "id": "06e2e5f7-a486-46d1-bd0e-1f7531e86c32",
        "name": "旧3班ポンプ置場山前",
        "address": "座光寺4759番地1",
        "city": "飯田市",
        "number": "62",
        "status": "done"
      }
    },