[{"id":"d0cf369c-7bc3-429b-a4e6-53d12d923932","lat":35.41766650,"long":139.16512850,"status":"done","name":"八幡神社バス停前フェンス","address":"堀山下997番2","city":"秦野市","number":"193"}, 
 {"id":"d0d1de86-aa2f-468e-9352-32a26536a724","lat":35.52930240,"long":139.44132440,"status":"done","name":"176相模大野７丁目公園","address":"南区","city":"相模原市","number":"408"}, 
 {"id":"d0d4c694-8a01-4678-93c6-50073d1ce95c","lat":35.25591768,"long":139.66613180,"status":"done","name":"衣笠行政センター前植込","address":"横須賀市公郷町2丁目11番地","city":"横須賀市","number":"30-3"}, 
 {"id":"d0d83e67-a16e-49d8-9fc9-32dc7e1798b2","lat":35.36670240,"long":139.20634820,"status":"done","name":"masked","address":"平沢1645番地","city":"秦野市","number":"52"}, 
 {"id":"d0ea7fad-235e-442c-8159-72419af8224d","lat":35.61461930,"long":139.47131030,"status":"done","name":"黒川第1調整池　東側フェンス","address":"麻生区南黒川9番4号","city":"川崎市","number":"148"}, 
 {"id":"d0ea996b-7756-4892-a3b0-947a607b1548","lat":35.60019340,"long":139.33192700,"status":"done","name":"63相原中学校北側","address":"緑区","city":"相模原市","number":"640"}, 
 {"id":"d0eb08ef-934b-4e2b-adc6-34bcf17b8ba7","lat":35.52141600,"long":139.40731680,"status":"done","name":"345相模台中学校西側","address":"南区","city":"相模原市","number":"537"}, 
 {"id":"d0f498e5-1023-4569-b4e8-df975f685c8f","lat":35.43092450,"long":139.61774740,"status":"done","name":"睦町公園西側","address":"南区睦町1丁目26番地","city":"横浜市","number":"05-041"}, 
 {"id":"d0fa139d-b9f9-4084-bd89-9c7df120aadb","lat":35.45857862,"long":139.55149640,"status":"done","name":"左近山中学校校庭側防止柵","address":"旭区左近山1,335番地２","city":"横浜市","number":"08-311"}, 
 {"id":"d100cac8-d2dc-4fa8-800c-9b29a2c9e959","lat":35.44047750,"long":139.32828190,"status":"done","name":"鳥山公園南側ガードパイプ","address":"毛利台1-28","city":"厚木市","number":"4"}, 
 {"id":"d10c4c0b-b509-4aa5-97ed-12b340f1eaa4","lat":35.54028859,"long":139.56573240,"status":"done","name":"バス停「御影橋」後植込","address":"都筑区荏田東二丁目25番","city":"横浜市","number":"14-205"}, 
 {"id":"d10c72a5-c593-4424-83f4-28473aeccc3e","lat":35.43317800,"long":139.33039900,"status":"done","name":"毛利台南入口交差点道路南側ガードパイプ","address":"長谷698","city":"厚木市","number":"35"}, 
 {"id":"d10e3118-8f62-4a07-b850-58b62fa7b07d","lat":35.49014530,"long":139.42845220,"status":"done","name":"masked","address":"masked","city":"座間市","number":"93"}, 
 {"id":"d116fbf5-b3ad-46df-8c2b-59ea5ec426d7","lat":35.43693110,"long":139.47025890,"status":"done","name":"上和田団地入口西側畑","address":"上和田3428","city":"大和市","number":"246"}, 
 {"id":"d119faaf-e6c9-4b66-9aa2-7342db198b01","lat":35.36691140,"long":139.03623940,"status":"done","name":"masked","address":"谷ケ337番地の1","city":"山北町","number":"70"}, 
 {"id":"d11b9dda-1eb7-40c6-ae82-03d01bc237d9","lat":35.56809500,"long":139.24248760,"status":"done","name":"312掛川商店向い側ガードフェンス","address":"緑区","city":"相模原市","number":"811"}, 
 {"id":"d11cebf3-3c3f-4bd9-9eaa-c8591a7bbc6e","lat":35.49029247,"long":139.62107260,"status":"done","name":"金網","address":"神奈川区六角橋二丁目34番20号先","city":"横浜市","number":"02-200"}, 
 {"id":"d11eabe1-44cb-4ab2-a002-e8a9216f8043","lat":35.37984830,"long":139.62401120,"status":"done","name":"冨岡東一丁目第二公園","address":"金沢区富岡東一丁目２番","city":"横浜市","number":"10-185"}, 
 {"id":"d1228dc2-ff88-4a57-88ee-e5032dcf837e","lat":35.60256200,"long":139.30470300,"status":"done","name":"185町屋第２公園南側","address":"緑区","city":"相模原市","number":"734"}, 
 {"id":"d12c8acc-24b9-45c3-8e7f-cf46534d1fc3","lat":35.55646527,"long":139.65004080,"status":"done","name":"慶應義塾体育会馬術部馬場植込","address":"港北区日吉四丁目６番10号","city":"横浜市","number":"11-219"}, 
 {"id":"d12fb243-7392-49be-91ad-2d784a12873a","lat":35.49815410,"long":139.62895410,"status":"done","name":"篠原東一丁目公園","address":"港北区篠原東一丁目５番","city":"横浜市","number":"11-027"}, 
 {"id":"d130e1ae-c64c-4c08-bd34-35e18af3ea4f","lat":35.56787272,"long":139.53184180,"status":"done","name":"黒須田前田公園","address":"青葉区黒須田34番地３","city":"横浜市","number":"13-294"}, 
 {"id":"d1332bce-c6bb-45f0-b21c-51f30268115e","lat":35.43454592,"long":139.63164470,"status":"done","name":"中居公園南側","address":"南区中村町2丁目116番地4","city":"横浜市","number":"05-027"}, 
 {"id":"d13584d6-c46a-4432-b7dc-3bba451b71ed","lat":35.37005724,"long":139.58771710,"status":"done","name":"港南台第一小学校前ガードレール","address":"港南区港南台六丁目７番","city":"横浜市","number":"06-108"}, 
 {"id":"d1367f62-d5cf-4b07-9031-cf7ceef58ae9","lat":35.53832200,"long":139.69400260,"status":"done","name":"幸町小学校表東門西側 フェンス","address":"幸区中幸町2丁目17番地","city":"川崎市","number":"3"}, 
 {"id":"d13b572c-ea0d-4cb7-a568-8e75c6f8c369","lat":35.51952540,"long":139.41153070,"status":"done","name":"361（独）国立病院機構相模原病院南側","address":"南区","city":"相模原市","number":"547"}, 
 {"id":"d150363d-efca-4535-9d51-26c5aa438548","lat":35.51926650,"long":139.71718950,"status":"done","name":"川崎信用金庫大島支店南側ガードレール (位置情報が見つかりませんでした)","address":"川崎区大島3丁目16番13号","city":"川崎市","number":"85"}, 
 {"id":"d15827fe-bb0c-4f94-b6bd-5bd33ce192f0","lat":35.36381786,"long":139.62137860,"status":"done","name":"富岡西公園（東側）","address":"金沢区富岡西六丁目３番","city":"横浜市","number":"10-011"}, 
 {"id":"d158e2be-1f45-4c7e-826d-07785194b657","lat":35.55958934,"long":139.50650750,"status":"done","name":"鴨志田中央交差点南東側フェンス","address":"青葉区鴨志田町812番地７","city":"横浜市","number":"13-132"}, 
 {"id":"d15932a1-bdbe-429a-b3f3-b1992fe4a412","lat":35.14811950,"long":139.07109660,"status":"done","name":"美術館フェンス","address":"宮上623番地の1地先","city":"湯河原町","number":"70"}, 
 {"id":"d16f04f1-b735-428a-b656-de4482e21d80","lat":35.59980240,"long":139.35059790,"status":"done","name":"24宮上小学校正門横","address":"緑区","city":"相模原市","number":"610"}, 
 {"id":"d1717052-2f1f-48ed-ae53-b21d1a783f0e","lat":35.55973180,"long":139.16501920,"status":"done","name":"masked","address":"緑区","city":"相模原市","number":"941"}, 
 {"id":"d1743035-8133-4ab0-b48a-a90175f4e939","lat":35.33908870,"long":139.12972500,"status":"done","name":"慰霊塔前","address":"吉田島 2030番地","city":"開成町","number":"21"}, 
 {"id":"d17b99bd-f669-4857-86f4-b3e4b38da193","lat":35.40818870,"long":139.55932580,"status":"done","name":"港南百合ヶ丘ハイツ２号棟前植込","address":"港南区下永谷四丁目１番","city":"横浜市","number":"06-254"}, 
 {"id":"d18284bf-8358-4aad-8601-81002ab74b40","lat":35.32515620,"long":139.41215530,"status":"done","name":"住宅 南側大谷石塀","address":"東海岸北二丁目12番35号","city":"茅ヶ崎市","number":"57"}, 
 {"id":"d1851514-2fbb-4c61-9650-dd2b91712fa4","lat":35.29998370,"long":139.56970700,"status":"done","name":"入会橋横","address":"逗子市久木4－10－18先","city":"逗子市","number":"10-3"}, 
 {"id":"d18e7bd5-d3c0-44eb-925e-dcd4de55065c","lat":35.45449200,"long":139.50242000,"status":"done","name":"谷戸自治会館フェンス","address":"瀬谷区阿久和東二丁目8番地の28","city":"横浜市","number":"18-134"}, 
 {"id":"d1962c7c-0e24-449b-ab33-8f6cff59ae72","lat":35.33892310,"long":139.29733720,"status":"done","name":"叶谷公園西側","address":"日向岡一丁目16","city":"平塚市","number":"35ー8"}, 
 {"id":"d19a3855-0400-410c-8871-2adc09fd13bd","lat":35.51383242,"long":139.66845560,"status":"done","name":"アリュール鶴見寺谷前ガードレール","address":"鶴見区寺谷二丁目19番17号","city":"横浜市","number":"01-146"}, 
 {"id":"d19b78ce-5052-4b2b-ae89-ff4bb5ebe0c6","lat":35.38975210,"long":139.17477100,"status":"done","name":"masked","address":"堀西1147番","city":"秦野市","number":"196"}, 
 {"id":"d1a135e1-87c9-4e16-b097-6a7a5d39b6ce","lat":35.37994180,"long":139.30414930,"status":"done","name":"ふじみ野第３公園南側","address":"ふじみ野一丁目24","city":"平塚市","number":"46ー4"}, 
 {"id":"d1a27a11-01ec-4289-a57e-d5156fea2ba0","lat":35.51745497,"long":139.67318320,"status":"done","name":"松澤税理士事務所前ガードパイプ","address":"鶴見区下末吉一丁目２番","city":"横浜市","number":"01-153"}, 
 {"id":"d1a7549c-2ef5-4b37-a74e-b92f29ffd05b","lat":35.48370793,"long":139.55979380,"status":"done","name":"新井中学校校庭側入口フェンス","address":"旭区川島町2,950番地","city":"横浜市","number":"08-300"}, 
 {"id":"d1a94dbe-b783-4a14-9da5-eec1b724f902","lat":35.33896360,"long":139.48535890,"status":"done","name":"藤沢駅北口ロータリー","address":"藤沢552-9","city":"藤沢市","number":"3"}, 
 {"id":"d1ab76f7-a5e4-4306-8f84-4c77812ccee5","lat":35.41977210,"long":139.34453550,"status":"done","name":"室前公園東側フェンス","address":"愛甲2-11","city":"厚木市","number":"41"}, 
 {"id":"d1ae83c4-f43b-4236-bb99-256c1ca39481","lat":35.36259050,"long":139.25367750,"status":"done","name":"masked","address":"下大槻688番地先","city":"秦野市","number":"136"}, 
 {"id":"d1b15aac-803a-439a-8ab4-22600a68cc9b","lat":35.22634646,"long":139.70591600,"status":"done","name":"久里浜行政センター入口脇土手","address":"横須賀市久里浜6丁目14番2号","city":"横須賀市","number":"63-7"}, 
 {"id":"d1b4291d-1671-4878-acbe-4c36b7fd9ad3","lat":35.33038260,"long":139.51319080,"status":"done","name":"笛田ポール管理所フェンス","address":"笛田一丁目2番23号","city":"鎌倉市","number":"20-6"}, 
 {"id":"d1b4c6a3-0239-42e8-98fb-96aba5b0d384","lat":35.37332770,"long":139.44417650,"status":"done","name":"駒寄公園北側","address":"大庭5683-1","city":"藤沢市","number":"465"}, 
 {"id":"d1c15cee-f2d0-4896-94fd-6ec3cc67093c","lat":35.31868630,"long":139.50207310,"status":"done","name":"津西まつむし公園フェンス","address":"津西一丁目12番","city":"鎌倉市","number":"16-3"}, 
 {"id":"d1c23ed4-2206-4072-baf7-5bc3e3714e6d","lat":35.49708827,"long":139.68015540,"status":"done","name":"小野第三公園植え込み","address":"鶴見区小野町15番地","city":"横浜市","number":"01-115"}, 
 {"id":"d1c5eefb-70dd-4d03-96ab-51a4e52aa986","lat":35.46789760,"long":139.46837000,"status":"done","name":"菊園児童遊園","address":"深見台2-4","city":"大和市","number":"168"}, 
 {"id":"d1cbfc0f-f674-48c8-93c8-dab00941442b","lat":35.33967710,"long":139.39710680,"status":"done","name":"住宅 東側ブロック塀 中央","address":"矢畑75番地","city":"茅ヶ崎市","number":"106"}, 
 {"id":"d1d67aef-e158-412b-a92d-36a087308f00","lat":35.44450666,"long":139.59949760,"status":"done","name":"岩井町第五公園鉄柵","address":"保土ケ谷区岩井町123番地の14","city":"横浜市","number":"07-053"}, 
 {"id":"d1df784f-cc5a-4d91-9497-6547819410cc","lat":35.44766800,"long":139.42174100,"status":"done","name":"釜田第２公園フェンス","address":"寺尾釜田２丁目２８０－１５","city":"綾瀬市","number":"63"}, 
 {"id":"d1e837a5-315f-4be4-90aa-07137aad854e","lat":35.39562103,"long":139.51502480,"status":"done","name":"クリエイト駐車場横(ﾌｪﾝｽ取付)","address":"戸塚区汲沢町1347番地","city":"横浜市","number":"15-211"}, 
 {"id":"d1e8b478-f9fe-4771-abeb-88f97ae8689d","lat":35.42233031,"long":139.66494150,"status":"done","name":"セブンイレブン横浜本牧三渓園店前植込み","address":"中区本牧三之谷10−10","city":"横浜市","number":"04-147"}, 
 {"id":"d1e8e79f-6031-4854-9d50-378dd5948081","lat":35.36041150,"long":139.21574290,"status":"done","name":"水路北側ガードパイプ","address":"今泉2232番","city":"秦野市","number":"60"}, 
 {"id":"d1ee6826-0cb5-4578-879e-ed3c8c64a527","lat":35.27385300,"long":139.57736440,"status":"done","name":"葉山町立図書館前","address":"堀内 1402番地先","city":"葉山町","number":"41"}, 
 {"id":"d1f4566b-2426-4f00-84b5-0096cf7d9b19","lat":35.43094550,"long":139.32800190,"status":"done","name":"厚木市衛生プラント北側フェンス","address":"長谷626-1","city":"厚木市","number":"33"}, 
 {"id":"d200873b-cb83-4ac6-92ea-62e6697bd4cc","lat":35.57874460,"long":139.65455540,"status":"done","name":"UR都市機構小杉御殿団地1号棟横フェンス","address":"中原区小杉御殿町2丁目47番地","city":"川崎市","number":"32"}, 
 {"id":"d202a323-b594-458e-9770-7bed86985cff","lat":35.50479900,"long":139.42669240,"status":"done","name":"相模台サンハイツ西側子供広場南側 フェンス","address":"相模が丘６丁目３２番相模台サンハイツ西側子供広場南側 フェンス","city":"座間市","number":"158"}, 
 {"id":"d2045375-fc80-4e61-9825-ac7f432a4577","lat":35.54181911,"long":139.65185600,"status":"done","name":"日本大学高等学校第２グラウンド北側フェンス","address":"港北区日吉六丁目12番３号","city":"横浜市","number":"11-214"}, 
 {"id":"d205d03e-695b-47d4-b00d-c5fa5ed0ef97","lat":35.56446846,"long":139.54242530,"status":"done","name":"あざみ野第二小学校東側入口横","address":"青葉区あざみ野三丁目29番地３","city":"横浜市","number":"13-285"}, 
 {"id":"d2080332-6f85-4368-b89e-c6370732e422","lat":35.58002370,"long":139.65900980,"status":"done","name":"ツリーベル武蔵小杉前鉄柵","address":"中原区小杉町1丁目529番地","city":"川崎市","number":"4"}, 
 {"id":"d20fad68-6dd2-4011-a61d-b61994f2e463","lat":35.51818020,"long":139.70073200,"status":"done","name":"新町小学校東側フェンス","address":"川崎区渡田新町3丁目15番1号","city":"川崎市","number":"52"}, 
 {"id":"d210479b-2c46-4cea-831d-babb9a5de2ee","lat":35.51818650,"long":139.43710620,"status":"done","name":"232相模緑道緑地（東林間6丁目7番地先）","address":"南区","city":"相模原市","number":"450"}, 
 {"id":"d21a3bc0-3bbe-415b-bf4f-d8ec3b22b075","lat":35.37947763,"long":139.58203180,"status":"done","name":"港南台第三小学校裏金網","address":"港南区港南台二丁目14番","city":"横浜市","number":"06-095"}, 
 {"id":"d2216170-be90-4e17-91f7-27d982b10093","lat":35.32772474,"long":139.62309080,"status":"done","name":"旭橋そば六浦川フェンス","address":"金沢区六浦一丁目４番","city":"横浜市","number":"10-102"}, 
 {"id":"d22a12a3-d92d-43db-bfa9-5132dee778ed","lat":35.47984218,"long":139.57433970,"status":"done","name":"西谷町第二公園東側ガードレール","address":"保土ケ谷区西谷二丁目26番先","city":"横浜市","number":"07-218"}, 
 {"id":"d230561d-8b10-4f75-99ca-abb0be792da7","lat":35.39077150,"long":139.17735610,"status":"done","name":"堀山下児童館フェンス","address":"堀山下843番","city":"秦野市","number":"197"}, 
 {"id":"d2336d58-02bf-47bd-9fdc-4d6565f5b4b9","lat":35.57820250,"long":139.52346700,"status":"done","name":"虹ヶ丘住宅管理事務所 向側","address":"麻生区虹ヶ丘3丁目1番5号","city":"川崎市","number":"88"}, 
 {"id":"d23b68ae-98f9-4df3-8a0c-ec2624939872","lat":35.44534281,"long":139.62779140,"status":"done","name":"日ノ出サクアス前ガードレール","address":"中区日ノ出町１−200","city":"横浜市","number":"04-009"}, 
 {"id":"d242b112-7095-49f2-a154-775679e649f9","lat":35.39782750,"long":139.47062480,"status":"done","name":"湘南台公園東側","address":"湘南台7丁目16","city":"藤沢市","number":"401"}, 
 {"id":"d245a796-748f-463a-aa82-c776c616d770","lat":35.37679451,"long":139.62174130,"status":"done","name":"富岡東公舎前フェンス","address":"金沢区富岡東一丁目21番","city":"横浜市","number":"10-182"}, 
 {"id":"d245f7fb-1837-40d1-a55e-032d6627f946","lat":35.39565874,"long":139.60042860,"status":"done","name":"横浜市水道局施設金網","address":"港南区笹下二丁目20番１号","city":"横浜市","number":"06-046"}, 
 {"id":"d25460b8-b1bd-4360-8da7-79620edc3131","lat":35.32820740,"long":139.35683280,"status":"done","name":"ＯＳＣ湘南シティ入口脇歩道ガードレール","address":"代官町33","city":"平塚市","number":"6ー4"}, 
 {"id":"d25bc8de-34f7-4d29-b360-8052433d73ca","lat":35.47541000,"long":139.45271730,"status":"done","name":"上草柳ちびっこ広場西側","address":"上草柳3－4","city":"大和市","number":"149"}, 
 {"id":"d25f1d2b-214c-4242-bea4-a95dca7190ea","lat":35.47009490,"long":139.45807760,"status":"done","name":"中央6号公園南側","address":"中央4-5","city":"大和市","number":"182"}, 
 {"id":"d25fce57-865f-41d0-ae02-13f5c93d8a68","lat":35.48445634,"long":139.64693620,"status":"done","name":"歩道植込","address":"神奈川区子安通１丁目132番地先","city":"横浜市","number":"02-052"}, 
 {"id":"d263c851-fd12-4a47-bf72-f10ce6fb7d2d","lat":35.49671547,"long":139.57537350,"status":"done","name":"西菅田団地５街区１号棟横","address":"神奈川区菅田町488番地","city":"横浜市","number":"02-268"}, 
 {"id":"d26492f3-3b57-498a-837e-bd6ceb3b6ec7","lat":35.57906492,"long":139.54427620,"status":"done","name":"荏子田朝日公園","address":"青葉区荏子田一丁目７番地１","city":"横浜市","number":"13-195"}, 
 {"id":"d26895aa-76e2-47af-82c9-8b41f1e06304","lat":35.53524470,"long":139.44134560,"status":"done","name":"161上村公園北側","address":"南区","city":"相模原市","number":"395"}, 
 {"id":"d288f7bb-975e-47ad-95e3-40767e713c0e","lat":35.48467482,"long":139.62180210,"status":"done","name":"神奈川大学","address":"神奈川区六角橋三丁目27番","city":"横浜市","number":"02-209"}, 
 {"id":"d2939a38-e1eb-4972-a972-d77cd8387352","lat":35.19745500,"long":139.62625740,"status":"done","name":"赤羽根バス停（横須賀方面）脇ネットフェンス","address":"初声町和田2761番地","city":"三浦市","number":"124"}, 
 {"id":"d29472ac-87f6-4a4f-9ff5-807b52ca967e","lat":35.49179058,"long":139.65494890,"status":"done","name":"ガードレール","address":"神奈川区新子安一丁目35番先","city":"横浜市","number":"02-040"}, 
 {"id":"d29c95f2-93ca-4e32-9104-76a0299fe8d0","lat":35.53020640,"long":139.31913510,"status":"done","name":"小沢バス停横鉄柵","address":"角田909","city":"愛川町","number":"45"}, 
 {"id":"d2a12ccc-37ed-4d0d-9ac0-344e6a8c8a75","lat":35.43640677,"long":139.63503900,"status":"done","name":"東橋公園東側","address":"南区中村町1丁目2番地1","city":"横浜市","number":"05-023"}, 
 {"id":"d2a80415-dcb8-41ba-99aa-8bd46bd37eb6","lat":35.45575400,"long":139.42263100,"status":"done","name":"寺尾綾北自治会館フェンス","address":"寺尾本町２丁目７－３","city":"綾瀬市","number":"56"}, 
 {"id":"d2ae0a1e-80fd-4b12-8b6f-f5b96134d5cd","lat":35.38860267,"long":139.57106510,"status":"done","name":"野庭中央公園フェンス","address":"港南区野庭町632番地","city":"横浜市","number":"06-143"}, 
 {"id":"d2b2c98d-d17c-437d-9a4e-84f56de00019","lat":35.36174009,"long":139.53414510,"status":"done","name":"笠間三丁目公園内東側フェンス","address":"栄区笠間三丁目45番","city":"横浜市","number":"16-194"}, 
 {"id":"d2b39b09-9584-4797-b7ba-0c718c3f5a0a","lat":35.41859460,"long":139.29899540,"status":"done","name":"長竹バス停 横","address":"西富岡 990番地の1 先","city":"伊勢原市","number":"23"}, 
 {"id":"d2b4c682-1ac9-492f-8416-cb0dbeda461f","lat":35.36087410,"long":139.25967110,"status":"done","name":"ひろはたこども園前石垣","address":"下大槻138番地","city":"秦野市","number":"138"}, 
 {"id":"d2b78d17-a5d6-4c23-9ba0-5729e702f03b","lat":35.59441250,"long":139.53738680,"status":"done","name":"稗原バス停そば柵","address":"宮前区菅生ケ丘29番","city":"川崎市","number":"166"}, 
 {"id":"d2c79521-a48d-4f40-8525-60e791d28afa","lat":35.52627290,"long":139.32322100,"status":"done","name":"京田英男所有建物石塀","address":"角田26","city":"愛川町","number":"43"}, 
 {"id":"d2cfe238-5148-4049-a8bd-c5f782f34858","lat":35.20590222,"long":139.67448350,"status":"done","name":"京急長沢駅前駐車場フェンス","address":"横須賀市長沢1丁目35番1号","city":"横須賀市","number":"72-5"}, 
 {"id":"d2d22ea4-62f3-4c8b-a798-dbc982897e1f","lat":35.37225180,"long":139.33002950,"status":"done","name":"市立城島小学校南側","address":"小鍋島608－3","city":"平塚市","number":"29ー3"}, 
 {"id":"d2d8a41f-ae7f-427d-9970-e2c71bbca174","lat":35.59623980,"long":139.58358370,"status":"done","name":"ひばり幼稚園第２園舎北側フェンス","address":"宮前区神木2丁目11番地5","city":"川崎市","number":"116"}, 
 {"id":"d2e12387-1009-4bb1-8f43-ea122a6be8f6","lat":35.51646968,"long":139.63193630,"status":"done","name":"菊名ウォータープラザ向植込","address":"港北区菊名六丁目22番地","city":"横浜市","number":"11-136"}, 
 {"id":"d2e4d8cd-0f9c-4b91-8428-1999c06554f8","lat":35.42917000,"long":139.43393100,"status":"done","name":"新道橋東側県道フェンス","address":"深谷南１丁目１４８８−４","city":"綾瀬市","number":"21"}, 
 {"id":"d2ea97d5-94ce-4791-8506-f6d31034888c","lat":35.31498867,"long":139.11922610,"status":"done","name":"103","address":null,"city":"南足柄市","number":"103"}, 
 {"id":"d2edbfc1-0ac4-49e8-9c78-9c1cbf40c7b4","lat":35.22156450,"long":139.04345750,"status":"done","name":"芦之湯集会所","address":"芦之湯90番地1","city":"箱根町","number":"91"}, 
 {"id":"d2f7aa6e-1d89-46f6-90e3-1cf8750616c6","lat":35.22358871,"long":139.60925330,"status":"done","name":"大楠漁協入口左側ガードレール","address":"横須賀市佐島3丁目5番1号","city":"横須賀市","number":"81-3"}, 
 {"id":"d304eeab-dbd9-4659-890e-e41499d030f8","lat":35.59777600,"long":139.30778790,"status":"done","name":"173原宿堀公園北側","address":"緑区","city":"相模原市","number":"724"}, 
 {"id":"d30553e1-617a-4265-8c0b-2f1ebf64916d","lat":35.48196334,"long":139.53510540,"status":"done","name":"masked","address":"旭区今宿東町703番地","city":"横浜市","number":"08-265"}, 
 {"id":"d305f0ed-aa10-4b5d-bb37-1d520f44f4fd","lat":35.58984540,"long":139.60250250,"status":"done","name":"西梶ヶ谷小学校フェンス","address":"高津区梶ヶ谷2丁目14番地","city":"川崎市","number":"100"}, 
 {"id":"d309a3ba-3406-4b32-88ad-a3fedb7bd6b2","lat":35.48074490,"long":139.40746940,"status":"done","name":"市道植込み","address":"入谷東２丁目１６番２３号先市道植込み","city":"座間市","number":"41"}, 
 {"id":"d309f5a8-c7dc-4e9b-af3e-2c0c6623b7ee","lat":35.48088680,"long":139.34849980,"status":"done","name":"中三田第2自治会西側フェンス","address":"三田464-6","city":"厚木市","number":"43"}, 
 {"id":"d30df946-0732-466c-bf8f-42ca6267d2b1","lat":35.31369150,"long":139.50469100,"status":"done","name":"丹後ガ谷やまばと公園脇転落防止柵","address":"津601番地86","city":"鎌倉市","number":"16-6"}, 
 {"id":"d30e7f45-43ec-448e-aaf9-d9428d14c07a","lat":35.22609565,"long":139.70683580,"status":"done","name":"市営久里浜改良アパートＨ棟横駐輪場裏フェンス","address":"横須賀市久里浜6丁目11番","city":"横須賀市","number":"63-5"}, 
 {"id":"d31338ca-487a-4533-8a6d-179e557e4967","lat":35.53537880,"long":139.27987650,"status":"done","name":"masked","address":"半原1784","city":"愛川町","number":"23"}, 
 {"id":"d31576f8-5d12-4cdc-aecb-f9dfcd173b84","lat":35.38382260,"long":139.31312270,"status":"done","name":"岡崎福祉館 金網塀","address":"岡崎 6936番地の13","city":"伊勢原市","number":"71"}, 
 {"id":"d31b62cb-ec2e-4e04-99c3-6c24d393615c","lat":35.51834240,"long":139.45127830,"status":"done","name":"187深堀中央公園南側","address":"南区","city":"相模原市","number":"417"}, 
 {"id":"d323a109-0373-4da5-b758-028a4f3db8a0","lat":35.45841900,"long":139.48941600,"status":"done","name":"瀬谷第一公園東側植込","address":"瀬谷区南台二丁目4番地の63","city":"横浜市","number":"18-097"}, 
 {"id":"d333fb72-948a-4b4e-a005-fc1e36a3d763","lat":35.48416938,"long":139.56027750,"status":"done","name":"新井中学校正門フェンス","address":"旭区川島町3,026番地","city":"横浜市","number":"08-301"}, 
 {"id":"d3367a15-1de5-48d9-977c-e654a979648e","lat":35.40981123,"long":139.56988210,"status":"done","name":"上永谷中学校校門横ブロック塀","address":"港南区上永谷四丁目12番14号","city":"横浜市","number":"06-184"}, 
 {"id":"d33ef63c-67d2-4067-8c68-a442c1d4d6fa","lat":35.25976472,"long":139.71225620,"status":"done","name":"馬堀海岸4丁目公園植込み","address":"横須賀市馬堀海岸4丁目2番","city":"横須賀市","number":"43-6"}, 
 {"id":"d34b961c-7aec-40da-9f8a-a9d3c5474862","lat":35.37936739,"long":139.59058020,"status":"done","name":"県営日野団地19号棟前ガードレール","address":"港南区日野中央三丁目21番","city":"横浜市","number":"06-079"}, 
 {"id":"d35651b8-2123-4a9f-95a4-963be190ae10","lat":35.29984740,"long":139.56432130,"status":"done","name":"小坪大谷戸会館前","address":"逗子市新宿4－15－26","city":"逗子市","number":"10-1"}, 
 {"id":"d369c480-de91-4703-afff-606fd8220317","lat":35.42472500,"long":139.42939400,"status":"done","name":"芝原公民館フェンス","address":"吉岡東５丁目５－１４","city":"綾瀬市","number":"116"}, 
 {"id":"d36ed33d-b541-40dc-9fba-afa733efa717","lat":35.26464530,"long":139.63098360,"status":"done","name":"YOKO DRIVE前","address":"木古庭 ４７９番地","city":"葉山町","number":"5"}, 
 {"id":"d3726a0d-83f3-4167-9ebb-cbc6385c7d8c","lat":35.51899691,"long":139.54409130,"status":"done","name":"青砥交差点付近鉄柵","address":"緑区青砥町１０８８","city":"横浜市","number":"12-144"}, 
 {"id":"d37c155f-c6d8-4e53-84a7-192f5a82b5fc","lat":35.36717543,"long":139.62558930,"status":"done","name":"富岡小学校フェンス（西側）","address":"金沢区富岡西七丁目13番","city":"横浜市","number":"10-018"}, 
 {"id":"d37d1193-5753-466b-801e-bd5b234afa9c","lat":35.47282356,"long":139.53099430,"status":"done","name":"今川一号橋フェンス","address":"旭区四季美台102番地","city":"横浜市","number":"08-157"}, 
 {"id":"d37dca73-9ba8-411c-af9a-226954638dcf","lat":35.41339140,"long":139.39549000,"status":"done","name":"本郷コミュニティセンター西側フェンス","address":"本郷4626番地の１","city":"海老名市","number":"８ - ８"}, 
 {"id":"d38a3ede-175f-475c-8416-31aeab3dec88","lat":35.33926107,"long":139.59672890,"status":"done","name":"関東学院大学向かいフェンス","address":"金沢区釜利谷東八丁目22番","city":"横浜市","number":"10-165"}, 
 {"id":"d38d64d1-24f4-47e7-96fd-0080146f89c5","lat":35.38180410,"long":139.39369620,"status":"done","name":"第5分団消防車庫西側フェンス","address":"小谷2丁目1番4号","city":"寒川町","number":"62"}, 
 {"id":"d38e0f17-e9f7-40be-a8cd-75fa61481d93","lat":35.57219743,"long":139.54277400,"status":"done","name":"あざみ野第一小学校校門横","address":"青葉区あざみ野四丁目６番地１","city":"横浜市","number":"13-197"}, 
 {"id":"d390df90-fefe-4015-a9aa-a55d3f748119","lat":35.24224418,"long":139.14999790,"status":"done","name":"116","address":"南町４丁目９−１０","city":"小田原市","number":"116"}, 
 {"id":"d393b7b1-558b-4441-8ecf-7018640c9bc0","lat":35.50375810,"long":139.45740470,"status":"done","name":"つきみ野5号公園西側","address":"つきみ野1-12","city":"大和市","number":"55"}, 
 {"id":"d3a4bebf-69b6-4bc2-bc8c-271be5e064d3","lat":35.31153831,"long":139.16445210,"status":"done","name":"275","address":"下大井下大井","city":"小田原市","number":"275"}, 
 {"id":"d3a62345-5b02-4a20-8816-15d7b889d227","lat":35.32571940,"long":139.46392010,"status":"done","name":"八部(鵠沼運動)公園プール南側","address":"鵠沼海岸6丁目12","city":"藤沢市","number":"73"}, 
 {"id":"d3a710ac-963f-4125-94fb-018ad2260fb1","lat":35.46947830,"long":139.52631070,"status":"done","name":"ファミリーマート横ガードレール","address":"旭区中沢二丁目１番44号","city":"横浜市","number":"08-151"}, 
 {"id":"d3a861c8-781c-49a9-a421-e1536cf69529","lat":35.50063491,"long":139.64083300,"status":"done","name":"松見みはらし公園","address":"神奈川区松見町３丁目924番地","city":"横浜市","number":"02-028"}, 
 {"id":"d3b3040c-ca04-482d-865a-2cfc5c14c31f","lat":35.55653617,"long":139.63821350,"status":"done","name":"バス停グラウンド前横路肩フェンス","address":"港北区下田町一丁目２番","city":"横浜市","number":"11-264"}, 
 {"id":"d3b85f62-0e58-4f3f-a84d-4d4f3098028f","lat":35.42116100,"long":139.43845200,"status":"done","name":"びわみ堂バス停北東ガードフェンス","address":"落合北４丁目１０４８−３","city":"綾瀬市","number":"8"}, 
 {"id":"d3ba4126-90cb-4441-a123-0fa9fc4745d9","lat":35.46250650,"long":139.63118350,"status":"done","name":"パシフィックロイヤルコートみなとみらいアーバンタワー西側植込み","address":"西区みなとみらい五丁目３番先","city":"横浜市","number":"03-159"}, 
 {"id":"d3bb0ea3-2279-49fb-9d79-f82727c95b2a","lat":35.54760668,"long":139.52571200,"status":"done","name":"もえぎ野公園","address":"青葉区もえぎ野７番地１","city":"横浜市","number":"13-098"}, 
 {"id":"d3bb15a7-e0b0-434c-b239-7bea6add6f2d","lat":35.22733093,"long":139.71562270,"status":"done","name":"オリエンタルボート㈱造船所脇歩道フェンス","address":"横須賀市長瀬1丁目10番14号","city":"横須賀市","number":"65-3"}, 
 {"id":"d3c028c6-36fa-404e-a92b-eb1c8bf043d6","lat":35.46667600,"long":139.49951300,"status":"done","name":"二ツ橋公園北側植込","address":"瀬谷区二ツ橋町83番地の1","city":"横浜市","number":"18-044"}, 
 {"id":"d3c0813e-27ea-43f3-952f-af433a2524e5","lat":35.43189533,"long":139.58485010,"status":"done","name":"永田台第三公園西側フェンス取付","address":"南区永田台30番","city":"横浜市","number":"05-220"}, 
 {"id":"d3c7f3fd-6c60-47d4-9ec7-aaec1c9b56f0","lat":35.31976570,"long":139.34175760,"status":"done","name":"浜岳公園南側","address":"菫平3","city":"平塚市","number":"3ー4"}, 
 {"id":"d3ca7e9e-5956-4cf9-9a2c-5fd887f1a948","lat":35.44438900,"long":139.39782700,"status":"done","name":"大谷市場公園東側","address":"大谷北二丁目3923番９（大谷北2-21-18付近）","city":"海老名市","number":"22 - ５"}, 
 {"id":"d3da5d94-57ac-4d6f-a595-1225b1475f3c","lat":35.40094870,"long":139.57184510,"status":"done","name":"上永谷駅バスターミナル植込","address":"港南区丸山台一丁目12番","city":"横浜市","number":"06-167"}, 
 {"id":"d3df8baa-b4fe-49a9-abfc-4297df8bca73","lat":35.33351470,"long":139.37713050,"status":"done","name":"小中島公園 入口 南側フェンス","address":"今宿911番地5","city":"茅ヶ崎市","number":"124"}, 
 {"id":"d3dfb444-18cd-4d34-863f-c344115d4f0e","lat":35.52650700,"long":139.40359770,"status":"done","name":"323麻溝台自治会館前","address":"南区","city":"相模原市","number":"520"}, 
 {"id":"d3e9a626-2f08-4a40-acf8-2f900e940b79","lat":35.42359738,"long":139.58430410,"status":"done","name":"住宅前フェンス取付","address":"南区六ツ川二丁目87番地11","city":"横浜市","number":"05-214"}, 
 {"id":"d3ed86f8-2807-49ab-ad43-ff6fb1aed871","lat":35.49282830,"long":139.40638310,"status":"done","name":"座間中学校西側 フェンス","address":"緑ケ丘４丁目６番１０号座間中学校西側 フェンス","city":"座間市","number":"117"}, 
 {"id":"d3ee19e1-2f84-469c-91cb-3898eada2c94","lat":35.47799650,"long":139.28089530,"status":"done","name":"「中里バス停」横、駐車場","address":"煤ヶ谷1889-甲","city":"清川村","number":"7"}, 
 {"id":"d3f7a30a-af27-4ca1-b707-807256b52ce5","lat":35.40798735,"long":139.52890270,"status":"done","name":"矢部神明台公園（ｶﾞｰﾄﾞﾊﾟｲﾌﾟ）","address":"戸塚区矢部町1420番地の1","city":"横浜市","number":"15-113"}, 
 {"id":"d3f8a828-ef4d-43f4-8201-ad93e0b73b16","lat":35.50453788,"long":139.55893560,"status":"done","name":"白山町第三公園ガードレール","address":"緑区白山二丁目２２","city":"横浜市","number":"12-027"}, 
 {"id":"d3fbf8e8-0e7e-4a46-90f1-41f15ab38748","lat":35.43851620,"long":139.46630390,"status":"done","name":"旭ヶ丘1号公園西側","address":"渋谷1-14","city":"大和市","number":"225"}, 
 {"id":"d3fe71d2-75e2-4988-adce-6ba7115d2f71","lat":35.36170360,"long":139.07984800,"status":"done","name":"柑橘果工㈱汚水処理場フェンス","address":"山北176番地","city":"山北町","number":"9"}, 
 {"id":"d4124e97-18b7-487e-b0e5-01cba35bcb46","lat":35.19228090,"long":139.65373390,"status":"done","name":"三浦海岸ハイツ9号棟西側ネットフェンス","address":"南下浦町上宮田1334番地12","city":"三浦市","number":"65"}, 
 {"id":"d413bc30-7f79-46a1-8126-224660df3555","lat":35.30896460,"long":139.24993280,"status":"done","name":"中里第1遊園地北側フェンス","address":"中里1002番地の6","city":"二宮町","number":"49"}, 
 {"id":"d41823f2-9a36-41a1-922e-63327e255709","lat":35.37332257,"long":139.56091840,"status":"done","name":"鍛冶ヶ谷南公園鉄柵","address":"港南区日野南七丁目12番","city":"横浜市","number":"06-129"}, 
 {"id":"d4296a5f-aba4-405c-8780-4fc6a1e28638","lat":35.22459316,"long":139.71169420,"status":"done","name":"ペリー公園（ペリー記念館）裏路上","address":"横須賀市久里浜7丁目15番","city":"横須賀市","number":"66-2"}, 
 {"id":"d42c32eb-be47-49ce-b6fc-fb626c11e336","lat":35.53748180,"long":139.41833530,"status":"done","name":"86やまびこ公園","address":"南区","city":"相模原市","number":"345"}, 
 {"id":"d42c82b2-08b9-44d4-aca7-001b0bbaf2b4","lat":35.28190060,"long":139.18695950,"status":"done","name":"161","address":"中里２７２−３ 山田 ビル","city":"小田原市","number":"161"}, 
 {"id":"d42ccb44-2e11-412f-bb23-f4e34d23ad3a","lat":35.41201990,"long":139.32154400,"status":"done","name":"割地公園 西側 鉄柵","address":"高森1145番地の4","city":"伊勢原市","number":"175"}, 
 {"id":"d4302915-e110-4da7-8f2d-5ffa05126382","lat":35.57913100,"long":139.50239110,"status":"done","name":"上麻生亀井公園　東側フェンス","address":"麻生区上麻生7丁目23番","city":"川崎市","number":"105"}, 
 {"id":"d43bf0c9-04bc-420e-a70e-db28761ef555","lat":35.29631892,"long":139.14512120,"status":"done","name":"89","address":"堀之内２４２","city":"小田原市","number":"89"}, 
 {"id":"d4415a4f-9ec6-4398-97c5-7bb2f9fd235c","lat":35.43825210,"long":139.40612510,"status":"done","name":"国分寺台第三児童公園北側フェンス前空地","address":"国分寺台３丁目5345番63（国分寺台3-4-2付近）","city":"海老名市","number":"17 - ２"}, 
 {"id":"d4477005-0bfb-45a0-9110-b5fe86e23657","lat":35.33520470,"long":139.15477440,"status":"done","name":"金手自治会館前","address":"金子143番地","city":"大井町","number":"25"}, 
 {"id":"d4513975-b833-40d8-8574-87914e2c6098","lat":35.60076690,"long":139.52632910,"status":"done","name":"中の台バス停 脇フェンス","address":"麻生区東百合丘2丁目3番","city":"川崎市","number":"1"}, 
 {"id":"d4542a24-1c96-49ba-8a7e-cc5840ec387d","lat":35.34524830,"long":139.42129610,"status":"done","name":"八王子神社 南側フェンス","address":"室田一丁目13番35号","city":"茅ヶ崎市","number":"167"}, 
 {"id":"d46b7bc1-798e-49d7-a8ca-371e818dfc6b","lat":35.49146700,"long":139.31962600,"status":"done","name":"宮郷水辺の広場南側ガードパイプ","address":"上荻野6283","city":"厚木市","number":"31"}, 
 {"id":"d46fc0d5-fd08-4fe8-a888-1e15cc3564b1","lat":35.43793716,"long":139.65891500,"status":"done","name":"ベイサイド新山下Ｂ−１号棟前植込み","address":"中区新山下２−８−１","city":"横浜市","number":"04-061"}, 
 {"id":"d4726bc1-9996-4f08-b4e2-912dae78894a","lat":35.56249400,"long":139.67514730,"status":"done","name":"八幡神社石柵","address":"中原区上平間293番地","city":"川崎市","number":"82"}, 
 {"id":"d47e5b76-f8fe-4fb7-bc75-6d500c86926e","lat":35.58111090,"long":139.52787890,"status":"done","name":"すすき野団地Ｃ地区駐車場ガードレール","address":"青葉区すすき野三丁目６番地22","city":"横浜市","number":"13-237"}, 
 {"id":"d482f98c-4ed1-4b6e-ac43-05ca77fa4f90","lat":35.31631160,"long":139.57800320,"status":"done","name":"十二所公園フェンス","address":"十二所967番地","city":"鎌倉市","number":"1-4"}, 
 {"id":"d4841e76-d6ce-4541-b7e8-359bb42aeb06","lat":35.45252487,"long":139.61108740,"status":"done","name":"浜松町公園入口右側","address":"西区浜松町９番","city":"横浜市","number":"03-087"}, 
 {"id":"d485f50f-1158-46ca-8b5c-aad1dbbf09af","lat":35.59083610,"long":139.63482290,"status":"done","name":"上小田中北公園フェンス","address":"中原区上小田中1丁目2番40号","city":"川崎市","number":"164"}, 
 {"id":"d4927ed0-8f82-4606-9f91-4a44592d708c","lat":35.47029702,"long":139.58029700,"status":"done","name":"上星川幼稚園前ちびっ子広場柵","address":"保土ケ谷区上星川一丁目13番","city":"横浜市","number":"07-206"}, 
 {"id":"d49f434d-c2ba-48c9-b4ac-57af5aa4dbe0","lat":35.51242630,"long":139.50088300,"status":"done","name":"霧が丘公園植込み","address":"緑区霧が丘五丁目２４","city":"横浜市","number":"12-092"}, 
 {"id":"d4a505e6-b225-4a74-821b-f571b7b6ab7e","lat":35.35251860,"long":139.20978820,"status":"done","name":"境コミュニティセンター西側歩道","address":"境 1293","city":"中井町","number":"23"}, 
 {"id":"d4a850a5-0ed4-4739-8496-20329743cd26","lat":35.36982240,"long":139.34116120,"status":"done","name":"霊山寺前フェンス","address":"下島384","city":"平塚市","number":"29ー8"}, 
 {"id":"d4af73fb-62dc-4202-8e69-a4581160eb57","lat":35.59261280,"long":139.60262610,"status":"done","name":"梶ヶ谷さくら公園フェンス","address":"高津区末長1丁目49番36号","city":"川崎市","number":"105"}, 
 {"id":"d4b35bbf-55f8-4fff-a584-478105c39639","lat":35.44264315,"long":139.65414110,"status":"done","name":"山下橋東交差点付近ガードレール","address":"中区新山下１−２−８","city":"横浜市","number":"04-063"}, 
 {"id":"d4bb1d69-d420-4375-b618-a69c8d0fe78b","lat":35.52457971,"long":139.51894970,"status":"done","name":"十日市場日向山公園鉄パイプ","address":"緑区十日市場町８２９","city":"横浜市","number":"12-081"}, 
 {"id":"d4bc62f8-fdd5-4291-884e-3402f181d676","lat":35.44972000,"long":139.45994720,"status":"done","name":"関水動物病院東側","address":"福田7-7","city":"大和市","number":"213"}, 
 {"id":"d4c6216b-3351-4e55-a730-c180771a793e","lat":35.32772140,"long":139.50959970,"status":"done","name":"鎌倉消防署深沢出張所隣場","address":"手広一丁目16番12号","city":"鎌倉市","number":"20-5"}, 
 {"id":"d4c6d70f-479e-4731-aabd-2c07900afbfb","lat":35.58548000,"long":139.34180890,"status":"done","name":"57もみの木公園前","address":"緑区","city":"相模原市","number":"636"}, 
 {"id":"d4c792d3-d330-4af8-997d-e370121f24e3","lat":35.59405260,"long":139.30274390,"status":"done","name":"164ＪＡ会館前（国道側）","address":"緑区","city":"相模原市","number":"718"}, 
 {"id":"d4cc9833-882c-4317-a707-fd70c28ceca4","lat":35.47905177,"long":139.58502170,"status":"done","name":"羽沢長谷公園","address":"神奈川区羽沢南二丁目25番先","city":"横浜市","number":"02-290"}, 
 {"id":"d4ced60f-53c7-4b54-b601-04bc6ec660d3","lat":35.47726525,"long":139.51662880,"status":"done","name":"masked","address":"旭区今宿二丁目15番","city":"横浜市","number":"08-173"}, 
 {"id":"d4d1130a-6746-4da6-bd29-65c7ea2dfb3a","lat":35.38893340,"long":139.32631060,"status":"done","name":"masked","address":"上平間 414番地","city":"伊勢原市","number":"138"}, 
 {"id":"d4d42bcf-cb8d-4e73-96c7-2fbf24ecce93","lat":35.24038841,"long":139.71203540,"status":"done","name":"光風台第2公園フェンス","address":"横須賀市光風台28番","city":"横須賀市","number":"56-4"}, 
 {"id":"d4de571b-2ad9-44b3-8758-cba4befbfa58","lat":35.27341211,"long":139.65515160,"status":"done","name":"旧坂本小学校前路上フェンス","address":"横須賀市坂本町2丁目48番地","city":"横須賀市","number":"14-2"}, 
 {"id":"d4e163e3-accd-46cc-84f4-88d04d8e6c94","lat":35.43501545,"long":139.56506200,"status":"done","name":"品濃なかよし公園","address":"戸塚区品濃町1823番地の1","city":"横浜市","number":"15-035"}, 
 {"id":"d4e17435-e650-4e12-b8a9-1f2eb5513be0","lat":35.52149523,"long":139.68131070,"status":"done","name":"元宮二丁目公園内植え込み","address":"鶴見区元宮二丁目８番","city":"横浜市","number":"01-032"}, 
 {"id":"d4e7307a-7fc8-4f92-b8e4-7657e2515e3a","lat":35.53755120,"long":139.68929290,"status":"done","name":"南河原公園北側　植込み","address":"幸区都町74番地2","city":"川崎市","number":"23"}, 
 {"id":"d4e80a5d-2acc-49d0-b3c0-7aba3d63072b","lat":35.34812590,"long":139.53913720,"status":"done","name":"大船ライラック公園フェンス","address":"大船五丁目2番","city":"鎌倉市","number":"28-4"}, 
 {"id":"d4e9e6a3-d321-423d-9e3e-d480c9ac4f22","lat":35.33048243,"long":139.63122860,"status":"done","name":"野島公園駅前緑地柵","address":"金沢区平潟町22番","city":"横浜市","number":"10-084"}, 
 {"id":"d4f59e6d-f837-48b1-aca1-06ecd11c2e8e","lat":35.49971980,"long":139.41660190,"status":"done","name":"相武台東小学校西側 フェンス","address":"栗原１３０２番地相武台東小学校西側 フェンス","city":"座間市","number":"127"}, 
 {"id":"d4fc0f8d-0970-40e0-bbe2-1c99cfa0989e","lat":35.52114378,"long":139.62984950,"status":"done","name":"大倉山駅自転車駐車場植込","address":"港北区大倉山一丁目18番","city":"横浜市","number":"11-127"}, 
 {"id":"d4fcd348-4a99-4b8e-b85a-c5d467cd14e8","lat":35.46678581,"long":139.61138350,"status":"done","name":"南軽井沢公園内","address":"西区南軽井沢18番地２","city":"横浜市","number":"03-145"}, 
 {"id":"d4fe7752-62fd-40dd-87fe-4c2dd42e44dd","lat":35.39752392,"long":139.59165910,"status":"done","name":"南台小学校校門横植込","address":"港南区港南五丁目６番","city":"横浜市","number":"06-040"}, 
 {"id":"d50173b3-7700-49fe-870a-4430736b452f","lat":35.48317350,"long":139.44691820,"status":"done","name":"つる・る公園","address":"上草柳8-24","city":"大和市","number":"115"}, 
 {"id":"d503215f-840f-49ac-8445-c55875662910","lat":35.45326910,"long":139.34691440,"status":"done","name":"林大坂上コミュニティパーク","address":"林2-852-3","city":"厚木市","number":"16"}, 
 {"id":"d507e242-a938-468c-869d-2c9ab4accf70","lat":35.44533209,"long":139.61229440,"status":"done","name":"境之谷公園入口右側","address":"西区境之谷105番地１","city":"横浜市","number":"03-081"}, 
 {"id":"d510a743-d540-4d4a-87d7-c4859190b8e0","lat":35.61882050,"long":139.56964980,"status":"done","name":"登戸3号街区公園 東側フェンス","address":"多摩区登戸3269番地","city":"川崎市","number":"39"}, 
 {"id":"d515b791-6dd0-409c-9362-bc8348af2e3c","lat":35.46816903,"long":139.61440360,"status":"done","name":"藤和横浜西口ハイタウン前植込み","address":"西区楠町４番地先","city":"横浜市","number":"03-143"}, 
 {"id":"d51cc650-d98a-4236-acde-c1d0a366e849","lat":35.42037970,"long":139.38094010,"status":"done","name":"社家小学校西側フェンス","address":"社家五丁目10番１号","city":"海老名市","number":"10 - ６"}, 
 {"id":"d51f34c6-a488-48ad-93fe-a772bdb4ea2a","lat":35.39351790,"long":139.59058770,"status":"done","name":"港南六丁目公園鉄柵","address":"港南区港南六丁目31番","city":"横浜市","number":"06-044"}, 
 {"id":"d5201270-31fc-4088-b6f6-3753facf6cc4","lat":35.46630832,"long":139.62068700,"status":"done","name":"横浜高島屋横ガードレール","address":"西区南幸一丁目６番先","city":"横浜市","number":"03-025"}, 
 {"id":"d5202271-1076-44a3-a520-2f5a2d0aef37","lat":35.23993452,"long":139.68728950,"status":"done","name":"佐原4丁目第2公園フェンス","address":"横須賀市佐原4丁目7番","city":"横須賀市","number":"61-3"}, 
 {"id":"d520c9da-a9f8-4df0-92ce-1633b3c072ce","lat":35.50722468,"long":139.62705090,"status":"done","name":"masked","address":"港北区篠原北一丁目17番","city":"横浜市","number":"11-059"}, 
 {"id":"d5270a31-05e3-4fae-9692-aee98cb264c2","lat":35.36014327,"long":139.55654220,"status":"done","name":"バス停「団地下」横空地","address":"栄区公田町1,495番地","city":"横浜市","number":"16-119"}, 
 {"id":"d52db382-2f4a-4edc-a06d-bde000a8a715","lat":35.62578680,"long":139.54615350,"status":"done","name":"masked","address":"多摩区生田1丁目20番1号","city":"川崎市","number":"73"}, 
 {"id":"d5342964-8008-4b15-a0fa-777b376986f6","lat":35.58341730,"long":139.39195210,"status":"done","name":"masked","address":"中央区","city":"相模原市","number":"168"}, 
 {"id":"d53b9d7f-79a6-48ce-b18d-59e9396b55b8","lat":35.31968922,"long":139.62019300,"status":"done","name":"瀬ケ崎小学校正門わきフェンス","address":"金沢区六浦東三丁目２番","city":"横浜市","number":"10-113"}, 
 {"id":"d53e811c-8488-4a9e-aaa0-f2727d19b332","lat":35.37679118,"long":139.57827290,"status":"done","name":"四反田公園南側鉄柵","address":"港南区港南台三丁目８番","city":"横浜市","number":"06-127"}, 
 {"id":"d5468a9c-98cb-44a5-b576-0007c97d72e3","lat":35.37474290,"long":139.21991540,"status":"done","name":"小原地蔵堂前ガードレール (位置情報が見つかりませんでした)","address":"萱蒲1732番","city":"秦野市","number":"257"}, 
 {"id":"d546d04e-b89c-4f77-84b5-f6baf29f2be9","lat":35.20271655,"long":139.13832240,"status":"done","name":"264","address":"根府川１０９","city":"小田原市","number":"264"}, 
 {"id":"d5475008-a7c1-46ed-a1a5-b232c3e4d349","lat":35.48372713,"long":139.54566360,"status":"done","name":"ユーコープ白根店前植栽","address":"旭区白根四丁目32番","city":"横浜市","number":"08-289"}, 
 {"id":"d5510528-f947-48d4-a349-1f220843dc72","lat":35.35153770,"long":139.47949620,"status":"done","name":"白旗廻り公園西側","address":"白旗1丁目2","city":"藤沢市","number":"517"}, 
 {"id":"d558da1d-8e7f-478b-ad56-5e1c4a4882f8","lat":35.43367990,"long":139.40926570,"status":"done","name":"国分寺台緑道（5137番242付近）","address":"国分寺台５丁目5137番242地先（国分寺台5-2-14付近）","city":"海老名市","number":"17 - ７"}, 
 {"id":"d562d9cc-a3b1-4ef4-8bb3-f191f88afea1","lat":35.32540210,"long":139.48741000,"status":"done","name":"桜小路公園北側","address":"鶴沼藤が谷4丁目19","city":"藤沢市","number":"93"}, 
 {"id":"d56833ea-1cbf-4515-8af0-5b146a8c62dd","lat":35.50934006,"long":139.63299210,"status":"done","name":"ＹＭＧ訪問看護ステーション菊名向歩道","address":"港北区菊名四丁目１番","city":"横浜市","number":"11-006"}, 
 {"id":"d57069c8-c0cf-40a2-95e5-8e8635adff96","lat":35.46251090,"long":139.45903350,"status":"done","name":"草柳保育園北側","address":"中央6-8-27","city":"大和市","number":"186"}, 
 {"id":"d5743609-e545-46b4-b3e7-aeb647c83811","lat":35.52201480,"long":139.44305660,"status":"done","name":"213くぬぎ台小学校東側","address":"南区","city":"相模原市","number":"436"}, 
 {"id":"d583008e-5f86-49f3-ba7c-01bcdc929c52","lat":35.58738040,"long":139.31228170,"status":"done","name":"108県営大島団地北側","address":"緑区","city":"相模原市","number":"676"}, 
 {"id":"d58671cb-1965-473e-a581-827f923b202e","lat":35.42460620,"long":139.24900350,"status":"done","name":"市営 大山第二駐車場","address":"大 山 541番地の2","city":"伊勢原市","number":"22"}, 
 {"id":"d588bab4-b7ef-47e0-84cb-07432f8b84f8","lat":35.43608772,"long":139.61520690,"status":"done","name":"フォーラム南太田向","address":"南区南太田一丁目7番20号","city":"横浜市","number":"05-067"}, 
 {"id":"d588e15a-0adf-4263-9fb5-93d6de247a64","lat":35.57320751,"long":139.53072270,"status":"done","name":"すすき野公園","address":"青葉区すすき野一丁目２番地１","city":"横浜市","number":"13-243"}, 
 {"id":"d58979b3-7132-48dc-aeaf-a2d50c3a6197","lat":35.56963260,"long":139.34637990,"status":"done","name":"masked","address":"緑区","city":"相模原市","number":"698"}, 
 {"id":"d58b47fc-606e-430d-b63c-6d3cbaeb1344","lat":35.22993860,"long":139.10631180,"status":"done","name":"湯本幼児学園前","address":"湯本386番地57","city":"箱根町","number":"13"}, 
 {"id":"d590fafc-d8be-4b7f-b197-486e3afc9026","lat":35.46827134,"long":139.50169260,"status":"done","name":"三ツ境駅北口西側連絡歩道橋","address":"瀬谷区三ツ境4番地","city":"横浜市","number":"18-049"}, 
 {"id":"d5928dc1-b58e-454e-a360-ab18fd3a0b38","lat":35.59290270,"long":139.61517410,"status":"done","name":"久本鴨居町公園フェンス","address":"高津区久本2丁目4番","city":"川崎市","number":"75"}, 
 {"id":"d593d022-ebd1-4c56-bc1e-91feaae15b19","lat":35.30317572,"long":139.19004040,"status":"done","name":"187","address":"曽我原２５０","city":"小田原市","number":"187"}, 
 {"id":"d5a29001-adfe-4892-aaf7-f90dd6c1acc9","lat":35.42762601,"long":139.60203970,"status":"done","name":"神奈川県南県税事務所向","address":"南区弘明寺町字北ノ前31番地","city":"横浜市","number":"05-148"}, 
 {"id":"d5aa9829-7249-475e-9d6d-291f6703a1e0","lat":35.39855910,"long":139.31801120,"status":"done","name":"池端三地区自治会館 入口 金網塀","address":"伊勢原一丁目33番 4号","city":"伊勢原市","number":"94"}, 
 {"id":"d5acfec1-e9c6-463c-aa64-05278a4e148e","lat":35.30131800,"long":139.48211240,"status":"done","name":"青少年協会海洋倉庫前歩道植栽","address":"江の島1丁目6","city":"藤沢市","number":"185"}, 
 {"id":"d5b39e4b-6f1d-47f9-9a69-cdb7ee75858a","lat":35.43040573,"long":139.58959640,"status":"done","name":"市営永田山王台住宅南側フェンス取付","address":"南区永田山王台34番","city":"横浜市","number":"05-234"}, 
 {"id":"d5b68bf6-2695-4569-ad5e-315790973caf","lat":35.32041390,"long":139.41297110,"status":"done","name":"東海岸南葵公園 北側フェンス","address":"東海岸南四丁目8978-3","city":"茅ヶ崎市","number":"75"}, 
 {"id":"d5bbe728-0b3f-4ffe-9405-7f753b848fe7","lat":35.42888734,"long":139.56846170,"status":"done","name":"平戸第一公園(ｶﾞｰﾄﾞﾚｰﾙ)","address":"戸塚区平戸五丁目16番","city":"横浜市","number":"15-060"}, 
 {"id":"d5be4d20-8312-411d-b5c3-ccc59eeb8696","lat":35.37189830,"long":139.18347110,"status":"done","name":"渋沢駅南口ロータリー正面東側ポール","address":"曲松1丁目16番","city":"秦野市","number":"230"}, 
 {"id":"d5c1e14c-9054-49bb-838f-07bea8311dbd","lat":35.38195420,"long":139.17410570,"status":"done","name":"masked","address":"堀西702番","city":"秦野市","number":"207"}, 
 {"id":"d5c987f4-1dd6-4985-b7a1-32c550aaa8b1","lat":35.31836686,"long":139.22178819,"status":"done","name":"滝前橋南側","address":"遠藤 158-2","city":"中井町","number":"11"}, 
 {"id":"d5cb4b6f-9c95-4fa6-975c-ccd2e9f9600d","lat":35.59889800,"long":139.62178050,"status":"done","name":"masked","address":"高津区坂戸1丁目11番","city":"川崎市","number":"80"}, 
 {"id":"d5cd5b4e-a903-4944-85df-c77dea0a3b69","lat":35.45405700,"long":139.49198800,"status":"done","name":"道祖神西側の林","address":"瀬谷区宮沢三丁目30番地の4","city":"横浜市","number":"18-106"}, 
 {"id":"d5df168b-4f39-42c8-881c-6c4b230625b2","lat":35.49671901,"long":139.66966780,"status":"done","name":"生麦地区センター入口右側の低いフェンス","address":"鶴見区生麦四丁目６番37号","city":"横浜市","number":"01-294"}, 
 {"id":"d5dff8da-1fdc-49d4-879c-2eba91dd4836","lat":35.34877870,"long":139.52091540,"status":"done","name":"フラワーセンター第二駐車場フェンス","address":"岡本1018番地","city":"鎌倉市","number":"36-5"}, 
 {"id":"d5e1e7b1-353b-4657-8493-c610ed187044","lat":35.32147170,"long":139.26670870,"status":"done","name":"虫窪老人憩の家前","address":"虫窪351-7番地","city":"大磯町","number":"59"}, 
 {"id":"d5eef6dd-febc-4bf3-a40b-ac06413f4375","lat":35.24975469,"long":139.68603750,"status":"done","name":"北久里浜駅前駐輪場フェンス","address":"横須賀市根岸町2丁目29番","city":"横須賀市","number":"39-1"}, 
 {"id":"d5f80601-0407-4c86-82dc-06b2d8d51647","lat":35.50866405,"long":139.53223690,"status":"done","name":"森の台中ノ谷公園鉄柵","address":"緑区森の台４０","city":"横浜市","number":"12-052"}, 
 {"id":"d604d04b-e042-4563-be18-7117363d4715","lat":35.57697580,"long":139.64946360,"status":"done","name":"今井小学校正門横フェンス","address":"中原区今井西町3番18号","city":"川崎市","number":"22"}, 
 {"id":"d60b8ce1-6e2f-4055-baba-b43da9331ebd","lat":35.55187390,"long":139.38125930,"status":"done","name":"72里見公園南側","address":"中央区","city":"相模原市","number":"47"}, 
 {"id":"d60bf23d-2e31-46be-8e21-59ac0f12ca5a","lat":35.14250940,"long":139.09223610,"status":"done","name":"湯河原小学校正門横石垣","address":"宮上11番地","city":"湯河原町","number":"58"}, 
 {"id":"d615507d-2213-46a9-b144-36bba3b1c249","lat":35.42293326,"long":139.49090490,"status":"done","name":"泉中央テニスガーデン向ガードレール","address":"泉区和泉町5,101番地の１","city":"横浜市","number":"17-188"}, 
 {"id":"d61fed17-06f3-4504-946e-3250b25e7ac1","lat":35.40057270,"long":139.41719850,"status":"done","name":"市営古里住宅9号棟東側","address":"打戻1789","city":"藤沢市","number":"431"}, 
 {"id":"d626d7ef-dbce-4430-910f-b29a8a5b177b","lat":35.30292100,"long":139.57705070,"status":"done","name":"久木小学校正門右側","address":"逗子市久木2－1－1","city":"逗子市","number":"8-1"}, 
 {"id":"d63acae8-2cc8-479f-8e8d-b4b7d9fc03ec","lat":35.46174090,"long":139.35119670,"status":"done","name":"井田公園南側フェンス","address":"林5-14","city":"厚木市","number":"14"}, 
 {"id":"d63b868b-5b54-4b2d-8758-31e2b4bcff9e","lat":35.59243650,"long":139.58951050,"status":"done","name":"宮崎台小学校西側ガードレール","address":"宮前区宮崎3丁目18番地2","city":"川崎市","number":"13"}, 
 {"id":"d64cb523-fde5-4a1a-a68c-a2113733ba13","lat":35.58011530,"long":139.55144160,"status":"done","name":"山内公園西側","address":"青葉区美しが丘四丁目18番地","city":"横浜市","number":"13-230"}, 
 {"id":"d64fc9d7-2dfb-4e93-8c2f-8c45fb9ce8dc","lat":35.51926993,"long":139.62583620,"status":"done","name":"大綱小学校前フェンス","address":"港北区大倉山四丁目２番１号","city":"横浜市","number":"11-122"}, 
 {"id":"d65c5478-df98-4f99-a91f-757dfa555d5d","lat":35.41441623,"long":139.48059860,"status":"done","name":"三柱神社入口柵","address":"泉区上飯田町840番地","city":"横浜市","number":"17-109"}, 
 {"id":"d65e4c00-c03b-4de0-bb84-75912c3fec48","lat":35.44228702,"long":139.57392870,"status":"done","name":"権太坂小学校体育館前フェンス","address":"保土ケ谷区権太坂二丁目4番1号","city":"横浜市","number":"07-042"}, 
 {"id":"d6647080-2ebb-47f1-8d99-04b30dff7824","lat":35.53755120,"long":139.68929290,"status":"done","name":"南河原公園西側　フェンス","address":"幸区都町74番地2","city":"川崎市","number":"25"}, 
 {"id":"d6690c30-0bfa-4e0b-8940-3c256765da99","lat":35.46271254,"long":139.53300000,"status":"done","name":"ｾﾝﾄﾗﾙﾌｨｯﾄﾈｽｸﾗﾌﾞ前ﾌｪﾝｽ","address":"旭区二俣川２丁目52番地","city":"横浜市","number":"08-074"}, 
 {"id":"d678355e-d1f0-4770-a957-dd1c86487175","lat":35.36088420,"long":139.26128490,"status":"done","name":"広畑小学校フェンス","address":"下大槻174番地の4","city":"秦野市","number":"139"}, 
 {"id":"d6864472-96b7-41cd-9965-ac0bf248ceaf","lat":35.35149230,"long":139.52322700,"status":"done","name":"たまなわ児童遊園フェンス","address":"玉縄一丁目4番地","city":"鎌倉市","number":"38-4"}, 
 {"id":"d68e0855-630b-4823-8717-9b487b73791e","lat":35.56885671,"long":139.53007210,"status":"done","name":"歩道ガードレール","address":"青葉区鉄町2144番地","city":"横浜市","number":"13-109"}, 
 {"id":"d6a73348-1a76-49e7-b92a-d4cb579101ce","lat":35.46754430,"long":139.47328880,"status":"done","name":"かしま2号公園南側","address":"深見3207","city":"大和市","number":"170"}, 
 {"id":"d6aa826d-29c8-4e23-aace-dd392e2e2544","lat":35.40354522,"long":139.48374510,"status":"done","name":"地下鉄下飯田駅改札口前フェンス","address":"泉区ゆめが丘59番地の１","city":"横浜市","number":"17-170"}, 
 {"id":"d6b13098-cd0a-4a37-abef-ced645afe6b9","lat":35.37062175,"long":139.54072220,"status":"done","name":"飯島東幼稚園グラウンド向い道路際ガードレール","address":"栄区飯島町2,162番地","city":"横浜市","number":"16-045"}, 
 {"id":"d6b6afd8-d8c5-47f6-ba35-e57275f9539c","lat":35.44308222,"long":139.61515870,"status":"done","name":"三春台公園西側","address":"南区三春台107番地1","city":"横浜市","number":"05-077"}, 
 {"id":"d6c09869-b882-4ff8-b1dc-fab3d7d6f83a","lat":35.42641522,"long":139.59806800,"status":"done","name":"弘明寺北ノ前公園東側","address":"南区弘明寺町字山下105番地","city":"横浜市","number":"05-152"}, 
 {"id":"d6ce714e-3fdc-4a2a-874f-c860e6703e1b","lat":35.35396020,"long":139.28640410,"status":"done","name":"市道脇","address":"南金目1837","city":"平塚市","number":"38ー6"}, 
 {"id":"d6d5bffa-d211-4b1c-a80b-5d00cc70c0d9","lat":35.42002998,"long":139.61014970,"status":"done","name":"岡村三殿台公園北側鉄柵","address":"磯子区岡村四丁目17番","city":"横浜市","number":"09-043"}, 
 {"id":"d6d96543-68fa-4e7b-bbfc-e3e4e6237955","lat":35.41258834,"long":139.49212060,"status":"done","name":"和泉町第三公園鉄柵","address":"泉区和泉中央南三丁目21番","city":"横浜市","number":"17-111"}, 
 {"id":"d6ed5514-83cc-40e1-b749-6c577199fe6e","lat":35.39664062,"long":139.59228730,"status":"done","name":"南台小学校体育館前ガードレール","address":"港南区港南五丁目６番","city":"横浜市","number":"06-042"}, 
 {"id":"d6f1191f-8f0c-4ac2-acca-4e15f8c1142f","lat":35.34469610,"long":139.32782430,"status":"done","name":"市立ひばり幼稚園東側","address":"御殿二丁目17－5","city":"平塚市","number":"19ー2"}, 
 {"id":"d6f579dc-2ac7-412d-babb-7f790b6ddcf3","lat":35.49745710,"long":139.53985340,"status":"done","name":"上白根長坂公園柵","address":"旭区上白根三丁目39番","city":"横浜市","number":"08-254"}, 
 {"id":"d6f6dcfe-519b-4d44-a27a-1a61613ad8a4","lat":35.34122740,"long":139.53592740,"status":"done","name":"文化財課分室フェンス 北側","address":"台五丁目9番59号","city":"鎌倉市","number":"27-7"}, 
 {"id":"d6fc8683-0175-4c46-ba6a-de1a25660dce","lat":35.36600970,"long":139.06596700,"status":"done","name":"カトウ物産前ガードレール","address":"山北3502番地","city":"山北町","number":"50"}, 
 {"id":"d6fda197-6445-4ae8-bdf5-770b737d9dee","lat":35.54504340,"long":139.43182740,"status":"done","name":"55柏木第２公園","address":"南区","city":"相模原市","number":"322"}, 
 {"id":"d6fe8b12-8393-4390-85b1-e1c34ec134da","lat":35.48877190,"long":139.64046560,"status":"done","name":"駐車場ブロック塀","address":"神奈川区白幡仲町48番12号","city":"横浜市","number":"02-171"}, 
 {"id":"d70ce843-5924-4bfb-ba12-07a3ec25169d","lat":35.53916270,"long":139.53101710,"status":"done","name":"千草台第二公園南西側","address":"青葉区千草台27番地","city":"横浜市","number":"13-090"}, 
 {"id":"d70f06ba-aec4-423b-a7c9-8fe723adefcc","lat":35.48660338,"long":139.55516320,"status":"done","name":"横浜商科大学高校芸術館  外塀","address":"保土ケ谷区新井町610番地","city":"横浜市","number":"07-251"}, 
 {"id":"d7113b61-a65e-4566-b190-dc1d68013a77","lat":35.28490125,"long":139.19408190,"status":"done","name":"228","address":"田島５１−８","city":"小田原市","number":"228"}, 
 {"id":"d7177f4a-7394-4b30-afa2-02644f672253","lat":35.63388660,"long":139.52887460,"status":"done","name":"京王稲田堤駅周辺自転車等駐車場第２施設フェンス","address":"多摩区菅3丁目3番","city":"川崎市","number":"94"}, 
 {"id":"d717bc67-b819-4524-9648-1aa8f15f1d3e","lat":35.50210434,"long":139.67667670,"status":"done","name":"臨港鶴見川橋手前フェンス","address":"鶴見区鶴見中央五丁目13番","city":"横浜市","number":"01-314"}, 
 {"id":"d725b9f4-55e3-4c7c-8266-ccb9a839db6c","lat":35.27235026,"long":139.67201580,"status":"done","name":"佐野ビル前坂下ガードフェンス","address":"横須賀市深田台73番地","city":"横須賀市","number":"23-4"}, 
 {"id":"d727f9eb-fe2f-4570-b2d9-97b562a023f0","lat":35.44123580,"long":139.35799460,"status":"done","name":"マンマパスタ本厚木店北側フェンス","address":"栄町1-7-11","city":"厚木市","number":"40"}, 
 {"id":"d72adb27-0550-47ed-987d-2ffb34b95a84","lat":35.32422300,"long":139.12277330,"status":"done","name":"宮台老人憩の家前","address":"宮台 135番地","city":"開成町","number":"34"}, 
 {"id":"d739b2b4-0ebc-4003-9efa-a1fbf9b72f51","lat":35.59302260,"long":139.14976680,"status":"done","name":"483創和建設㈱向い畑","address":"緑区","city":"相模原市","number":"927"}, 
 {"id":"d73b41e1-6a80-488b-bd13-ff976f1ef132","lat":35.31644380,"long":139.57654310,"status":"done","name":"（仮称）浄明寺緑地前[ハイランド坂下バス停前緑地]","address":"浄明寺六丁目2番","city":"鎌倉市","number":"1-6"}, 
 {"id":"d73d8120-8116-42e7-bc2d-e1bcb4b28d49","lat":35.43323340,"long":139.36182470,"status":"done","name":"サン・グリーンエリア南側フェンス","address":"旭町5-38","city":"厚木市","number":"16"}, 
 {"id":"d73ef1c9-fc4b-4df5-9695-8a704e36381a","lat":35.42884330,"long":139.50772570,"status":"done","name":"弥生台北公園フェンス内側","address":"泉区弥生台21番地","city":"横浜市","number":"17-032"}, 
 {"id":"d7444bbc-e36c-4822-a172-c915a3c58db8","lat":35.25370788,"long":139.16842100,"status":"done","name":"19","address":"浜町４丁目２１−１０ 万年公園","city":"小田原市","number":"19"}, 
 {"id":"d74474b6-d607-449e-8d78-bb7f30f330a5","lat":35.63032490,"long":139.54470670,"status":"done","name":"ニヶ領用水柵（中の島橋横）","address":"多摩区菅馬場1丁目19番","city":"川崎市","number":"75"}, 
 {"id":"d7483aa9-5ebd-4114-ac3e-8f0b5974b13f","lat":35.39516824,"long":139.61222510,"status":"done","name":"消防庫前ガードパイプ","address":"磯子区森二丁目19番","city":"横浜市","number":"09-247"}, 
 {"id":"d74aae2b-d593-488a-954b-e6ff77f19489","lat":35.39721062,"long":139.51736420,"status":"done","name":"汲沢町第二公園","address":"戸塚区汲沢町1411番地の15","city":"横浜市","number":"15-197"}, 
 {"id":"d74dad3f-adca-497e-8176-5f3295ae00d4","lat":35.25901437,"long":139.66846430,"status":"done","name":"宇東川緑道植込み","address":"横須賀市佐野町5丁目14番地","city":"横須賀市","number":"28-4"}, 
 {"id":"d75c2dbe-ce10-4ce6-91f1-d6c1f7b06801","lat":35.40211761,"long":139.52265670,"status":"done","name":"戸塚町北公園（ﾌｪﾝｽ取付）","address":"戸塚区戸塚町4536番地","city":"横浜市","number":"15-200"}, 
 {"id":"d75c95ac-7d7b-4b0d-aa5e-5024ce0df066","lat":35.63103190,"long":139.54866400,"status":"done","name":"新多摩川ハイム入口フェンス","address":"多摩区中野島6丁目29番","city":"川崎市","number":"185"}, 
 {"id":"d75db114-a5d9-4ac3-92e1-1a66fd906ff4","lat":35.27959104,"long":139.67319290,"status":"done","name":"東京ガス㈱駐車場コンクリート塀","address":"横須賀市若松町1丁目21番地","city":"横須賀市","number":"16-9"}, 
 {"id":"d778f4f5-ed0b-45e7-85ee-c4dc6bd36705","lat":35.19031040,"long":139.65683390,"status":"done","name":"芙蓉ハイツ脇芝原公園入口脇ガードフェンス","address":"南下浦町上宮田1205番地2","city":"三浦市","number":"62"}, 
 {"id":"d780ba66-ccc5-4428-bb8a-4d2a71bccb46","lat":35.53283010,"long":139.74596310,"status":"done","name":"出来野公園北側フェンス","address":"川崎区日ノ出2丁目17番3号","city":"川崎市","number":"198"}, 
 {"id":"d7830cd0-6119-4146-9b0f-76fe56251058","lat":35.56984710,"long":139.36779660,"status":"done","name":"122中央５丁目公園","address":"中央区","city":"相模原市","number":"84"}, 
 {"id":"d78728a9-74c7-470d-b553-deb90a07f65b","lat":35.51300800,"long":139.35554500,"status":"done","name":"藤塚みどり公園西側植栽","address":"上依知3001-4","city":"厚木市","number":"46"}, 
 {"id":"d7933c43-2dab-4929-a824-41f07ab73243","lat":35.42165876,"long":139.66002360,"status":"done","name":"新本牧公園植込み","address":"中区本牧和田20","city":"横浜市","number":"04-159"}, 
 {"id":"d79d7925-ea2e-44b8-95f1-263b9ddaba6c","lat":35.53228470,"long":139.62988680,"status":"done","name":"大曽根小学校裏門脇ブロック塀","address":"港北区大曽根二丁目31番１号","city":"横浜市","number":"11-149"}, 
 {"id":"d79dc61c-b063-4d6e-b73c-8fc60ef550f4","lat":35.39774740,"long":139.41626840,"status":"done","name":"用田打戻線沿空地(少年の森グラウンド入口)","address":"打戻2402","city":"藤沢市","number":"424"}, 
 {"id":"d79f5576-e11f-4a74-bd45-87cac1284d75","lat":35.54751240,"long":139.66293640,"status":"done","name":"夢見ヶ崎小学校　北側フェンス","address":"幸区南加瀬2丁目13番1号","city":"川崎市","number":"133"}, 
 {"id":"d7a5141e-bd15-4e9a-86b9-e23035d2b570","lat":35.50375810,"long":139.45740470,"status":"done","name":"つきみ野11号公園東側","address":"つきみ野1-5","city":"大和市","number":"54"}, 
 {"id":"d7a801b2-3138-4fb3-a358-56389329d122","lat":35.60044600,"long":139.50620780,"status":"done","name":"山口睦歩道橋　東側交差点植込み","address":"麻生区上麻生3丁目2番","city":"川崎市","number":"51"}, 
 {"id":"d7ae23e1-6d55-4bef-859a-e6acec166a9e","lat":35.45643402,"long":139.50947170,"status":"done","name":"南希望が丘中学校プール側フェンス","address":"旭区南希望が丘108番地","city":"横浜市","number":"08-105"}, 
 {"id":"d7b3d17a-d16e-4f2b-8d29-d69c7137a34e","lat":35.41581387,"long":139.52170340,"status":"done","name":"領家中学校正門横ガードレール","address":"泉区領家四丁目３番地の１","city":"横浜市","number":"17-063"}, 
 {"id":"d7ba654b-7541-4dd2-a855-7f56e31a993e","lat":35.35797310,"long":139.22523800,"status":"done","name":"秦野総合高校北側交差点北側","address":"南が丘1丁目1番地内","city":"秦野市","number":"78"}, 
 {"id":"d7bf253d-66c1-47e3-9bf2-18718c075aec","lat":35.15113820,"long":139.12270420,"status":"done","name":"小道地蔵堂西側塀","address":"吉浜1番地","city":"湯河原町","number":"13"}, 
 {"id":"d7c5118d-059a-4acf-9a00-206c57918fac","lat":35.24641400,"long":139.70179200,"status":"done","name":"吉井高区ポンプ所入口横道路フェンス","address":"横須賀市吉井2丁目7番","city":"横須賀市","number":"46-4"}, 
 {"id":"d7ca67ec-8b8e-4e3d-925e-ace9b375558b","lat":35.58945430,"long":139.28727560,"status":"done","name":"202中沢中学校国道側フェンス","address":"緑区","city":"相模原市","number":"744"}, 
 {"id":"d7cdeec7-b8fc-4526-801a-6b32a1e634b1","lat":35.33725990,"long":139.40467340,"status":"done","name":"北茅ヶ崎駅前市民臨時自転車置場 西側","address":"茅ヶ崎543番地2","city":"茅ヶ崎市","number":"101"}, 
 {"id":"d7cfb888-8de1-40a9-8754-9f678b300e8a","lat":35.25232548,"long":139.71944020,"status":"done","name":"masked","address":"横須賀市二葉1丁目17番11号","city":"横須賀市","number":"49-4"}, 
 {"id":"d7dd9ff8-9304-4d2c-b156-c956db46c0e0","lat":35.48072320,"long":139.43342290,"status":"done","name":"ひばりが丘第３公園西側植込み（野立て）","address":"ひばりが丘３丁目５７番ひばりが丘第３公園西側植込み（野立て）","city":"座間市","number":"103"}, 
 {"id":"d7e37ffb-0d75-45c3-b3b5-0ff433f9903e","lat":35.21268228,"long":139.71074360,"status":"done","name":"千駄ヶ崎バス停前路上","address":"横須賀市野比5丁目8番","city":"横須賀市","number":"69-5"}, 
 {"id":"d7e49864-e2d9-45cc-a685-a1a445ae1e77","lat":35.34408122,"long":139.64266830,"status":"done","name":"柴団地集会所フェンス","address":"金沢区柴町367番地１","city":"横浜市","number":"10-212"}, 
 {"id":"d7e644e1-f300-4715-b804-e52df0c88139","lat":35.33024830,"long":139.42773580,"status":"done","name":"住宅 西側生垣","address":"美住町13番48号","city":"茅ヶ崎市","number":"210"}, 
 {"id":"d7f4fb8a-baf4-47c3-b5c6-8e3185618dbd","lat":35.44415010,"long":139.30620170,"status":"done","name":"森の里小学校正門横フェンス","address":"森の里1-27-1","city":"厚木市","number":"31"}, 
 {"id":"d7f6dc25-9dde-4805-9869-1c9b4d1bddf7","lat":35.16070530,"long":139.10807000,"status":"done","name":"五郎神社フェンス","address":"鍛冶屋726番地の1","city":"湯河原町","number":"25"}, 
 {"id":"d7fc7343-3e04-42c8-95c5-76678e6bae13","lat":35.51876560,"long":139.44004310,"status":"done","name":"206林間白笹公園","address":"南区","city":"相模原市","number":"431"}, 
 {"id":"d800c611-f82e-44cd-9a23-0e50dab03414","lat":35.45781129,"long":139.59041460,"status":"done","name":"コンフォール明神台２-７号棟前丁字路ガードレール","address":"保土ケ谷区明神台49番","city":"横浜市","number":"07-163"}, 
 {"id":"d8050674-0bf0-4b13-b829-c3ce53fa7ab3","lat":35.36390390,"long":139.22713730,"status":"done","name":"秦野駅南口西側階段前フェンス","address":"尾尻957番1","city":"秦野市","number":"69"}, 
 {"id":"d805596a-84a9-444c-b997-263f02e6d0c2","lat":35.52578590,"long":139.69126710,"status":"done","name":"昭和薬品工業(株)入口左側コンクリート塀","address":"川崎区堤根37番地","city":"川崎市","number":"40"}, 
 {"id":"d8063136-225b-4b02-a954-15ab8c69c41b","lat":35.43102015,"long":139.54885360,"status":"done","name":"川上第一団地６号棟横下の土手","address":"戸塚区川上町497番地","city":"横浜市","number":"15-018"}, 
 {"id":"d8083aa1-46ae-4b82-92f0-585fb8b07149","lat":35.57037300,"long":139.35003270,"status":"done","name":"134作の口小学校屋内運動場前","address":"緑区","city":"相模原市","number":"696"}, 
 {"id":"d80c8adc-d121-4e90-bb4d-b893074398e3","lat":35.53797030,"long":139.39903070,"status":"done","name":"312麻溝台高校正門横","address":"南区","city":"相模原市","number":"512"}, 
 {"id":"d81282da-83a4-478b-9ff2-c0b2f9f65a0c","lat":35.28817545,"long":139.17770450,"status":"done","name":"155","address":"矢作１８２","city":"小田原市","number":"155"}, 
 {"id":"d81a940d-77b1-4d8a-9344-a4af210e28bb","lat":35.40249810,"long":139.14290020,"status":"done","name":"土佐原公民館横","address":"寄 2867 番地","city":"松田町","number":"55"}, 
 {"id":"d8269a77-c8ae-4b32-af7e-f272c6be0d34","lat":35.35354032,"long":139.58178480,"status":"done","name":"雨水調整池フェンス","address":"栄区庄戸一丁目6番","city":"横浜市","number":"16-161"}, 
 {"id":"d82aba64-6017-49ef-8a8d-1b7227c89fb5","lat":35.53109680,"long":139.72583330,"status":"done","name":"川中島小学校北側フェンス","address":"川崎区川中島2丁目4番19号","city":"川崎市","number":"178"}, 
 {"id":"d82e9546-f515-4ba4-a297-ad8a46a8a8fd","lat":35.27952482,"long":139.14743850,"status":"done","name":"317","address":null,"city":"小田原市","number":"317"}, 
 {"id":"d83239ce-5709-4002-8df8-d75f063f3d3e","lat":35.29233980,"long":139.58365680,"status":"done","name":"エステサロンエスパシオ向い","address":"逗子市桜山7－10－12","city":"逗子市","number":"2-4"}, 
 {"id":"d8369ada-1a83-4ab3-8564-d4880aed2c2d","lat":35.27951885,"long":139.15178800,"status":"done","name":"321","address":null,"city":"小田原市","number":"321"}, 
 {"id":"d8398bb2-22fa-4eb5-93b2-988c5e03cf36","lat":35.32786350,"long":139.37293060,"status":"done","name":"中島親水公園 南側 西端","address":"中島984番地","city":"茅ヶ崎市","number":"133"}, 
 {"id":"d83f088f-933d-420b-a39c-de610c842996","lat":35.43348184,"long":139.66370810,"status":"done","name":"小港歩道橋脇ガードレール","address":"中区小港町１−１−２","city":"横浜市","number":"04-134"}, 
 {"id":"d83ff0ea-36ea-4110-86f6-ba4ee0be6135","lat":35.41344808,"long":139.49974640,"status":"done","name":"イトーヨーカドー横ガードパイプ","address":"泉区中田西一丁目１番","city":"横浜市","number":"17-120"}, 
 {"id":"d840de2e-7a21-4de8-83e7-ea898c9be84e","lat":35.32997610,"long":139.51792630,"status":"done","name":"神奈川スバルフェンス","address":"笛田三丁目1番33号","city":"鎌倉市","number":"21-2"}, 
 {"id":"d8494543-8538-4216-9eab-f50f40c70879","lat":35.53211130,"long":139.43715150,"status":"done","name":"134相模大野駅北口デッキ東側防護柵","address":"南区","city":"相模原市","number":"377"}, 
 {"id":"d8587d0c-f354-495f-8a36-c47d29f01858","lat":35.15527090,"long":139.10963040,"status":"done","name":"masked","address":"鍛冶屋464番地","city":"湯河原町","number":"26"}, 
 {"id":"d8652f0e-b7aa-4b55-b5f6-2dae26ce3e13","lat":35.42369918,"long":139.60438490,"status":"done","name":"大岡健康プラザ西側","address":"南区大岡一丁目14番1号","city":"横浜市","number":"05-153"}, 
 {"id":"d86abc3c-2a1c-4e0a-bb3f-b70127ff9f6a","lat":35.32698940,"long":139.35151040,"status":"done","name":"駅南口広場駐輪場東側フェンス","address":"八重咲町2","city":"平塚市","number":"6ー3"}, 
 {"id":"d86c3d58-83e3-4f88-b3ee-5bbd1e625cca","lat":35.23863304,"long":139.14639220,"status":"done","name":"359","address":null,"city":"小田原市","number":"359"}, 
 {"id":"d86dcfb8-7b79-4e42-bf66-7d6d05332920","lat":35.52231040,"long":139.69193510,"status":"done","name":"池田町公園西側フェンス","address":"川崎区池田1丁目13番","city":"川崎市","number":"35"}, 
 {"id":"d86ea2c9-6313-4074-8dc0-f58a4d70f3b2","lat":35.57123400,"long":139.62263800,"status":"done","name":"市営久末表B住宅2号棟前植え込み (位置情報が見つかりませんでした)","address":"高津区久末1938番地1","city":"川崎市","number":"187"}, 
 {"id":"d877691a-fa9f-4597-a800-764d6e3b49e6","lat":35.45108290,"long":139.34382180,"status":"done","name":"緑ヶ丘南公園北側植裁","address":"緑ヶ丘1-16","city":"厚木市","number":"18"}, 
 {"id":"d87a87fc-c313-4ca1-9798-ab825709ee25","lat":35.41228460,"long":139.42700090,"status":"done","name":"住宅ブロック塀","address":"葛原300-2","city":"藤沢市","number":"407"}, 
 {"id":"d87a8bf0-aca6-4db5-8754-0d68972bc45b","lat":35.59633930,"long":139.30557850,"status":"done","name":"172甘草塚自転車駐輪場フェンス","address":"緑区","city":"相模原市","number":"723"}, 
 {"id":"d880908c-3575-4ae0-ae95-c0c681587148","lat":35.35375723,"long":139.62774150,"status":"done","name":"片吹歩道橋連絡口わき","address":"金沢区片吹１番","city":"横浜市","number":"10-060"}, 
 {"id":"d882c418-1972-4a99-bfe0-3bc94c878076","lat":35.53457610,"long":139.41909510,"status":"done","name":"83若松６丁目公園","address":"南区","city":"相模原市","number":"342"}, 
 {"id":"d8855a69-ae63-4efc-ae88-b60ac95acc68","lat":35.46927200,"long":139.49973600,"status":"done","name":"市営楽老ハイツ２０号棟東側植込","address":"瀬谷区二ツ橋町215番地","city":"横浜市","number":"18-043"}, 
 {"id":"d8868e5e-ecb4-4d47-a476-fa61ca898111","lat":35.50701077,"long":139.68980280,"status":"done","name":"潮田小北側裏門右側植え込み","address":"鶴見区向井町３丁目82番地の１","city":"横浜市","number":"01-084"}, 
 {"id":"d88d2061-5f24-450d-abe6-a3231216d2a3","lat":35.33930930,"long":139.39438090,"status":"done","name":"住宅 南側ブロック塀 中央","address":"矢畑115番地","city":"茅ヶ崎市","number":"107"}, 
 {"id":"d89006c2-26c1-44ee-8c40-b490acace074","lat":35.61600130,"long":139.56229420,"status":"done","name":"追分橋ガードレール","address":"多摩区東生田1丁目1番","city":"川崎市","number":"107"}, 
 {"id":"d8980c91-c247-43f2-bb0f-8286eebefe1e","lat":35.46842840,"long":139.38847840,"status":"done","name":"masked","address":"下今泉三丁目３番37号","city":"海老名市","number":"９ - ３"}, 
 {"id":"d898a5e4-151e-4848-90bd-157ee42b9ff7","lat":35.46286322,"long":139.61643560,"status":"done","name":"横浜岡野町ビル前ガードレール","address":"西区岡野一丁目９番先","city":"横浜市","number":"03-148"}, 
 {"id":"d89f4b1b-ee02-45b3-ab29-6bf5069154ff","lat":35.46126079,"long":139.58599730,"status":"done","name":"コンフォール仏向町１号棟前歩道植込み","address":"保土ケ谷区仏向町845番地の1","city":"横浜市","number":"07-154"}, 
 {"id":"d8a431e2-81e8-42e2-9b41-b103d61caebc","lat":35.43020991,"long":139.65567910,"status":"done","name":"本郷町ガス山公園ガス山通り側鉄柵横","address":"中区本郷町３−208","city":"横浜市","number":"04-117"}, 
 {"id":"d8a53726-eefb-4e3e-9c80-bc96196f13aa","lat":35.52975199,"long":139.63065420,"status":"done","name":"大曽根第五公園内植込","address":"港北区大曽根二丁目25番","city":"横浜市","number":"11-150"}, 
 {"id":"d8b56dfe-5b0e-4601-bcd6-6f65704c2657","lat":35.23466290,"long":139.67200900,"status":"done","name":"駐車場前道路フェンス","address":"横須賀市大矢部4丁目26番12号","city":"横須賀市","number":"59-3"}, 
 {"id":"d8bf6ce2-fd76-4363-b354-8ee545c50e2a","lat":35.35567650,"long":139.35213210,"status":"done","name":"真土東公園西側","address":"東真土一丁目10－51","city":"平塚市","number":"48ー7"}, 
 {"id":"d8c34f27-17cb-489c-9aae-494f485377f8","lat":35.47655408,"long":139.61388550,"status":"done","name":"歩道植込","address":"神奈川区三ツ沢下町10番39号先","city":"横浜市","number":"02-155"}, 
 {"id":"d8c54703-f769-4227-b577-3abbe388d0f8","lat":35.39666615,"long":139.57343120,"status":"done","name":"市営野庭住宅J-１号棟前ガードレール","address":"港南区野庭町600番地","city":"横浜市","number":"06-156"}, 
 {"id":"d8ca0ee9-25be-45e0-b626-faf2de14b6ba","lat":35.39387901,"long":139.55929050,"status":"done","name":"日限山小学校西側校門横金網","address":"港南区日限山二丁目16番１号","city":"横浜市","number":"06-259"}, 
 {"id":"d8cbc91d-0fa0-4479-bf8b-4206bf8c3b13","lat":35.44822069,"long":139.57976340,"status":"done","name":"初音ケ丘住宅公園内植込み","address":"保土ケ谷区初音ケ丘41番","city":"横浜市","number":"07-021"}, 
 {"id":"d8d31aaa-295c-4cd0-a9ca-12247465738e","lat":35.44601270,"long":139.48261710,"status":"done","name":"日向山公園鉄柵","address":"泉区上飯田町4,680番地","city":"横浜市","number":"17-015"}, 
 {"id":"d8d561ac-f3b8-469f-a713-7749f3acc865","lat":35.32684640,"long":139.39183530,"status":"done","name":"御霊神社 鳥居北側生垣","address":"南湖二丁目9番10号","city":"茅ヶ崎市","number":"35"}, 
 {"id":"d8df4acd-0d57-495a-ab41-59d8b2fbb2f0","lat":35.57023820,"long":139.64736130,"status":"done","name":"歩道植込み","address":"中原区井田三舞町8番","city":"川崎市","number":"215"}, 
 {"id":"d8e3f6a4-33ba-428b-a567-c518008816ec","lat":35.37374120,"long":139.26336300,"status":"done","name":"masked","address":"北矢名1257番","city":"秦野市","number":"162"}, 
 {"id":"d8e60283-6cec-4d90-8002-0d06c94e5c1d","lat":35.38927400,"long":139.43199600,"status":"done","name":"SFCバス停前","address":"遠藤4239-1","city":"藤沢市","number":"455"}, 
 {"id":"d8e9d6db-c7af-4930-bc94-e09b96d097a1","lat":35.29714970,"long":139.59436220,"status":"done","name":"セブンイレブン西側（逗子警察署前バス停）","address":"逗子市桜山3－4－37","city":"逗子市","number":"3-6"}, 
 {"id":"d8ea10bb-c5e2-4b8c-9af8-6b55d483a542","lat":35.46979744,"long":139.61656070,"status":"done","name":"沢渡第二公園","address":"神奈川区台町18番地７","city":"横浜市","number":"02-140"}, 
 {"id":"d8ebd767-260b-4f1b-88a8-6218cf84f0a2","lat":35.51644774,"long":139.67504400,"status":"done","name":"レーベンハイムヤマダ前森永製菓フェンス","address":"鶴見区下末吉二丁目１番１号","city":"横浜市","number":"01-139"}, 
 {"id":"d8f2e96d-ff36-49e7-ada0-5a428640a763","lat":35.54306320,"long":139.13282320,"status":"done","name":"masked","address":"緑区","city":"相模原市","number":"859"}, 
 {"id":"d8f2fa77-48d3-4e30-a70c-804055350250","lat":35.31157450,"long":139.49290730,"status":"done","name":"masked","address":"腰越五丁目6番5号","city":"鎌倉市","number":"15-7"}, 
 {"id":"d8f5df7d-89a3-46c6-b705-a482e5a213e1","lat":35.38058350,"long":139.17784220,"status":"done","name":"西小学校裏門横フェンス","address":"並木町8番1号","city":"秦野市","number":"209"}, 
 {"id":"d8fad92f-1b15-46e1-996f-a51653331329","lat":35.37152456,"long":139.57858960,"status":"done","name":"港南台第二小学校校門横金網","address":"港南区港南台五丁目４番","city":"横浜市","number":"06-114"}, 
 {"id":"d8fc9208-2a96-4f39-a568-ccd0de1aec1e","lat":35.48020507,"long":139.58201290,"status":"done","name":"歩道植込","address":"神奈川区羽沢南四丁目11番先","city":"横浜市","number":"02-286"}, 
 {"id":"d8fd568e-26b0-4c51-ab81-095cb66f6eae","lat":35.51435833,"long":139.50441650,"status":"done","name":"グリーンタウン24-５号棟向かい空地フェンス","address":"緑区霧が丘五丁目２２−２","city":"横浜市","number":"12-090"}, 
 {"id":"d9004b02-5c26-4d00-82d5-3479fdfc8569","lat":35.54849520,"long":139.38749600,"status":"done","name":"85そらの広場前","address":"中央区","city":"相模原市","number":"57"}, 
 {"id":"d90cc747-c9b9-4752-b328-de2bb209c29b","lat":35.46133254,"long":139.51416870,"status":"done","name":"東希望が丘第四公園フェンス","address":"旭区東希望が丘106番地","city":"横浜市","number":"08-133"}, 
 {"id":"d90d4389-321c-4d00-943c-df3c2d6a2292","lat":35.29352210,"long":139.61763760,"status":"done","name":"グリーンヒル・バス停前","address":"逗子市沼間5－7－7前","city":"逗子市","number":"5-5"}, 
 {"id":"d91626cc-7ff5-458b-accc-c687e566816e","lat":35.32419220,"long":139.34494460,"status":"done","name":"羽衣公園西側","address":"桃浜町13","city":"平塚市","number":"5ー1"}, 
 {"id":"d9164ad6-08fc-471b-9f00-06fb5704e334","lat":35.24334700,"long":139.05742880,"status":"done","name":"恵明学園正門付近","address":"宮ノ下413番地","city":"箱根町","number":"24"}, 
 {"id":"d9165ec6-b19b-42bf-9cf1-39cd44a3cfbd","lat":35.57867913,"long":139.52997910,"status":"done","name":"旧すすき野小学校西側ガードレール","address":"青葉区すすき野三丁目４番地１","city":"横浜市","number":"13-235"}, 
 {"id":"d916af8d-dfab-49e7-a9b4-06c7fcf10b6c","lat":35.44587050,"long":139.32690420,"status":"done","name":"愛名老人憩の家東側フェンス","address":"愛名52-1","city":"厚木市","number":"16"}, 
 {"id":"d91920d6-698d-4dbe-be0c-2497efc43949","lat":35.42316787,"long":139.54367630,"status":"done","name":"秋葉第一公園土手","address":"戸塚区秋葉町242番地","city":"横浜市","number":"15-091"}, 
 {"id":"d92054a2-09d0-453c-9f22-b658fb07e8f7","lat":35.33905183,"long":139.60292990,"status":"done","name":"沢木谷第二公園","address":"金沢区釜利谷南四丁目19番","city":"横浜市","number":"10-234"}, 
 {"id":"d9281aa8-2377-471f-9775-b445618b3bc8","lat":35.29764803,"long":139.13135520,"status":"done","name":"69","address":null,"city":"南足柄市","number":"69"}, 
 {"id":"d93e946d-ced8-4bc1-ab6f-95acb99dea9d","lat":35.31026490,"long":139.24043360,"status":"done","name":"百合が丘清水公園南側","address":"百合が丘2-6","city":"二宮町","number":"32"}, 
 {"id":"d93f0433-e557-4637-badb-4ecb584d9c21","lat":35.50785172,"long":139.67488120,"status":"done","name":"鶴見駅西口バスターミナル６番乗り場前植え込み","address":"鶴見区豊岡町２番１号","city":"横浜市","number":"01-127"}, 
 {"id":"d943f8ac-7009-4c9b-b818-c00dcf10348c","lat":35.36066391,"long":139.53352550,"status":"done","name":"ガーデンアソシエクラブアリーナ前","address":"栄区笠間三丁目45番","city":"横浜市","number":"16-196"}, 
 {"id":"d9465ec4-4b06-451d-ac8b-a66404f0bd99","lat":35.48871980,"long":139.41157830,"status":"done","name":"緑ケ丘第３公園南側（野立て）","address":"緑ケ丘２丁目１４番緑ケ丘第３公園南側（野立て）","city":"座間市","number":"112"}, 
 {"id":"d94d13b5-7c9e-4efa-83e1-74df16297c2f","lat":35.45068650,"long":139.34231520,"status":"done","name":"緑ヶ丘2丁目芝公園南側","address":"緑ヶ丘2-12","city":"厚木市","number":"17"}, 
 {"id":"d950afd4-dbb7-4787-a036-806578a3f4cd","lat":35.39379910,"long":139.20494080,"status":"done","name":"関野酒店東側ガードレール","address":"羽根501番","city":"秦野市","number":"111"}, 
 {"id":"d960de5c-e421-4cf2-9146-7a37b7c68d84","lat":35.40367748,"long":139.61123740,"status":"done","name":"汐見台団地1601号棟横歩道際","address":"磯子区汐見台１丁目６番地","city":"横浜市","number":"09-091"}, 
 {"id":"d963e075-e633-486d-b7a3-459ee2e3d12d","lat":35.50928340,"long":139.44698690,"status":"done","name":"コナミスポーツクラブ駐車場西側","address":"中央林間6-6","city":"大和市","number":"19"}, 
 {"id":"d96e73d9-7a3f-471b-856d-5b7a00e50d57","lat":35.56893858,"long":139.55344920,"status":"done","name":"あざみ野駅北側交差点東側ガードパイプ","address":"青葉区あざみ野二丁目１番地５","city":"横浜市","number":"13-181"}, 
 {"id":"d978eca2-3a94-4331-8c20-f172ae332b50","lat":35.49262813,"long":139.51046650,"status":"done","name":"五反田橋歩道橋側欄干","address":"旭区川井本町103番地","city":"横浜市","number":"08-028"}, 
 {"id":"d9796b5d-eb98-4e5c-9711-dcd56a756c16","lat":35.44630267,"long":139.59554240,"status":"done","name":"霞台第二公園フェンス","address":"保土ケ谷区霞台1番","city":"横浜市","number":"07-007"}, 
 {"id":"d9827b8f-6752-4ce2-862c-b2544b92f444","lat":35.53796790,"long":139.41903370,"status":"done","name":"81大沼小学校南側","address":"南区","city":"相模原市","number":"340"}, 
 {"id":"d987dd21-791b-4d30-abcd-17fc30e3b27b","lat":35.47015660,"long":139.42594100,"status":"done","name":"市道2151号線ガードパイプ","address":"東柏ケ谷二丁目1709番地付近（東柏ケ谷2-18-19付近）","city":"海老名市","number":"13 - ４"}, 
 {"id":"d98c70f4-fd47-4410-bddd-65165ee8c357","lat":35.36033320,"long":139.33391800,"status":"done","name":"豊田小嶺公園東側","address":"豊田小嶺392","city":"平塚市","number":"30ー6"}, 
 {"id":"d9901c3b-66d9-40e2-825f-01aee1904143","lat":35.59376180,"long":139.60572840,"status":"done","name":"東急梶ヶ谷駅駅舎前ガードレール","address":"高津区末長1丁目48番6号","city":"川崎市","number":"104"}, 
 {"id":"d9922f5d-56b5-403e-abb9-038f41bb2c33","lat":35.60682600,"long":139.58450490,"status":"done","name":"東名高速喜津根橋横ガードレール","address":"多摩区長尾7丁目14番","city":"川崎市","number":"28"}, 
 {"id":"d993bc68-b528-4524-8a05-ab4edfa2c098","lat":35.31189990,"long":139.57679460,"status":"done","name":"坂上バス停前（緑地）","address":"逗子市久木8－20－16先","city":"逗子市","number":"9-5"}, 
 {"id":"d994c674-0c9e-43d2-99c7-10dc388255e4","lat":35.51768760,"long":139.69831690,"status":"done","name":"渡田山王町第2公園西側フェンス","address":"川崎区渡田山王町25番","city":"川崎市","number":"47"}, 
 {"id":"d99617cc-51df-4435-8676-10ec148ff6a3","lat":35.49124603,"long":139.56851540,"status":"done","name":"上菅田第二公園","address":"保土ケ谷区上菅田町1,114番地","city":"横浜市","number":"07-231"}, 
 {"id":"d99b1b25-23e8-4dbc-a6a1-48bffbf38ee3","lat":35.42270743,"long":139.61876210,"status":"done","name":"脳卒中神経脊椎センター東側歩道ガードパイプ","address":"磯子区滝頭一丁目２番","city":"横浜市","number":"09-027"}, 
 {"id":"d9a39496-2717-43ab-a320-aaa2f48c5c74","lat":35.43296420,"long":139.54208960,"status":"done","name":"市営名瀬住宅集会所(ﾌｪﾝｽ取付)","address":"戸塚区名瀬町791番地","city":"横浜市","number":"15-006"}, 
 {"id":"d9a784fe-27e8-4c0e-8fb2-5393e6ea107c","lat":35.46007167,"long":139.55349020,"status":"done","name":"４−10号棟横フェンス","address":"旭区左近山171番地７","city":"横浜市","number":"08-308"}, 
 {"id":"d9aa4195-248b-4a35-8138-b51d30a65068","lat":35.42029993,"long":139.65315360,"status":"done","name":"サンハイツ三渓園前ガードレール","address":"中区本牧間門35−10","city":"横浜市","number":"04-158"}, 
 {"id":"d9abaa60-8e36-440b-bc88-bc241d91596c","lat":35.16818700,"long":139.13849540,"status":"done","name":"長坂JRガード入口","address":"岩864番地","city":"真鶴町","number":"27"}, 
 {"id":"d9ae3fb5-683f-4ee5-841b-4f70809744e7","lat":35.57769540,"long":139.36862780,"status":"done","name":"174相模原駅３丁目交差点北側緑地帯","address":"中央区","city":"相模原市","number":"126"}, 
 {"id":"d9b2889a-4c98-442f-9ce5-0a511f35b430","lat":35.36444340,"long":139.35306830,"status":"done","name":"伊達建設資材置場南側","address":"横内4336","city":"平塚市","number":"28ー6"}, 
 {"id":"d9b393cd-18cc-4965-b4d0-904134d96409","lat":35.34541950,"long":139.40213330,"status":"done","name":"住宅 西側畑 北側生垣 西端","address":"円蔵2143番地","city":"茅ヶ崎市","number":"95"}, 
 {"id":"d9b717bb-ea14-48c6-8b88-ac0e46558f84","lat":35.25081924,"long":139.15775390,"status":"done","name":"23","address":"本町１丁目２−１４","city":"小田原市","number":"23"}, 
 {"id":"d9b8f04a-596c-47d4-972c-857c0a8bf9ad","lat":35.54272870,"long":139.36652010,"status":"done","name":"353上溝南小学校北側","address":"中央区","city":"相模原市","number":"263"}, 
 {"id":"d9b9b372-1b11-41ec-b96e-52485d0f58c7","lat":35.43001490,"long":139.35994090,"status":"done","name":"道路補修事務所資材置場南側フェンス","address":"岡田1-14","city":"厚木市","number":"19"}, 
 {"id":"d9bfcf5b-fa7d-44e0-90d6-8fb3598dff7d","lat":35.61571970,"long":139.15294060,"status":"done","name":"451藤野駅周辺第１駐車場フェンス","address":"緑区","city":"相模原市","number":"904"}, 
 {"id":"d9bfd0a4-aa86-4ed3-acae-24b0e3f5b43e","lat":35.48101590,"long":139.43354630,"status":"done","name":"ひばりが丘第３公園北側植込み（野立て）","address":"ひばりが丘３丁目５７番ひばりが丘第３公園北側植込み（野立て）","city":"座間市","number":"102"}, 
 {"id":"d9c16041-c0d4-46c2-b9d4-4170888e72da","lat":35.53991399,"long":139.57020260,"status":"done","name":"茅ケ崎南かきのき公園  北側歩道植込","address":"都筑区茅ケ崎南五丁目11番","city":"横浜市","number":"14-167"}, 
 {"id":"d9c6ecc7-62fa-4573-b460-ef9a5b3e6d12","lat":35.39327770,"long":139.56023160,"status":"done","name":"日限山小学校正門横金網","address":"港南区日限山二丁目16番１号","city":"横浜市","number":"06-260"}, 
 {"id":"d9dd0099-99ca-43da-98b0-513519dc1513","lat":35.36699195,"long":139.57149270,"status":"done","name":"虻名公園内フェンス","address":"栄区上郷町262番地","city":"横浜市","number":"16-150"}, 
 {"id":"d9ddb3fd-7121-49e2-bc0c-a72ff029055b","lat":35.46170840,"long":139.46718820,"status":"done","name":"㈱サステム国道467号沿フェンス","address":"深見3923","city":"大和市","number":"176"}, 
 {"id":"d9de2fce-9af3-4727-8635-da8754d4d472","lat":35.43011033,"long":139.66413920,"status":"done","name":"本牧フロント前ガードレール","address":"中区小港町２−100−４","city":"横浜市","number":"04-136"}, 
 {"id":"d9decce1-41f5-4053-86f7-3e52a7879e09","lat":35.63652560,"long":139.52265530,"status":"done","name":"菅中学校正門左側フェンス","address":"多摩区菅城下28番1号","city":"川崎市","number":"99"}, 
 {"id":"d9e5118d-cb21-4164-bef6-f2d38cc7c802","lat":35.34128570,"long":139.30455560,"status":"done","name":"大町バス停脇水路フェンス","address":"根坂間738","city":"平塚市","number":"45ー1"}, 
 {"id":"d9f0567c-0ab6-4d1e-9bdd-82f4d2802e97","lat":35.46053897,"long":139.63036440,"status":"done","name":"ＭＭタワーズフォレシス西側ガードレール","address":"西区みなとみらい四丁目９番先","city":"横浜市","number":"03-155"}, 
 {"id":"d9f45a0c-7271-4bb8-9d41-370139a5591a","lat":35.59641400,"long":139.63747330,"status":"done","name":"下野毛2丁目公園フェンス (位置情報が見つかりませんでした)","address":"高津区下野毛2丁目8番3号","city":"川崎市","number":"48"}, 
 {"id":"d9f68daa-4256-4b96-bb38-d5ab51cd0b1f","lat":35.54131073,"long":139.54960760,"status":"done","name":"泉天ケ谷公園南西側","address":"青葉区市ケ尾町490番地","city":"横浜市","number":"13-161"}, 
 {"id":"d9f7298f-b9b2-4a6f-a81b-7e0490670c30","lat":35.37861110,"long":139.30433630,"status":"done","name":"ふじみ野第４公園東側","address":"ふじみ野一丁目17","city":"平塚市","number":"46ー7"}, 
 {"id":"da07a762-b8b7-46b6-823f-99a054e50194","lat":35.29675399,"long":139.18230390,"status":"done","name":"178","address":"千代５４４−１","city":"小田原市","number":"178"}, 
 {"id":"da0884f6-e73a-44c4-9bc1-4c13906e7679","lat":35.55722386,"long":139.50882700,"status":"done","name":"鴨志田第一小学校通用門横","address":"青葉区鴨志田町805番地","city":"横浜市","number":"13-134"}, 
 {"id":"da0e9177-5dbb-422f-b994-106269010b7b","lat":35.35990380,"long":139.48172170,"status":"done","name":"立石公園西側","address":"立石1丁目20","city":"藤沢市","number":"18"}, 
 {"id":"da0efcd6-75a1-4292-b1a4-eb2df6ae728f","lat":35.32539250,"long":139.12801630,"status":"done","name":"盛徳寺前町道","address":"牛島 340番地","city":"開成町","number":"32"}, 
 {"id":"da11339e-8c65-4cde-ba78-56000c0790cf","lat":35.33848030,"long":139.42865070,"status":"done","name":"小和田一丁目青少年広場 東側金網フェンス","address":"小和田一丁目3番","city":"茅ヶ崎市","number":"184"}, 
 {"id":"da1f09e7-f75b-408b-8b0d-c810bf239699","lat":35.32427560,"long":139.55246310,"status":"done","name":"川喜多映画記念館","address":"雪ノ下二丁目2番12号","city":"鎌倉市","number":"3-6"}, 
 {"id":"da481aa9-5c1f-4c0c-b758-de366270935c","lat":35.58844510,"long":139.59289200,"status":"done","name":"宮崎台駅周辺自転車等駐車場　第5施設　南西側フェンス","address":"宮前区宮崎2丁目3番地","city":"川崎市","number":"18"}, 
 {"id":"da4a40a6-5414-425a-b6bf-8f1b7eee0980","lat":35.31680960,"long":139.27716350,"status":"done","name":"いくさわ西の池跡公園前","address":"生沢475番地","city":"大磯町","number":"55"}, 
 {"id":"da4ad975-5dc5-4754-baf9-82c17de2ae40","lat":35.43481764,"long":139.60877370,"status":"done","name":"市立横浜商業高等学校体育館前","address":"南区南太田二丁目30番1号","city":"横浜市","number":"05-092"}, 
 {"id":"da4bbdb5-7cf1-43e4-a922-fe6f735f991d","lat":35.33695120,"long":139.41965700,"status":"done","name":"TOTO茅ヶ崎工場 北側フェンス東端","address":"本村二丁目8番1号","city":"茅ヶ崎市","number":"325"}, 
 {"id":"da58f384-eea1-4051-a2ad-1d0a997f090c","lat":35.14431850,"long":139.09759170,"status":"done","name":"付近待避所フェンス","address":"宮下547番地の3","city":"湯河原町","number":"53"}, 
 {"id":"da59649a-6c8a-4a53-a8dd-d00f670380fc","lat":35.42349792,"long":139.60494050,"status":"done","name":"大岡健康プラザ南側","address":"南区大岡一丁目14番1号","city":"横浜市","number":"05-156"}, 
 {"id":"da5a2778-1460-4ab9-ba56-20648608c83e","lat":35.14546080,"long":139.62242780,"status":"done","name":"京急バス車庫付近ネットフェンス","address":"城山町4番38号","city":"三浦市","number":"12"}, 
 {"id":"da5a48a5-094f-4d33-b9a3-ff84ee31d063","lat":35.38028590,"long":139.23961980,"status":"done","name":"masked","address":"曽屋3648番6","city":"秦野市","number":"41"}, 
 {"id":"da5b0106-3916-4c02-9f94-238a13cafbf5","lat":35.25269514,"long":139.66551450,"status":"done","name":"小矢部1丁目信号前土手","address":"横須賀市小矢部2丁目9番2号","city":"横須賀市","number":"31-6"}, 
 {"id":"da6a417d-d33d-4daf-b106-cd2774a21455","lat":35.32653059,"long":139.09417310,"status":"done","name":"22","address":null,"city":"南足柄市","number":"22"}, 
 {"id":"da6f597c-75ba-464b-99a5-9ae462331e29","lat":35.60485530,"long":139.51463730,"status":"done","name":"百合丘小学校　正門脇フェンス","address":"麻生区百合丘2丁目1番地","city":"川崎市","number":"59"}, 
 {"id":"da76547a-599f-49db-94bd-0c9b5782c14a","lat":35.61259880,"long":139.50827530,"status":"done","name":"千代ケ丘交差点南側土地","address":"麻生区千代ケ丘3丁目4番地","city":"川崎市","number":"35"}, 
 {"id":"da794e72-e2fb-4b19-a359-0f2833fa33cf","lat":35.56638710,"long":139.39742010,"status":"done","name":"284共和中学校正門横","address":"中央区","city":"相模原市","number":"209"}, 
 {"id":"da7bfce6-4e5b-4eba-9475-21048cae8503","lat":35.37597140,"long":139.30480570,"status":"done","name":"みどりヶ丘南公園北側","address":"岡崎3233","city":"平塚市","number":"41ー3"}, 
 {"id":"da7cc941-a509-4a7d-9581-a1c37fc19665","lat":35.61395050,"long":139.53555700,"status":"done","name":"錦ヶ丘北公園フェンス","address":"多摩区栗谷3丁目30番","city":"川崎市","number":"144"}, 
 {"id":"da82cebc-e26b-40a8-8745-1be318798bff","lat":35.30995900,"long":139.31692170,"status":"done","name":"masked","address":"大磯1597番地","city":"大磯町","number":"20"}, 
 {"id":"da85f866-3093-4ca3-b5e1-0e2286b8b7fa","lat":35.25018830,"long":139.69530670,"status":"done","name":"池田町3丁目公園フェンス","address":"横須賀市池田町3丁目9番","city":"横須賀市","number":"41-3"}, 
 {"id":"da9cb5dd-8e5a-4e10-aa46-f28a777949f3","lat":35.42897372,"long":139.57554720,"status":"done","name":"大郷山第二公園（ﾌｪﾝｽ取付）","address":"戸塚区平戸一丁目2番","city":"横浜市","number":"15-050"}, 
 {"id":"da9e0fef-10c6-4c4c-9f51-0f1473f15758","lat":35.40044535,"long":139.51889280,"status":"done","name":"汲沢公園入口の土手","address":"戸塚区汲沢一丁目11番","city":"横浜市","number":"15-195"}, 
 {"id":"daa1f8c3-4b91-492e-ac93-f3b399243f92","lat":35.41548404,"long":139.63230070,"status":"done","name":"西町公園南側鉄柵","address":"磯子区西町10番","city":"横浜市","number":"09-002"}, 
 {"id":"daa2e855-a535-4be2-92ab-6a14f220f091","lat":35.27225796,"long":139.18159420,"status":"done","name":"144","address":"南鴨宮３丁目３５−２１","city":"小田原市","number":"144"}, 
 {"id":"daa566af-6761-4251-a544-10f90c387ed1","lat":35.54782020,"long":139.32909160,"status":"done","name":"332相模川ふれあい科学館滝ふれあい橋横","address":"中央区","city":"相模原市","number":"247"}, 
 {"id":"daab1d8f-a4f4-41ed-89f4-e9e74c074587","lat":35.62403670,"long":139.55520340,"status":"done","name":"個人所有駐車場フェンス","address":"多摩区登戸278番地","city":"川崎市","number":"57"}, 
 {"id":"daae0116-6dfc-4d1d-ae2a-87f730e0aea1","lat":35.15717020,"long":139.63675100,"status":"done","name":"三崎警察署前バス停（ガスト前）ガードパイプ","address":"三崎町小網代57番地4","city":"三浦市","number":"38"}, 
 {"id":"dab6b420-b638-431f-ac1f-3f339e5a85bc","lat":35.42401758,"long":139.61405320,"status":"done","name":"ワコーレロイヤルヒルズ横浜蒔田向ガードレール","address":"南区蒔田町字三度台1018番地15","city":"横浜市","number":"05-052"}, 
 {"id":"daba4cbd-ce24-4290-92f5-df36753345fa","lat":35.27122737,"long":139.65452350,"status":"done","name":"masked","address":"横須賀市坂本町3丁目9番地","city":"横須賀市","number":"14-3"}, 
 {"id":"dabe88aa-cce3-4e3c-9a9b-097e5d10b61f","lat":35.38551790,"long":139.17397900,"status":"done","name":"masked","address":"堀西800番","city":"秦野市","number":"206"}, 
 {"id":"dac45321-6a68-4974-b7b4-2063e2869a7a","lat":35.46318815,"long":139.60389090,"status":"done","name":"シンフォニア・セタス前フェンス","address":"保土ケ谷区鎌谷町26番地","city":"横浜市","number":"07-094"}, 
 {"id":"dac5e855-773c-4f3a-a2ef-62c5fa9b6c43","lat":35.29200434,"long":139.23229660,"status":"done","name":"293","address":"羽根尾４１１−４","city":"小田原市","number":"293"}, 
 {"id":"dac9cc5a-8e41-49ce-86fa-c8c3fc66556f","lat":35.45921677,"long":139.62186830,"status":"done","name":"ガードレール","address":"西区桜木町７丁目45番地先","city":"横浜市","number":"03-093"}, 
 {"id":"dace77c4-f77a-4405-8874-a10050c31dbb","lat":35.63292450,"long":139.55043600,"status":"done","name":"下布田公園入口植え込み","address":"多摩区布田2番地10","city":"川崎市","number":"184"}, 
 {"id":"dad1fdff-00e4-4fb8-8af3-ecdea50bfc9a","lat":35.47488800,"long":139.48622500,"status":"done","name":"諏訪神社入口横の擁壁","address":"瀬谷区相沢三丁目24番地の4","city":"横浜市","number":"18-019"}, 
 {"id":"dad30ad8-ebba-4245-b87f-c3326c4ac2c2","lat":35.52636246,"long":139.50255430,"status":"done","name":"いぶき野小学校東側フェンス","address":"緑区いぶき野１４−１","city":"横浜市","number":"12-121"}, 
 {"id":"dadf71b6-8051-4beb-9af5-d693624b8a9e","lat":35.40057270,"long":139.41719850,"status":"done","name":"市営古里住宅4号棟東側","address":"打戻1789","city":"藤沢市","number":"432"}, 
 {"id":"dae69504-da7f-4c6d-a4a2-95653b3d08a6","lat":35.58743030,"long":139.62464880,"status":"done","name":"ライオンズマンション武蔵新城前ガードレール","address":"高津区新作5丁目8番","city":"川崎市","number":"139"}, 
 {"id":"daef60de-368a-45d3-a42c-64fee713f381","lat":35.43067922,"long":139.59396600,"status":"done","name":"永田三縄田第二公園東側","address":"南区永田東一丁目34番","city":"横浜市","number":"05-125"}, 
 {"id":"daf1b1df-65e5-4c54-80a3-4fec44726519","lat":35.37626940,"long":139.27939040,"status":"done","name":"県営鶴巻団地集会所前ガードレール","address":"鶴巻南2丁目7番","city":"秦野市","number":"178"}, 
 {"id":"daf2f660-4b9e-48a2-8bc4-c1dab84c5cbc","lat":35.43864827,"long":139.61237470,"status":"done","name":"グリ−ンキャピタル南太田前","address":"南区清水ケ丘12番地","city":"横浜市","number":"05-086"}, 
 {"id":"dafbd524-8ffe-4c3a-9121-53da38a92a80","lat":35.53330460,"long":139.69298750,"status":"done","name":"南河原中学校南側 フェンス","address":"幸区中幸町4丁目31番地","city":"川崎市","number":"12"}, 
 {"id":"db0292c9-629f-43fa-a2df-b38dc78b241c","lat":35.20973924,"long":139.67861960,"status":"done","name":"長沢平田自治会館前フェンス","address":"横須賀市長沢4丁目16番20号","city":"横須賀市","number":"72-6"}, 
 {"id":"db08827a-5de3-4ef3-94ab-b5ce6f42c866","lat":35.41774164,"long":139.62436500,"status":"done","name":"密蔵院塀","address":"磯子区滝頭三丁目13番５号","city":"横浜市","number":"09-053"}, 
 {"id":"db11617b-a16e-4174-b4c5-e1b4e37b2f22","lat":35.37925240,"long":139.47633200,"status":"done","name":"藤沢市消防団第15分団器具置場東側","address":"亀井野3350","city":"藤沢市","number":"350"}, 
 {"id":"db19b66c-4af3-45aa-9a1c-1b3662a4f041","lat":35.26472270,"long":139.02493710,"status":"done","name":"小塚橋付近","address":"仙石原1286番地","city":"箱根町","number":"57"}, 
 {"id":"db20714e-4f01-4dbf-9733-cd5f871b1db5","lat":35.33065973,"long":139.60855200,"status":"done","name":"高宗台公園","address":"金沢区六浦三丁目27番","city":"横浜市","number":"10-129"}, 
 {"id":"db23c6e3-d178-4008-b456-786b47cfaea8","lat":35.47341609,"long":139.62651180,"status":"done","name":"青木小学校","address":"神奈川区桐畑17番地１","city":"横浜市","number":"02-132"}, 
 {"id":"db23da9f-0203-4c19-9a61-381163117259","lat":35.47404900,"long":139.31326300,"status":"done","name":"masked","address":"飯山3632","city":"厚木市","number":"50"}, 
 {"id":"db25e636-7d1f-4dd0-8354-ee80ac462070","lat":35.37056470,"long":139.21334710,"status":"done","name":"平沢児童館フェンス","address":"平沢979番地","city":"秦野市","number":"55"}, 
 {"id":"db2846c1-a512-4b39-aa5a-948e65d4e4d8","lat":35.37540460,"long":139.17973490,"status":"done","name":"旧西公民館南西側フェンス","address":"柳町2丁目5番36号","city":"秦野市","number":"224"}, 
 {"id":"db35c314-dd32-451b-9d2e-46252407f773","lat":35.47278400,"long":139.37074690,"status":"done","name":"依知南小学校南側フェンス","address":"下依知2-7-1","city":"厚木市","number":"26"}, 
 {"id":"db376b45-a5ad-4197-8c3f-6276ef9f5311","lat":35.32174150,"long":139.39895840,"status":"done","name":"中海岸第一公園 北側フェンス西端","address":"中海岸四丁目11685番地35","city":"茅ヶ崎市","number":"48"}, 
 {"id":"db4375b7-84f4-4944-95f1-3d6d4b93387a","lat":35.33774713,"long":139.60265680,"status":"done","name":"沢木谷公園（北側）","address":"金沢区釜利谷南三丁目12番","city":"横浜市","number":"10-232"}, 
 {"id":"db43fe48-f1e9-4384-9b16-d364d17d69cd","lat":35.50212456,"long":139.55955110,"status":"done","name":"こざか第一公園鉄柵","address":"緑区鴨居六丁目４","city":"横浜市","number":"12-025"}, 
 {"id":"db4e4835-5a19-4bf9-87d3-8a58c5516542","lat":35.45195696,"long":139.57941700,"status":"done","name":"パークサイド保土ケ谷向いガードレール","address":"保土ケ谷区初音ケ丘22番11号","city":"横浜市","number":"07-009"}, 
 {"id":"db5771b2-610a-42cf-9705-5046a60444ca","lat":35.27403773,"long":139.63794840,"status":"done","name":"横須賀IC第二橋下道路フェンス","address":"横須賀市山中町92番地先","city":"横須賀市","number":"86-3"}, 
 {"id":"db67596b-c3ac-4302-8281-504867f40da2","lat":35.49117884,"long":139.62493620,"status":"done","name":"篠原園地入口横","address":"港北区篠原台町28番１","city":"横浜市","number":"11-034"}, 
 {"id":"db6b2e84-338f-4238-a5b9-0d194d8f0929","lat":35.53454574,"long":139.58801570,"status":"done","name":"都筑消防署仲町台消防出張所植込","address":"都筑区仲町台五丁目１番46号","city":"横浜市","number":"14-129"}, 
 {"id":"db73b271-67ec-4ab3-804e-e1b6a74eac9b","lat":35.47362550,"long":139.43385520,"status":"done","name":"masked","address":"東柏ケ谷四丁目９番12号先","city":"海老名市","number":"14 - ６"}, 
 {"id":"db78ece0-8343-4ae0-8c4c-6d29ded7c90f","lat":35.50654370,"long":139.40551750,"status":"done","name":"425緑台小学校東側","address":"南区","city":"相模原市","number":"595"}, 
 {"id":"db7a8274-9e8e-4f2e-825f-f8ecad358d59","lat":35.38368069,"long":139.60523500,"status":"done","name":"松之内橋上流側","address":"磯子区栗木一丁目25番","city":"横浜市","number":"09-144"}, 
 {"id":"db7ebdb6-202e-4d1e-b718-f29b8bbe1882","lat":35.35644050,"long":139.33011090,"status":"done","name":"市立豊田公民館前","address":"南豊田366－1","city":"平塚市","number":"30ー3"}, 
 {"id":"db8668c8-7229-4bc4-881c-916673a7096c","lat":35.39599740,"long":139.47155860,"status":"done","name":"湘南台中学校西側","address":"湘南台7丁目18-1","city":"藤沢市","number":"398"}, 
 {"id":"db876b68-504f-4f68-9e6d-c2d605fc6931","lat":35.38068742,"long":139.61741690,"status":"done","name":"京浜急行ガード脇柵","address":"磯子区杉田四丁目16番","city":"横浜市","number":"09-256"}, 
 {"id":"db89ba7f-daaf-4af4-81ac-fc74a544577b","lat":35.51432861,"long":139.67649420,"status":"done","name":"佃野公園広場入口右側植え込み","address":"鶴見区佃野町７番","city":"横浜市","number":"01-135"}, 
 {"id":"db8ab5fa-1516-4936-9bb8-f407c4d87714","lat":35.55879990,"long":139.65569700,"status":"done","name":"木月下町公園鉄柵","address":"中原区木月4丁目25番6号","city":"川崎市","number":"116"}, 
 {"id":"db90afd7-ba67-4517-910c-53bfc4a2e964","lat":35.51015592,"long":139.68943590,"status":"done","name":"栄町公園（北）前植え込み","address":"鶴見区栄町通３丁目24番地の１","city":"横浜市","number":"01-056"}, 
 {"id":"db93ddfb-48fc-46e0-a8df-5cc312451098","lat":35.40276684,"long":139.58027220,"status":"done","name":"相武山小学校体育館裏金網","address":"港南区上永谷一丁目７番５号","city":"横浜市","number":"06-187"}, 
 {"id":"db9698b2-cf7f-4d77-bc1b-246397a6fb28","lat":35.23704750,"long":139.04743700,"status":"done","name":"小涌谷集会所付近","address":"小涌谷493番地15","city":"箱根町","number":"36"}, 
 {"id":"db980f37-a5ae-4655-b8c8-ef872be249b0","lat":35.31983060,"long":139.34144230,"status":"done","name":"浜岳公園西側","address":"菫平3","city":"平塚市","number":"3ー3"}, 
 {"id":"dba306b6-c07e-476e-9181-67cdc799fe01","lat":35.52728195,"long":139.63064960,"status":"done","name":"大曽根保育園鉄柵","address":"港北区大曽根二丁目５番１号","city":"横浜市","number":"11-157"}, 
 {"id":"dba4790d-4e40-4119-8d63-4f262649fc56","lat":35.36171530,"long":139.05479520,"status":"done","name":"永安橋先ガードパイプ","address":"平山694番地先","city":"山北町","number":"48"}, 
 {"id":"dba54175-f1c2-4b77-bada-3a526b31d03e","lat":35.60084930,"long":139.34816920,"status":"done","name":"26橋本４丁目団地プレイグランド西側","address":"緑区","city":"相模原市","number":"612"}, 
 {"id":"dbad3595-a09d-4135-b02d-d73d21603c1b","lat":35.45007066,"long":139.58790730,"status":"done","name":"保土ケ谷幼稚園前ガードレール","address":"保土ケ谷区桜ケ丘二丁目3番24号","city":"横浜市","number":"07-063"}, 
 {"id":"dbadd2d8-4eb9-4837-9320-55d254841918","lat":35.28357360,"long":139.57819510,"status":"done","name":"masked","address":"長柄 393番地の1先","city":"葉山町","number":"56"}, 
 {"id":"dbae9682-389c-4e81-aa13-96ecfa2e95c1","lat":35.53282990,"long":139.63348080,"status":"done","name":"県道140号線沿ガードレール","address":"港北区大曽根二丁目44番","city":"横浜市","number":"11-152"}, 
 {"id":"dbbe2b97-72da-4250-9878-0c633b53779a","lat":35.38151130,"long":139.28382620,"status":"done","name":"ひかりのおか公園フェンス","address":"鶴巻南5丁目545番8(8番5号付近)","city":"秦野市","number":"186"}, 
 {"id":"dbbe338b-a3ee-461d-abf8-3681bf26745b","lat":35.39560360,"long":139.47307470,"status":"done","name":"総合市民図書館裏側入口右側","address":"湘南台7丁目18-2","city":"藤沢市","number":"405"}, 
 {"id":"dbbe6e8f-6284-49a7-a244-98627c14671a","lat":35.47094999,"long":139.63209060,"status":"done","name":"神奈川公園","address":"神奈川区栄町12番地","city":"横浜市","number":"02-104"}, 
 {"id":"dbbf29cc-e372-46c9-87e6-d29de4bfa144","lat":35.43435010,"long":139.31583720,"status":"done","name":"玉川野球場北道路フェンス","address":"小野106","city":"厚木市","number":"35"}, 
 {"id":"dbc46c5c-1f14-4be0-bc9e-4c285bdd1420","lat":35.44964900,"long":139.41146800,"status":"done","name":"小園西公園フェンス","address":"小園２丁目１９１－９４","city":"綾瀬市","number":"93"}, 
 {"id":"dbc4f6d0-62eb-4186-a61b-817b803e151f","lat":35.57345158,"long":139.55635240,"status":"done","name":"新石川公園","address":"青葉区新石川二丁目12番地１","city":"横浜市","number":"13-177"}, 
 {"id":"dbc68e9a-5d3a-4369-892e-eeb44d19cd97","lat":35.48227122,"long":139.62277070,"status":"done","name":"斎藤分小学校（プール脇壁）","address":"神奈川区斎藤分町34番１号","city":"横浜市","number":"02-220"}, 
 {"id":"dbc9ae5a-2970-4f2c-9bee-bfd70838d3b4","lat":35.50052403,"long":139.68641340,"status":"done","name":"本町通交番前信号付近植え込み","address":"鶴見区仲通１丁目２番地の６","city":"横浜市","number":"01-109"}, 
 {"id":"dbd96b0f-6c90-44e1-a695-f5baae915902","lat":35.62740150,"long":139.53901080,"status":"done","name":"masked","address":"多摩区菅馬場2丁目5番1号","city":"川崎市","number":"78"}, 
 {"id":"dbe39569-3385-4ea5-b814-d8e5428a42f5","lat":35.57226140,"long":139.64744700,"status":"done","name":"木月大町公園フェンス","address":"中原区木月大町1番24号","city":"川崎市","number":"138"}, 
 {"id":"dbf2a207-43ac-457e-98e3-3737101d9f5e","lat":35.50091508,"long":139.68192530,"status":"done","name":"下野谷小北側フェンス","address":"鶴見区下野谷町２丁目49番地","city":"横浜市","number":"01-119"}, 
 {"id":"dbfa7d37-29be-4f58-9c27-3852806bfa52","lat":35.48717014,"long":139.64138180,"status":"done","name":"ガードレール","address":"神奈川区七島町75番地先","city":"横浜市","number":"02-070"}, 
 {"id":"dc0243cd-418b-41e7-8cc7-07095f447169","lat":35.53623992,"long":139.68178660,"status":"done","name":"踏切り脇ＪＲフェンス","address":"鶴見区矢向三丁目33番14号","city":"横浜市","number":"01-009"}, 
 {"id":"dc03c7dd-d0c2-4efa-b5b4-8696109b9e33","lat":35.29183410,"long":139.24152190,"status":"done","name":"masked","address":"山西363番地","city":"二宮町","number":"22"}, 
 {"id":"dc05a390-1e44-4c29-9a98-f357f23bed0e","lat":35.31732371,"long":139.63004960,"status":"done","name":"天神橋欄干","address":"横須賀市追浜本町2丁目1番地1","city":"横須賀市","number":"3-2"}, 
 {"id":"dc065b3a-5916-4287-b29e-d20f0d6fc896","lat":35.33752248,"long":139.63041060,"status":"done","name":"寺前さざなみ公園","address":"金沢区寺前二丁目５番","city":"横浜市","number":"10-075"}, 
 {"id":"dc11884e-77e3-4e90-84ee-42b60c0c022a","lat":35.58760840,"long":139.57702080,"status":"done","name":"土橋太田公園東側フェンス (位置情報が見つかりませんでした)","address":"宮前区土橋1丁目17番地","city":"川崎市","number":"105"}, 
 {"id":"dc119727-d0b9-4f0b-b1cb-b42e3e08f1cb","lat":35.28941490,"long":139.57534200,"status":"done","name":"新宿中継ポンプ場（生垣）","address":"逗子市新宿1－5－4先","city":"逗子市","number":"12-3"}, 
 {"id":"dc11e97c-6a52-457b-b6a9-b07a13b7b413","lat":35.50990393,"long":139.63071910,"status":"done","name":"東急ストア菊名店駐車場フェンス","address":"港北区菊名七丁目１番","city":"横浜市","number":"11-069"}, 
 {"id":"dc164bfc-f039-48d4-8fae-a1be55144f4a","lat":35.50115329,"long":139.55454920,"status":"done","name":"白山町第二公園ガードレール","address":"緑区白山四丁目１３","city":"横浜市","number":"12-161"}, 
 {"id":"dc17437c-63b1-4b6e-abee-1c3dab629894","lat":35.37614717,"long":139.60807910,"status":"done","name":"大崎公園入口横ガードレール","address":"磯子区栗木三丁目９番","city":"横浜市","number":"09-167"}, 
 {"id":"dc1b6ff8-00b9-4948-933c-17c1720130eb","lat":35.38021689,"long":139.55931260,"status":"done","name":"小山台中学校フェンス","address":"栄区小山台一丁目14番","city":"横浜市","number":"16-102"}, 
 {"id":"dc264a43-69fd-4728-99b3-753bd4de7987","lat":35.32718772,"long":139.60511970,"status":"done","name":"コトブキハイム前歩道フェンス","address":"金沢区大道二丁目15番","city":"横浜市","number":"10-134"}, 
 {"id":"dc268be4-8590-4e24-ad5d-bb8c2f274a16","lat":35.56722665,"long":139.58778310,"status":"done","name":"北山田おにごっこ公園植込","address":"都筑区北山田六丁目15番","city":"横浜市","number":"14-145"}, 
 {"id":"dc28568d-5a78-48d0-b808-3a8b0f763646","lat":35.30383990,"long":139.25761250,"status":"done","name":"二宮町生涯学習センターラディアン県道側生垣","address":"二宮1240番地の10","city":"二宮町","number":"4"}, 
 {"id":"dc289157-ffd6-4760-b9c4-0736ef9c0cc2","lat":35.40642720,"long":139.30877330,"status":"done","name":"masked","address":"上粕屋 2862番地の5","city":"伊勢原市","number":"33"}, 
 {"id":"dc3b1ff0-e585-4fd1-9b33-6f8478c03af8","lat":35.45125550,"long":139.29500270,"status":"done","name":"フレンドマートこえち東道路フェンス","address":"七沢1164","city":"厚木市","number":"7"}, 
 {"id":"dc3e3bf7-7106-45ff-9dcb-143124b57966","lat":35.50056506,"long":139.65505150,"status":"done","name":"ダイアパレス東寺尾第３前ガードレール","address":"鶴見区東寺尾三丁目５番","city":"横浜市","number":"01-258"}, 
 {"id":"dc51d34a-4555-477b-a2f9-6dca6efb5aa5","lat":35.48879077,"long":139.56463950,"status":"done","name":"笹山団地集会所フェンス","address":"保土ケ谷区上菅田町951番地","city":"横浜市","number":"07-240"}, 
 {"id":"dc58a5d2-9f1c-48e2-84b3-c94e8883a055","lat":35.57937850,"long":139.62353330,"status":"done","name":"橘中学校フェンス","address":"高津区千年1300番地","city":"川崎市","number":"148"}, 
 {"id":"dc5a8c1f-3c7d-4962-bfd4-94d7c71e3ea7","lat":35.40614550,"long":139.30508790,"status":"done","name":"石倉福祉館 横 歩道 鉄柵","address":"上粕屋 1544番地","city":"伊勢原市","number":"37"}, 
 {"id":"dc5acf63-a4b3-4f06-b1b9-b15564869853","lat":35.47791320,"long":139.61871280,"status":"done","name":"ガードフェンス","address":"神奈川区三ツ沢下町14番先","city":"横浜市","number":"02-156"}, 
 {"id":"dc608b34-2431-4762-8be3-46a3098845da","lat":35.39548156,"long":139.52011450,"status":"done","name":"パークヒルズ戸塚(ｶﾞｰﾄﾞﾚｰﾙ)","address":"戸塚区戸塚町3501番地の5","city":"横浜市","number":"15-184"}, 
 {"id":"dc626d22-7dd2-4c48-bc34-67f871224f4f","lat":35.40962701,"long":139.50710840,"status":"done","name":"中田小学校南側入口横フェンス","address":"泉区中田南四丁目４番","city":"横浜市","number":"17-126"}, 
 {"id":"dc66bccb-8a60-4a6f-8720-0271d4c72c12","lat":35.43987800,"long":139.44787700,"status":"done","name":"綾瀬スポーツ公園北側フェンス","address":"本蓼川４２９−４","city":"綾瀬市","number":"17"}, 
 {"id":"dc68709e-a68c-43e0-ac44-6b5c8e9dafca","lat":35.38750240,"long":139.46647280,"status":"done","name":"不動前公園西側","address":"亀井野653","city":"藤沢市","number":"295"}, 
 {"id":"dc72ceaa-3d16-4f88-8a38-49dc5c9ce203","lat":35.57113710,"long":139.55896160,"status":"done","name":"新石川日向公園","address":"青葉区新石川二丁目25番地","city":"横浜市","number":"13-277"}, 
 {"id":"dc74da94-f83e-4f39-bba1-93172409ea79","lat":35.46983763,"long":139.62322360,"status":"done","name":"鶴屋町公園","address":"神奈川区鶴屋町２丁目９番地","city":"横浜市","number":"02-139"}, 
 {"id":"dc789638-ab52-4d10-ba2a-ea56681c2a8f","lat":35.50997170,"long":139.70401690,"status":"done","name":"小田双葉幼稚園東側ブロック塀","address":"川崎区小田5丁目25番8号","city":"川崎市","number":"99"}, 
 {"id":"dc87111a-d842-4068-8dea-6579d8de9247","lat":35.41054860,"long":139.32392200,"status":"done","name":"北ノ窪公園 西側 金網塀","address":"高森二丁目 8番","city":"伊勢原市","number":"115"}, 
 {"id":"dc872335-f7a1-483f-8618-5c2526e20fc6","lat":35.44220000,"long":139.49682200,"status":"done","name":"阿久和蟹沢公園西側植込","address":"瀬谷区阿久和南四丁目8番地","city":"横浜市","number":"18-149"}, 
 {"id":"dc88b8fe-f9b6-489e-84d3-9c82bf53c6ae","lat":35.38285001,"long":139.58787390,"status":"done","name":"兎ヶ谷公園ガードレール","address":"港南区日野中央三丁目５番","city":"横浜市","number":"06-082"}, 
 {"id":"dc8d65a3-d3a9-4cfa-9013-7858f2de266e","lat":35.47890025,"long":139.63300860,"status":"done","name":"駐輪場フェンス","address":"神奈川区西神奈川一丁目７番地先","city":"横浜市","number":"02-125"}, 
 {"id":"dc8eb79c-1a74-4a2f-996f-ab8f70002271","lat":35.43732100,"long":139.50224500,"status":"done","name":"みなみ幼稚園第２グランド前フェンス","address":"瀬谷区阿久和南三丁目25番地の1","city":"横浜市","number":"18-068"}, 
 {"id":"dc9f5c51-4ab3-46f7-903f-292209d60681","lat":35.52624677,"long":139.67215650,"status":"done","name":"上末吉二丁目公園フェンス","address":"鶴見区上末吉二丁目６番","city":"横浜市","number":"01-177"}, 
 {"id":"dcaf3826-d88e-4a35-ae39-39503838a868","lat":35.48960900,"long":139.47613700,"status":"done","name":"上瀬谷小学校西側フェンス","address":"瀬谷区瀬谷町7,140番地","city":"横浜市","number":"18-001"}, 
 {"id":"dcc62681-0730-4c95-b98c-ab49e83cf8a2","lat":35.15587290,"long":139.11112030,"status":"done","name":"masked","address":"鍛冶屋501番地","city":"湯河原町","number":"21"}, 
 {"id":"dcc929e2-2793-4b54-888f-2182a4055edf","lat":35.36754580,"long":139.25627860,"status":"done","name":"交差点北側ガードレール","address":"南矢名1882番23","city":"秦野市","number":"158"}, 
 {"id":"dcd0250c-5129-4808-9636-9d86de113e40","lat":35.30416480,"long":139.52360510,"status":"done","name":"masked","address":"稲村ガ崎一丁目13番22号","city":"鎌倉市","number":"12-1"}, 
 {"id":"dcd0e318-44d8-4239-a60d-890dc85f4469","lat":35.49937205,"long":139.55084370,"status":"done","name":"白山高校グラウンド前ネットフェンス","address":"緑区白山四丁目７１−１","city":"横浜市","number":"12-163"},