[{"id":"657d9b55-3f55-43b0-8d2e-4c238d8e2e43","lat":36.18285400,"long":139.29188500,"status":"done","name":"上柴住宅団地 西入口フェンス","address":"上柴町西5丁目7-137","city":"深谷市","number":"10-4"}, 
 {"id":"6584b09e-eddc-48ea-923b-ad0cf6ef5041","lat":36.04951550,"long":139.10181010,"status":"done","name":"黒谷駅皆野寄り250m聖神社下増田方 畑 野立","address":"黒谷(下)252","city":"秩父市","number":"15-6"}, 
 {"id":"65858ebd-2856-4967-b7a6-9be8178b5d27","lat":35.99602420,"long":139.59359020,"status":"done","name":"上平中学校東側フェンス","address":"大字菅谷121番地","city":"上尾市","number":"28-2"}, 
 {"id":"658c567b-b245-49ac-954e-906a61e53eae","lat":35.81790450,"long":139.86172670,"status":"done","name":"下木曽根会館入口フェンス","address":"大字木曽根1425-9","city":"八潮市","number":"19-1"}, 
 {"id":"6594013f-7bdd-4414-a328-84b29d405186","lat":35.78138450,"long":139.44112530,"status":"done","name":"masked","address":"山口1284-2","city":"所沢市","number":"50-4"}, 
 {"id":"6594d4e2-a7f9-4c1e-9e99-ab92d86b5d87","lat":35.86350291,"long":139.66707023,"status":"done","name":"masked","address":"緑区太田窪1丁目19番27号","city":"さいたま市","number":"9-12-6"}, 
 {"id":"659743a8-e98b-46cd-8be6-770618b5bcca","lat":36.02964000,"long":139.52935000,"status":"done","name":"市役所入口バス停(北側)脇植栽","address":"西高尾1丁目228番地4","city":"北本市","number":"13-1"}, 
 {"id":"65998122-5338-4f28-8568-146cd37b3f99","lat":35.82358600,"long":139.70563500,"status":"done","name":"緑川フェンス(白色)","address":"塚越７丁目１２番","city":"蕨市","number":"16-6"}, 
 {"id":"65999ada-cc3d-4bda-be3f-4d3226c461bd","lat":35.94678769,"long":139.67416742,"status":"done","name":"イタリア料理あらじん南側水路フェンス","address":"見沼区卸町1丁目58番地","city":"さいたま市","number":"4-8-7"}, 
 {"id":"659d1055-331f-45e8-b827-19a8b24e611b","lat":36.07382900,"long":139.41701400,"status":"done","name":"広場西側","address":"大字東平2190番地1","city":"東松山市","number":"30-7"}, 
 {"id":"659f4440-d527-4a92-88d6-4c26e34df4a5","lat":36.05916200,"long":139.38897000,"status":"done","name":"野田自治会館","address":"大字野田457番地3","city":"東松山市","number":"7-5"}, 
 {"id":"65aaf0f7-fc81-44a2-b9e8-4f5f3761c545","lat":35.94560030,"long":139.72077263,"status":"done","name":"岩槻文化公園内 陸上競技場北側（駐車場前）","address":"岩槻区大字村国229番地","city":"さいたま市","number":"10-16-1"}, 
 {"id":"65b26db1-cd10-46d6-958c-07f6bc9c7161","lat":35.88554800,"long":139.80923500,"status":"done","name":"大相模中学校東側フェンス","address":"相模町3-165","city":"越谷市","number":"51-7"}, 
 {"id":"65b3f1a1-77c1-461e-af69-be8e8d9a057d","lat":35.92487903,"long":139.66870780,"status":"done","name":"県営大宮七里第二団地1号棟東側","address":"見沼区大字大谷1664番地4","city":"さいたま市","number":"4-18-6"}, 
 {"id":"65b43b46-2ca9-4acc-8522-7fef1466c89d","lat":35.97493220,"long":139.05750240,"status":"done","name":"民家前空地(旧下久那公会堂跡地) 野立","address":"久那1726-2","city":"秩父市","number":"16-4"}, 
 {"id":"65b5ee08-c7cc-4455-9e94-9bd10e1a5b52","lat":36.20008610,"long":139.28635080,"status":"done","name":"城北公園 保健センター入口","address":"本住町17-3","city":"深谷市","number":"1-7"}, 
 {"id":"65bcf50b-9137-4950-a57f-4b8536eb1be5","lat":36.19556820,"long":139.17118180,"status":"not_yet","name":"福島輪店前","address":"南十条401-1","city":"美里町","number":"5-3"}, 
 {"id":"65bff6d3-f21a-43ee-affe-eeece853c354","lat":36.05137030,"long":139.78719820,"status":"done","name":"竹山百貨店前(元豊岡小学校)","address":"大字目沼407番地1地先","city":"杉戸町","number":"15-4"}, 
 {"id":"65c7c785-d680-4001-987e-2c8a68d9e682","lat":35.88278367,"long":139.65180112,"status":"done","name":"市立木崎小学校西側旧正門左側フェンス","address":"浦和区領家4丁目19番4号","city":"さいたま市","number":"7-8-2"}, 
 {"id":"65ccd4f4-d920-4b1e-a7ff-ca95ede0243a","lat":35.87455400,"long":139.75193800,"status":"done","name":"戸塚杉本公園北側附近","address":"戸塚東1-16","city":"川口市","number":"68-4"}, 
 {"id":"65d9df25-3ac6-4c6c-80fa-ed6b24fe0be1","lat":35.92263560,"long":139.82638690,"status":"done","name":"マナ整体ラボ東側","address":"ゆめみ野4-16-18","city":"松伏町","number":"4-3"}, 
 {"id":"65dfcb98-4359-41bd-93b6-9e327b1bc23b","lat":35.78097190,"long":139.47206150,"status":"done","name":"北秋津歩道橋北側","address":"北秋津144-5","city":"所沢市","number":"56-5"}, 
 {"id":"65e156ce-7952-46b1-a076-e09d9aaf8904","lat":35.88241340,"long":139.84409200,"status":"done","name":"ロ-ソンストア100前いちょう通り東側道路植樹帯","address":"平沼一丁目4番地4","city":"吉川市","number":"1-7"}, 
 {"id":"65e1bec4-cbfc-4711-9997-e34b3eba1e8c","lat":35.85537540,"long":139.86988270,"status":"done","name":"彦成中学校東側入口左フェンス","address":"彦成4-5-16","city":"三郷市","number":"30-4"}, 
 {"id":"65e86c42-7576-4325-bca2-22426f6fb611","lat":35.76294160,"long":139.56076480,"status":"done","name":"第五中学校体育館北側フェンス(武野通り側)","address":"野寺四丁目8番1号","city":"新座市","number":"17-4"}, 
 {"id":"65e98506-b645-4465-b281-be6ac1c78993","lat":36.17259610,"long":139.53355920,"status":"done","name":"毘沙門堂南","address":"西1丁目13番地","city":"羽生市","number":"8-1"}, 
 {"id":"65eb5e36-3239-4b3b-96a7-eeabe092dde1","lat":35.99723100,"long":139.23570300,"status":"done","name":"とき庵西側","address":"大字西平757-1","city":"ときがわ町","number":"7-1"}, 
 {"id":"65f8ef62-a2de-4943-bf83-6cab43b68fe7","lat":36.17651980,"long":139.53218230,"status":"not_yet","name":"羽生市立西中学校北東側フェンス","address":"大字羽生120番地地先","city":"羽生市","number":"2-7"}, 
 {"id":"65fcb3de-e9f0-42a4-b1d1-1bd9a9416b26","lat":36.03648020,"long":139.68021730,"status":"done","name":"天満神社","address":"高岩1616-1","city":"白岡市","number":"15-3"}, 
 {"id":"65fce8f4-3f58-405d-a416-da2e74f8c0a4","lat":35.81467400,"long":139.73072800,"status":"done","name":"朝日町北公園南側附近","address":"朝日2-3","city":"川口市","number":"9-7"}, 
 {"id":"65ff7adb-57a9-45df-9482-c5320cbe473b","lat":35.81770198,"long":139.78316960,"status":"done","name":"新里小学校南側[フェンス]","address":"新里町759","city":"草加市","number":"6-4"}, 
 {"id":"6600a735-1384-4f05-975d-b6fc1ba9f52c","lat":35.98040400,"long":139.65420500,"status":"done","name":"駅前団地東側道路沿いフェンス(カ-ブミラ-脇)","address":"東5-8","city":"蓮田市","number":"13-5"}, 
 {"id":"6611e7ad-5cf2-4553-9374-b2f8666e03a3","lat":35.90072318,"long":139.70452415,"status":"done","name":"市立野田小学校正門南側","address":"緑区大字上野田16番地","city":"さいたま市","number":"9-3-1"}, 
 {"id":"6617077c-fff8-448f-a657-36b509d54abc","lat":35.84508255,"long":139.82601556,"status":"done","name":"青柳公園東側[フェンス]","address":"青柳2-5","city":"草加市","number":"50-1"}, 
 {"id":"6625389e-3198-4580-8ce8-37da1a84f6b8","lat":36.13137430,"long":139.40171580,"status":"done","name":"熊谷外科病院南側畑","address":"佐谷田3800番地3","city":"熊谷市","number":"14-5"}, 
 {"id":"662a98b7-8b8d-4000-b7bb-c3b61f213c3d","lat":36.04102000,"long":139.40463300,"status":"done","name":"市役所立体駐車場北側","address":"材木町1番24号","city":"東松山市","number":"2-3"}, 
 {"id":"662b3d87-aa00-4a84-8111-91fc7b0abcee","lat":36.01248690,"long":139.04114030,"status":"done","name":"泉竜院","address":"長留312番地","city":"小鹿野町","number":"3-1"}, 
 {"id":"66312622-e064-4cac-bc0d-633a6b87e15e","lat":35.89380600,"long":139.76373300,"status":"done","name":"大西物流(株)倉庫フェンス","address":"神明町3-390-2","city":"越谷市","number":"34-6"}, 
 {"id":"6634c0e5-4ebb-49a7-997a-ce9807869c44","lat":35.83967480,"long":139.58961590,"status":"done","name":"宗岡小学校裏（フェンス）","address":"中宗岡3－1","city":"志木市","number":"11-1"}, 
 {"id":"663673bc-a9e6-47ae-8bcd-1eb23fb4e38b","lat":36.17919660,"long":139.54197200,"status":"not_yet","name":"栃木東公園西側フェンス","address":"東3丁目19番地","city":"羽生市","number":"4-3"}, 
 {"id":"6636ef03-8108-4224-a54b-f6945e00ab8d","lat":35.84546897,"long":139.63312861,"status":"done","name":"田島公民館西側フェンス","address":"桜区田島3丁目27番6号","city":"さいたま市","number":"6-16-3"}, 
 {"id":"663bc639-1021-405a-9557-2746d3f861dd","lat":35.87181139,"long":139.61762624,"status":"done","name":"上峰ふれあい公園東側植え込み","address":"中央区上峰1丁目13番","city":"さいたま市","number":"5-14-6"}, 
 {"id":"663db2cf-71d2-4d77-aa09-457d7900bdae","lat":35.96926500,"long":139.43324780,"status":"done","name":"青木バス停留所前","address":"大字青木884番地1","city":"坂戸市","number":"2-8"}, 
 {"id":"6646ec54-dbef-4327-9349-9e59a6ab6d19","lat":35.90094000,"long":139.79438800,"status":"done","name":"中央中学校南側フェンス","address":"宮前1-18-1","city":"越谷市","number":"59-8"}, 
 {"id":"664e9d1d-2b8f-43c6-aef8-6f0fb4b85a96","lat":36.12448800,"long":139.47332040,"status":"done","name":"行田市斎場南側","address":"佐間1751","city":"行田市","number":"8-4"}, 
 {"id":"6655de44-518e-48d6-88f6-8f3ec375b749","lat":35.78352830,"long":139.44587860,"status":"done","name":"岩崎上町自治会館西側","address":"山口689","city":"所沢市","number":"49-2"}, 
 {"id":"666c13a1-48c0-472d-bbc8-eaf2cc001ac4","lat":35.81021500,"long":139.74243200,"status":"done","name":"朝日西小学校北側附近","address":"朝日4-17-12","city":"川口市","number":"10-7"}, 
 {"id":"667b7bfd-12bd-4a91-9a97-b1d3e704f786","lat":35.79527070,"long":139.59142410,"status":"done","name":"青葉台公園","address":"大字膝折2","city":"朝霞市","number":"15-2"}, 
 {"id":"6680b91d-9fc7-48af-ac9b-92b1add12f4b","lat":35.85471370,"long":139.50780020,"status":"done","name":"ひばり台子ども広場","address":"桜ヶ丘1丁目4番","city":"ふじみ野市","number":"23-4"}, 
 {"id":"668d8c4e-a6c5-464b-bf0d-2b3b94ba572f","lat":35.98462020,"long":139.76960000,"status":"done","name":"水防倉庫敷地前道路フェンス","address":"牛島336番地先","city":"春日部市","number":"24-3"}, 
 {"id":"669807d4-131e-48f7-bd31-bab758d8bbdd","lat":35.81543030,"long":139.64926090,"status":"done","name":"笹目コミュニティセンター西側","address":"笹目3丁目12-1","city":"戸田市","number":"17-6"}, 
 {"id":"669a8a5f-8968-4be2-888c-8fc61f62b17d","lat":35.87405980,"long":139.51238500,"status":"done","name":"上福岡東口ロ-タリ-歩道橋下","address":"上福岡1丁目6番","city":"ふじみ野市","number":"10-5"}, 
 {"id":"66a28073-b47d-4251-9579-6802e4bc7a01","lat":35.86423640,"long":139.28438440,"status":"done","name":"吾妻大橋南側","address":"大字小岩井21-1","city":"飯能市","number":"7-1"}, 
 {"id":"66a4d57d-e866-49bc-a3c5-73ca4807360c","lat":36.03559260,"long":139.29565720,"status":"done","name":"遠山集会所町道側","address":"比企郡嵐山町遠山 １４４番地","city":"嵐山町","number":"4-7"}, 
 {"id":"66a5bea5-2316-4a3f-8bee-0f5ba0181c65","lat":35.81002800,"long":139.72200000,"status":"done","name":"青木中央小学校附近","address":"中青木2-21-5","city":"川口市","number":"32-7"}, 
 {"id":"66a6c1cc-4cd3-4d47-88d0-302e749f9e04","lat":36.04037900,"long":139.19085700,"status":"not_yet","name":"フィッシングセンタ-跡地前","address":"大字御堂1399-2","city":"東秩父村","number":"2-8"}, 
 {"id":"66a7a777-a66e-4bf4-bbb2-41d516b31e33","lat":35.94950830,"long":139.77535650,"status":"done","name":"民家北側ブロック塀","address":"備後東6丁目13番1号","city":"春日部市","number":"34-5"}, 
 {"id":"66ab5830-9702-4e2e-80ec-d87ceb816d57","lat":36.05212000,"long":139.52934000,"status":"done","name":"桜国屋駐車場北側入口右側","address":"深井7丁目228番地","city":"北本市","number":"4-6"}, 
 {"id":"66ac6f1a-8203-4de7-b089-bf862919cf38","lat":35.98507630,"long":139.76680600,"status":"done","name":"東中学校正門横ふじ墓苑塀","address":"樋堀181番地1","city":"春日部市","number":"24-4"}, 
 {"id":"66ae39dc-a6a0-451a-81d1-10b984754372","lat":35.87257020,"long":139.52367800,"status":"done","name":"富士見台第1公園","address":"富士見台671番","city":"ふじみ野市","number":"4-3"}, 
 {"id":"66b5e63a-cd5c-45ea-b547-501ad35d6453","lat":35.80687300,"long":139.69897500,"status":"done","name":"ララガ-デン北側附近","address":"西川口6-18","city":"川口市","number":"27-5"}, 
 {"id":"66b6edf0-b4c5-4d21-83a4-dfd049c80c4b","lat":36.03564230,"long":139.44584220,"status":"done","name":"久米田バス停前","address":"久米田194番地8","city":"吉見町","number":"6-7"}, 
 {"id":"66b7cd95-637d-46cb-bc33-259f59bdf793","lat":36.15276530,"long":139.67441570,"status":"done","name":"鷲神社南側ブロック塀","address":"外記新田14","city":"加須市","number":"55-6"}, 
 {"id":"66bc6eae-0024-42c4-bf7b-318e92461e3d","lat":35.79288600,"long":139.59731210,"status":"done","name":"図書館駐車場フェンス","address":"本町3-5","city":"朝霞市","number":"14-6"}, 
 {"id":"66be1a41-1205-435c-b6d3-4f6696b4d982","lat":35.80449390,"long":139.69198930,"status":"done","name":"戸田第二小学校北側(バス停前)","address":"喜沢南2丁目2-37","city":"戸田市","number":"6-7"}, 
 {"id":"66c1286d-e915-4b09-a46f-c31ddb7c3fc4","lat":35.95430799,"long":139.62184386,"status":"done","name":"masked","address":"北区今羽町244番地2","city":"さいたま市","number":"2-3-3"}, 
 {"id":"66c7e514-c212-4008-8fe9-636b1a13f683","lat":35.82499512,"long":139.80331144,"status":"done","name":"高架下駐輪場南側(高架下フェンス)[フェンス]","address":"高砂1-12","city":"草加市","number":"12-4"}, 
 {"id":"66cba533-5c4e-4e1d-95ef-42459f8c5c85","lat":35.77431060,"long":139.57283710,"status":"done","name":"県立新座高等学校テニスコート南側フェンス","address":"池田一丁目1番2号","city":"新座市","number":"28-7"}, 
 {"id":"66d1777a-1b88-4d10-9b01-64c28beaf9d6","lat":35.78302750,"long":139.57654330,"status":"done","name":"調整池西側フェンス(第1)","address":"馬場二丁目9番","city":"新座市","number":"4-6"}, 
 {"id":"66d4a840-8c2f-4d21-af74-f46ca502d697","lat":36.15943490,"long":139.40349750,"status":"done","name":"上之原山簡易児童公園 西側","address":"上之970番地16","city":"熊谷市","number":"12-7"}, 
 {"id":"66dbffe1-457a-404d-84bd-5dc1859fb27f","lat":35.79776690,"long":139.58187430,"status":"done","name":"東京電力(株)膝折変電所","address":"膝折町4-4-33","city":"朝霞市","number":"1-5"}, 
 {"id":"66f640ff-c9fc-4c01-858e-87da1ffd2f0d","lat":35.80571820,"long":139.82808470,"status":"done","name":"大曽根中公民館西側","address":"大字大曽根827","city":"八潮市","number":"14-4"}, 
 {"id":"66fd9404-ad2e-449e-89d4-e867e91882a0","lat":35.94755110,"long":138.91120250,"status":"not_yet","name":"大久保区 民家横 野立","address":"大滝1169-1","city":"秩父市","number":"27-2"}, 
 {"id":"66ff2007-c4ad-4839-aec3-d73edb5921a8","lat":35.97905800,"long":139.81620260,"status":"not_yet","name":"サイクルショップ東側ブロック塀","address":"米島961番地1","city":"春日部市","number":"49-5"}, 
 {"id":"67002ff2-4582-41c1-a8c4-2fb6339f6b48","lat":36.16698940,"long":139.14153940,"status":"not_yet","name":"秋山上組共同集荷所","address":"児玉町秋山213-1","city":"本庄市","number":"26-5"}, 
 {"id":"6701577e-afd0-4979-a08a-0355e78b41e8","lat":35.79721600,"long":139.44271380,"status":"done","name":"台公園南側","address":"上新井3-49","city":"所沢市","number":"43-7"}, 
 {"id":"670801ce-c6ee-4e0e-9786-1de56c65a45e","lat":36.07935200,"long":139.71560300,"status":"done","name":"日第41号踏切道側","address":"中4丁目6","city":"幸手市","number":"1-7"}, 
 {"id":"6708420f-6228-4716-8bec-fa6b5041b8db","lat":35.89108393,"long":139.62717625,"status":"done","name":"与野郵政宿舎6号棟東側フェンス","address":"中央区上落合2丁目7番6号","city":"さいたま市","number":"5-5-6"}, 
 {"id":"67084593-9d54-4e35-81bb-f8383c7f6afc","lat":36.12708570,"long":139.43819900,"status":"done","name":"棚田砂原公園","address":"棚田町3-8北側","city":"行田市","number":"4-7"}, 
 {"id":"670ad382-b9c7-4503-bb74-aca41115968d","lat":35.80760660,"long":139.42214010,"status":"done","name":"狭山ケ丘緑地　跨道橋　西側","address":"若狭1-2930","city":"所沢市","number":"36-6"}, 
 {"id":"670dc52c-18e4-4825-a03e-1d7992382dce","lat":35.88575673,"long":139.62580544,"status":"done","name":"法務局前交差点公園南東角","address":"中央区下落合4丁目73番地7","city":"さいたま市","number":"5-9-3"}, 
 {"id":"6715f009-1388-4872-a704-9447d7afa78e","lat":35.76754810,"long":139.62003680,"status":"done","name":"ENEOS和光白子店横植込み","address":"白子1-6","city":"和光市","number":"16-6"}, 
 {"id":"671f746e-df0d-4912-aa18-11a10e527476","lat":35.83456400,"long":139.69543500,"status":"done","name":"masked","address":"芝4-26-31","city":"川口市","number":"47-5"}, 
 {"id":"6729fa0a-530c-44a0-8ebc-3786b206a307","lat":36.03528800,"long":139.41528800,"status":"done","name":"六反町児童公園西側","address":"六反町12番地","city":"東松山市","number":"4-5"}, 
 {"id":"672b7ad5-34a9-48b4-80ff-68e667eff79a","lat":35.89933000,"long":139.79130600,"status":"done","name":"越ヶ谷高等学校南側フェンス","address":"越ヶ谷2788-1","city":"越谷市","number":"59-6"}, 
 {"id":"6735665b-6d23-46ae-a2c3-34f7bc6be2c7","lat":36.21186270,"long":139.16379030,"status":"not_yet","name":"道路用地","address":"児玉町下浅見633-6","city":"本庄市","number":"29-6"}, 
 {"id":"673956d0-a930-47ec-aa89-b0d52cee24af","lat":35.97433090,"long":139.75549460,"status":"done","name":"春日部市役所 北入口西側水路フェンス","address":"中央7丁目2番地1","city":"春日部市","number":"7-3"}, 
 {"id":"67397f84-012e-4562-b6fb-edecd4d2f487","lat":35.89582800,"long":139.77348300,"status":"done","name":"masked","address":"神明町1-118","city":"越谷市","number":"33-5"}, 
 {"id":"6740e534-2c84-4248-8164-15faed8b2b60","lat":35.96440380,"long":139.29386800,"status":"done","name":"中央公民館駐車場入口","address":"越生９１７番地１","city":"越生町","number":"1-1"}, 
 {"id":"6746ceff-ef24-4d9e-9b4b-8e05febaa817","lat":35.81621570,"long":139.46499290,"status":"done","name":"伸栄小学校東側","address":"中新井1-93-1","city":"所沢市","number":"27-2"}, 
 {"id":"67492f73-bb30-4a8d-a538-706911cab058","lat":35.84167690,"long":139.32659730,"status":"done","name":"加治小学校正門南側プール横フェンス","address":"大字川寺500-1","city":"飯能市","number":"14-6"}, 
 {"id":"674b3c79-9e23-4e8b-8aac-d0f61d889c8b","lat":36.01526600,"long":139.59375000,"status":"done","name":"西小針公園","address":"西小針五丁目106","city":"伊奈町","number":"9-3"}, 
 {"id":"674d3c39-c185-43bd-b16e-abf2a21d5025","lat":35.84161000,"long":139.76777600,"status":"done","name":"川口安行原団地附近","address":"安行原1258","city":"川口市","number":"76-6"}, 
 {"id":"674f7aee-8e4d-44d2-ae0a-dda79399e436","lat":35.93940053,"long":139.41190810,"status":"done","name":"まごころの家あゆみ藤金南側フェンス","address":"大字上広谷226番地3","city":"鶴ヶ島市","number":"5-3"}, 
 {"id":"67507dc0-abde-455e-ae7f-70350145fed6","lat":36.01567090,"long":139.66930920,"status":"done","name":"白岡郵便局前","address":"千駄野942-1","city":"白岡市","number":"14-3"}, 
 {"id":"67546236-c36d-4e49-ae82-e2899290694f","lat":35.86627985,"long":139.64797250,"status":"done","name":"NTT東日本常盤ビル北側フェンス","address":"浦和区常盤5丁目8番17号","city":"さいたま市","number":"7-21-6"}, 
 {"id":"67603095-6040-4bef-bc9b-7d96e22513c3","lat":36.00441290,"long":139.53499850,"status":"done","name":"民家前","address":"川田谷5927番地の1","city":"桶川市","number":"18-8"}, 
 {"id":"67638453-8daa-4309-9694-eca4d16f4adb","lat":35.87635790,"long":139.30326380,"status":"done","name":"岩の本公園","address":"武蔵台二丁目568番地86","city":"日高市","number":"17-3"}, 
 {"id":"676a8d3f-62f9-4b70-ac96-35d120785325","lat":35.78575050,"long":139.88234040,"status":"done","name":"住北側ブロック（ライフ看板側）","address":"高州2-446-1","city":"三郷市","number":"15-3"}, 
 {"id":"676c5c96-a2a9-44ac-81c5-6a9ff9e1df58","lat":35.86926124,"long":139.64240276,"status":"done","name":"浦和北公園西側","address":"浦和区常盤9丁目30番","city":"さいたま市","number":"7-17-4"}, 
 {"id":"677a4374-be6e-4755-9190-d9531caaf8d1","lat":35.96427570,"long":139.59563620,"status":"done","name":"西宮下三丁目シゲル公園西側","address":"西宮下三丁目12番地1","city":"上尾市","number":"33-7"}, 
 {"id":"67800a9c-2f88-4003-853a-46e935e6c693","lat":35.96419420,"long":139.29747740,"status":"done","name":"中央橋入口付近","address":"越生７６６番地１","city":"越生町","number":"1-2"}, 
 {"id":"67826141-73a4-4152-952c-6961696ac0f2","lat":36.12661920,"long":139.60832020,"status":"done","name":"睦町浄水場フェンス","address":"睦町1丁目12-20","city":"加須市","number":"8-7"}, 
 {"id":"67851d95-028a-4c2c-b93b-a56870ddfa47","lat":36.05064360,"long":139.72399710,"status":"done","name":"水路フェンス","address":"大字大島197番地2","city":"杉戸町","number":"3-5"}, 
 {"id":"678d7712-7b38-49bd-ba95-59cd66ac4397","lat":35.87945200,"long":139.41782550,"status":"done","name":"サンパーク奥富東側","address":"大字下奥富2552番地1","city":"狭山市","number":"24-8"}, 
 {"id":"678db032-1627-4868-8a09-3a6fe36fef55","lat":35.80905850,"long":139.44929020,"status":"done","name":"masked","address":"向陽町2104-18","city":"所沢市","number":"12-5"}, 
 {"id":"679567f2-fbe0-4fd7-ad8b-7da58566000a","lat":36.24476500,"long":139.17262260,"status":"done","name":"masked","address":"小島1-6","city":"本庄市","number":"14-1"}, 
 {"id":"67997a31-c846-479e-9f75-be97de3964c3","lat":35.92228430,"long":139.37154990,"status":"done","name":"有限会社サンメタル北東","address":"大字森戸新田8番地2","city":"日高市","number":"8-8"}, 
 {"id":"679a04bb-d5f8-4ace-9bbd-6518995f7870","lat":35.90360067,"long":139.65399180,"status":"done","name":"masked","address":"見沼区大字中川898番地","city":"さいたま市","number":"4-28-5"}, 
 {"id":"679e6fce-836b-4771-9264-1776ec484cda","lat":35.90964280,"long":139.42736730,"status":"done","name":"41-1","address":"大字的場589番地2","city":"川越市","number":"41-1"}, 
 {"id":"67a1a19f-8c05-4cc7-a4a3-6176bf44d942","lat":35.82551710,"long":139.55751100,"status":"done","name":"市民体育館","address":"館2－2","city":"志木市","number":"6-2"}, 
 {"id":"67a1a3bb-ef1c-4d66-840d-23fea13c417e","lat":35.93645070,"long":139.76677310,"status":"done","name":"武里第六公園西側フェンス","address":"千間1丁目99番地","city":"春日部市","number":"47-7"}, 
 {"id":"67ac6fc3-4fc2-4c15-830d-9c3193a71668","lat":35.86069610,"long":139.43496710,"status":"done","name":"1街区西側狭山台1丁目バス停","address":"狭山台1丁目31番地1","city":"狭山市","number":"11-4"}, 
 {"id":"67ae2a45-97fe-445f-8980-677af5dca47d","lat":35.96276090,"long":139.76374730,"status":"done","name":"円福寺一ノ割会館前石塀","address":"一ノ割1丁目30番17号","city":"春日部市","number":"37-4"}, 
 {"id":"67b5d9d8-ed26-44ac-9d8a-ca685773742a","lat":35.85539790,"long":139.30800200,"status":"done","name":"材木店西側","address":"大字大河原90-1","city":"飯能市","number":"6-1"}, 
 {"id":"67b5fd98-3aa9-40e6-aa86-18e2ad6a2eb3","lat":35.77928980,"long":139.46852780,"status":"done","name":"久米下組集会所東側","address":"久米1527-1","city":"所沢市","number":"58-4"}, 
 {"id":"67cb08b0-0f87-41e5-9dc4-aae2a32bcb95","lat":35.80841920,"long":139.84993520,"status":"done","name":"大瀬小学校南側入口フェンス","address":"大瀬三丁目9-1","city":"八潮市","number":"10-8"}, 
 {"id":"67d6ad21-6d58-4252-b077-be357f7bf626","lat":35.91370118,"long":139.61568417,"status":"done","name":"大成2丁目公園東側フェンス","address":"大宮区大成町2丁目176番地","city":"さいたま市","number":"3-1-2"}, 
 {"id":"67e0aa71-cd2e-4ddf-8146-ecbde5202717","lat":36.06537782,"long":139.66751420,"status":"done","name":"久喜高等学校南側","address":"本町3-12-1","city":"久喜市","number":"3-7"}, 
 {"id":"67e331ea-b74a-44c2-a417-14a22f205deb","lat":35.80885300,"long":139.71376000,"status":"done","name":"並木元町北公園北側附近","address":"並木元町1","city":"川口市","number":"24-2"}, 
 {"id":"67e33f46-4f4f-4b93-a948-941d388882d6","lat":35.81670316,"long":139.41454400,"status":"done","name":"東藤沢地区センター東側","address":"東藤沢3丁目19-19","city":"入間市","number":"22-4"}, 
 {"id":"67e5a29b-7fc1-4696-aedf-5723ddb365cf","lat":36.11707457,"long":139.70536520,"status":"done","name":"榎本技研前","address":"北広島1146-4","city":"久喜市","number":"31-4"}, 
 {"id":"67f3ec18-0461-48ec-a04a-1fd00d6ec798","lat":35.85594291,"long":139.67017365,"status":"done","name":"浦和競馬場南側フェンス","address":"南区大谷場1丁目8番","city":"さいたま市","number":"8-27-6"}, 
 {"id":"67f62315-a8dd-4ccb-a81d-8491674bca5a","lat":35.92643517,"long":139.62288599,"status":"done","name":"植竹北公園西側フェンス","address":"北区植竹町1丁目467番地","city":"さいたま市","number":"2-24-4"}, 
 {"id":"67f9a6f8-79e7-478c-b007-d635c2054049","lat":35.84369606,"long":139.67237769,"status":"done","name":"南浦和陸橋下北側フェンス","address":"南区文蔵1丁目6番","city":"さいたま市","number":"8-18-7"}, 
 {"id":"67ffbd36-6c26-4f00-818b-4ed758c9e15e","lat":35.91518440,"long":139.72656613,"status":"done","name":"城南中学校北側フェンス","address":"岩槻区大字笹久保577番地","city":"さいたま市","number":"10-15-5"}, 
 {"id":"68006df5-4c18-43d5-93a1-fb766961b0a6","lat":36.05273750,"long":139.78626080,"status":"done","name":"杉戸町環境センタ-入口","address":"大字目沼427番地2","city":"杉戸町","number":"15-2"}, 
 {"id":"6803bd15-8ed2-440a-86c9-5f4114a432e8","lat":35.76964090,"long":139.56205280,"status":"done","name":"中央公民館フェンス","address":"道場二丁目14番12号","city":"新座市","number":"5-7"}, 
 {"id":"6803e10c-4cc5-4e6f-a89d-f880dd5b2a8b","lat":36.06944000,"long":139.72609600,"status":"done","name":"中央公民館脇","address":"緑台2丁目1-7","city":"幸手市","number":"7-6"}, 
 {"id":"6809e013-a0d2-40d5-8b5d-d7cffbaa29d4","lat":35.91947590,"long":139.21217860,"status":"done","name":"国道299号沿い 宿泊施設手前退避スペース植栽","address":"大字吾野26-1","city":"飯能市","number":"24-2"}, 
 {"id":"680e184b-68de-4492-a5fa-81e17a8b36a2","lat":35.89250900,"long":139.57785000,"status":"done","name":"masked","address":"西区大字二ツ宮43番地2","city":"さいたま市","number":"1-17-7"}, 
 {"id":"6812ab70-ac3f-4bfd-bf53-83efc761a3b6","lat":35.85522890,"long":139.84836670,"status":"done","name":"彦成保育所入口右ブロック","address":"彦成2-278","city":"三郷市","number":"37-1"}, 
 {"id":"6817e400-83bc-48ad-9710-c3d5beeacfbb","lat":35.81884510,"long":139.87705760,"status":"done","name":"新和小学校南側入口右フェンス","address":"中央2-28","city":"三郷市","number":"10-2"}, 
 {"id":"681b13d9-0b1f-4caa-aa0a-b09e90e5d112","lat":35.83544980,"long":139.69123710,"status":"done","name":"民家附近","address":"芝2812-1","city":"川口市","number":"47-1"}, 
 {"id":"682243e3-7860-4717-a81d-43e9fcdda423","lat":35.97251420,"long":139.46632870,"status":"done","name":"上中バス停前","address":"比企郡川島町上伊草１９９４番地３","city":"川島町","number":"8-5"}, 
 {"id":"68245275-790e-47d6-990e-db34fa6af674","lat":36.04687900,"long":139.21582000,"status":"not_yet","name":"帯沢消防車庫脇","address":"大字安戸880-5","city":"東秩父村","number":"1-8"}, 
 {"id":"682592ec-ec1b-4608-aaf3-ea056e6fae08","lat":35.79544800,"long":139.75447100,"status":"done","name":"民家附近","address":"東領家3-10-11","city":"川口市","number":"15-7"}, 
 {"id":"682594f3-fb38-4ef3-971a-5999631e31ca","lat":36.03660330,"long":139.66933860,"status":"done","name":"中ノ宮公園西側植栽","address":"新白岡8丁目4","city":"白岡市","number":"4-5"}, 
 {"id":"682e5bed-233e-4e48-9a57-6814129ee68f","lat":35.85287810,"long":139.48554570,"status":"done","name":"34-8","address":"大字下赤坂628番地1","city":"川越市","number":"34-8"}, 
 {"id":"682e6298-d256-4799-b189-0ef15c955eaf","lat":36.12257900,"long":139.43274650,"status":"done","name":"真福寺東側","address":"棚田町1-29-7南側","city":"行田市","number":"5-5"}, 
 {"id":"6830020d-f5ba-49df-8be2-63dbd635f989","lat":35.86306000,"long":139.79087800,"status":"done","name":"西町二丁目自治会館前(グリーンベルト)フェンス","address":"蒲生西町2-8-8地先","city":"越谷市","number":"65-1"}, 
 {"id":"68319c84-6ff0-4950-a073-6bcc5407b92d","lat":35.92772520,"long":139.40364860,"status":"done","name":"鶴ヶ島農村センタ-南側敷地内","address":"大字太田ヶ谷740番地1","city":"鶴ヶ島市","number":"3-2"}, 
 {"id":"6831bfc7-110e-4c9f-8419-4f4a801915d0","lat":35.83045200,"long":139.68847700,"status":"done","name":"セブンイレブン川口芝樋ノ爪一丁目店附近","address":"芝樋ノ爪1-1","city":"川口市","number":"51-4"}, 
 {"id":"683c537d-4d85-4c89-867f-a2388831686c","lat":35.97400770,"long":139.74407310,"status":"done","name":"足利銀行春日部支店前道路フェンス","address":"中央3丁目10番7号","city":"春日部市","number":"11-6"}, 
 {"id":"6856b318-fb3e-4540-9150-6211b514ade2","lat":36.01657000,"long":139.51727000,"status":"done","name":"メディカルセンター入口交差点南東側畑地","address":"荒井3丁目176番地1","city":"北本市","number":"16-4"}, 
 {"id":"68677abc-d4bb-457b-948d-53cdb5e0835b","lat":35.81762350,"long":139.67790780,"status":"done","name":"戸田市役所正門","address":"上戸田1丁目18-1","city":"戸田市","number":"9-1"}, 
 {"id":"687357db-a585-4632-b4db-f3bdcc7febdc","lat":35.83501100,"long":139.68481400,"status":"done","name":"芝広面公園東側附近","address":"芝西1-5","city":"川口市","number":"51-1"}, 
 {"id":"68735ce6-025b-4396-85a2-cce2d7c4ea1d","lat":36.06040200,"long":139.72183300,"status":"done","name":"さかえ小学校裏","address":"栄2番90","city":"幸手市","number":"14-1"}, 
 {"id":"68777006-0f7e-41fd-87e8-021d34969122","lat":35.76154740,"long":139.55489960,"status":"done","name":"栗原二丁目児童遊園東側フェンス","address":"栗原二丁目4番","city":"新座市","number":"29-4"}, 
 {"id":"687798c8-66b5-4fdc-8597-170f07931119","lat":36.13794180,"long":139.46847660,"status":"done","name":"向町浄水場","address":"向町28-4北側","city":"行田市","number":"9-4"}, 
 {"id":"687fcd31-e42e-49f3-8ddb-461814cae683","lat":35.79281060,"long":139.45695840,"status":"done","name":"masked","address":"西所沢2-3-20","city":"所沢市","number":"6-8"}, 
 {"id":"6890acf3-7aa1-40b0-88b9-742721c58ee8","lat":36.02333000,"long":139.53177000,"status":"done","name":"旧中央保育所南側","address":"本町3丁目52番地","city":"北本市","number":"12-3"}, 
 {"id":"68993d19-af03-4a2f-a1bb-cbd9bdb069cf","lat":35.95006489,"long":139.62524254,"status":"done","name":"市立泰平小学校西側フェンス","address":"北区今羽町628番地","city":"さいたま市","number":"2-3-5"}, 
 {"id":"689abe5c-5915-48cb-85d3-93b5ec450548","lat":35.86348510,"long":139.52060020,"status":"done","name":"南むさしの公園東側","address":"ふじみ野西3-1","city":"富士見市","number":"4-8"}, 
 {"id":"689af598-4f9a-4706-99d7-cfa49efb440f","lat":36.24234820,"long":139.18167340,"status":"not_yet","name":"本庄西中学校 (テニスコート南側)","address":"千代田4-3-1","city":"本庄市","number":"1-5"}, 
 {"id":"689bdfe3-b8bd-4f96-9188-e375fa7d31c8","lat":35.88969903,"long":139.62775726,"status":"done","name":"北与野駅南西側遊歩道植え込み","address":"中央区上落合2丁目426番地","city":"さいたま市","number":"5-6-4"}, 
 {"id":"689deb59-127b-49dd-bfe7-d58fa506554e","lat":36.06025300,"long":139.25593600,"status":"done","name":"大塚コミュニティセンタ-前","address":"大字大塚897-1","city":"小川町","number":"3-3"}, 
 {"id":"68a093b4-5401-4ff3-bb57-762cf70d94a3","lat":35.81990400,"long":139.75251800,"status":"done","name":"新郷南小学校東側プ-ル附近","address":"江戸3-12-1","city":"川口市","number":"83-5"}, 
 {"id":"68a540fb-3ea4-4799-8cc3-cc83c584ba57","lat":35.85921460,"long":139.22756480,"status":"done","name":"唐竹自治会館南","address":"大字唐竹133-1先","city":"飯能市","number":"20-5"}, 
 {"id":"68af29b7-5f6d-4256-ad80-92c8cb2a0385","lat":35.92631443,"long":139.64597320,"status":"done","name":"大和田自治会館 正面フェンス","address":"見沼区大和田町1丁目396番地","city":"さいたま市","number":"4-14-2"}, 
 {"id":"68afc2f2-2a16-4aa9-8d00-deccd780fcc6","lat":35.98126850,"long":139.56373830,"status":"done","name":"水神公園北側","address":"泉台一丁目5番地","city":"上尾市","number":"38-5"}, 
 {"id":"68b3d4da-a67f-41f6-8f68-52a8acb59b29","lat":36.03876590,"long":139.03238390,"status":"done","name":"釜の上農園村交差点 野立","address":"下吉田3936-1","city":"秩父市","number":"22-2"}, 
 {"id":"68b6058c-dce8-4477-a584-55818af7a347","lat":35.96351087,"long":139.71195827,"status":"done","name":"東岩槻駅北口前フェンス","address":"岩槻区東岩槻1丁目12番地1","city":"さいたま市","number":"10-24-7"}, 
 {"id":"68b6aa52-130c-4d0b-91a2-fea6231efa14","lat":36.22776540,"long":139.17313460,"status":"done","name":"くるみ公園 (南側)","address":"緑3-6","city":"本庄市","number":"8-5"}, 
 {"id":"68ba2054-c6fd-41d5-8e28-02b3106a8998","lat":35.85655470,"long":139.85962590,"status":"done","name":"中央商店街連絡橋南側","address":"彦成3-7","city":"三郷市","number":"33-6"}, 
 {"id":"68bc0281-66cb-48e1-b772-688818b44e2e","lat":35.99131320,"long":139.08614020,"status":"done","name":"国道140号沿い庁用車駐車場(旧青木ビル隣) 野立","address":"熊木町 14-10","city":"秩父市","number":"2-2"}, 
 {"id":"68befdca-a94a-4abc-8ee7-3dd53db7f009","lat":35.81464400,"long":139.70123300,"status":"done","name":"西川口中公園南側附近","address":"西川口1-31","city":"川口市","number":"28-5"}, 
 {"id":"68c499e2-2c68-4d4d-8076-22d445412099","lat":35.91329090,"long":139.39614730,"status":"done","name":"45-7","address":"大字笠幡2450番地9","city":"川越市","number":"45-7"}, 
 {"id":"68caaf75-9f19-4dbc-81db-8695486a067c","lat":35.88004470,"long":139.88746660,"status":"done","name":"県道三郷松伏線東側路肩","address":"飯島30番地1","city":"吉川市","number":"8-1"}, 
 {"id":"68d107b0-7d53-4fd8-b0fa-40074b36755d","lat":36.08435700,"long":139.69857200,"status":"done","name":"ゆりのき通り突当たり市道739号","address":"香日向1丁目19","city":"幸手市","number":"5-6"}, 
 {"id":"68d3f6f5-0459-44dc-94b7-8d24bd1bffa1","lat":35.82126994,"long":139.79951274,"status":"done","name":"ひかわ保育園北側[フェンス]","address":"氷川町1803","city":"草加市","number":"38-7"}, 
 {"id":"68d667e2-8580-411c-b428-fd424ad6bc76","lat":35.98109670,"long":139.61526620,"status":"done","name":"上尾市サッカー場西側","address":"大字平塚536番地1","city":"上尾市","number":"31-2"}, 
 {"id":"68d71040-5dbc-4ff3-8d68-4febc1520eaa","lat":35.85571070,"long":139.34455630,"status":"done","name":"masked","address":"大字双柳1151-1先","city":"飯能市","number":"11-7"}, 
 {"id":"68d71db5-5289-426d-a873-6644bd2651e0","lat":35.86567231,"long":139.65256136,"status":"done","name":"JR東北本線線路沿いフェンス(線路西側、浦和駅から約900m北)","address":"浦和区常盤2丁目2番","city":"さいたま市","number":"7-21-8"}, 
 {"id":"68d850f2-2e40-45da-8ee9-e2b1c83e0ff1","lat":36.22107610,"long":139.16890330,"status":"not_yet","name":"masked","address":"四方田241","city":"本庄市","number":"20-2"}, 
 {"id":"68dd082d-36e9-4aa2-9c84-72f541c8eac2","lat":35.85857050,"long":139.43186060,"status":"done","name":"2街区公園西側","address":"狭山台2丁目1番地1","city":"狭山市","number":"11-5"}, 
 {"id":"68dedd00-011e-467f-a5fe-71440ea5d79b","lat":35.93089730,"long":139.57750590,"status":"done","name":"高木第二最終処分場水処理施設 南側フェンス","address":"西区西大宮4丁目25番地2","city":"さいたま市","number":"1-2-4"}, 
 {"id":"68e4f65c-6586-48d4-9555-d9ed66c4771c","lat":35.94155725,"long":139.66166212,"status":"done","name":"masked","address":"見沼区大字小深作262番地1","city":"さいたま市","number":"4-10-7"}, 
 {"id":"68edd317-a825-4d26-9ae6-3d2bee2aba1c","lat":35.94077150,"long":139.31032470,"status":"done","name":"毛呂山小学校校庭脇(図書館入口)","address":"岩井西4丁目2番地1先","city":"毛呂山町","number":"3-3"}, 
 {"id":"68efb87f-829d-46f8-9390-c71921de9ca6","lat":35.97525230,"long":139.72489120,"status":"done","name":"川面公園入口東側フェンス","address":"南中曽根262番地134","city":"春日部市","number":"19-5"}, 
 {"id":"68f061f5-3019-47fd-a9e4-d9f795162a49","lat":35.96695060,"long":139.57685800,"status":"done","name":"西中学校北側フェンス","address":"東今泉5番地1","city":"上尾市","number":"34-1"}, 
 {"id":"690745f7-9458-4e78-b696-dfb599a32466","lat":35.96912115,"long":139.70935804,"status":"done","name":"ひばり児童公園西側フェンス","address":"岩槻区諏訪2丁目4番地","city":"さいたま市","number":"10-23-5"}, 
 {"id":"691698c2-f784-43e8-bbe9-d1bce7ec8ed4","lat":35.88493651,"long":139.62747739,"status":"done","name":"下落合プール東側駐輪場フェンス","address":"中央区下落合5丁目11番10号","city":"さいたま市","number":"5-9-4"}, 
 {"id":"691858ba-98ee-4384-a2a1-e1e0cd3817f0","lat":35.99565110,"long":139.56620690,"status":"done","name":"民家向駐車場(民家脇)","address":"若宮2丁目16番","city":"桶川市","number":"5-7"}, 
 {"id":"691aeebd-888a-4d2b-aa02-5c72097a5545","lat":35.85790961,"long":139.79394188,"status":"done","name":"新田ミニコミュニティセンタ-東側[フェンス]","address":"金明町164-2","city":"草加市","number":"22-3"}, 
 {"id":"691ba4c0-4e54-46de-80f1-4fe1b1b2b8ba","lat":36.04245000,"long":139.25730900,"status":"not_yet","name":"民家前花集荷所南","address":"大字青山1529-1","city":"小川町","number":"16-1"}, 
 {"id":"691c2d48-32ff-482d-a7e3-18ebb9ccda73","lat":35.93441150,"long":139.34049950,"status":"done","name":"学園台中央公園","address":"大字下川原853番地5","city":"毛呂山町","number":"8-4"}, 
 {"id":"6930e455-3f9d-452c-a045-2a586486dec9","lat":36.20870780,"long":139.16313960,"status":"not_yet","name":"下浅見文化財収蔵庫","address":"児玉町下浅見867-11","city":"本庄市","number":"29-7"}, 
 {"id":"69323a99-cfe6-4917-a6dd-37b04dcfbca6","lat":35.92417920,"long":139.79825230,"status":"done","name":"masked","address":"向畑249-1地先","city":"越谷市","number":"8-3"}, 
 {"id":"693c0d67-017b-447f-b4da-9b9ab4e8ad43","lat":36.14786610,"long":139.39333470,"status":"done","name":"恩曽建材(株) 東側","address":"中西2丁目2番23号","city":"熊谷市","number":"30-6"}, 
 {"id":"693ea987-431f-45fb-a7cb-61dfa8eb203b","lat":35.91583594,"long":139.65471321,"status":"done","name":"南中丸集会所ゲートボール場入口横","address":"見沼区大字南中丸584番地","city":"さいたま市","number":"4-21-6"}, 
 {"id":"6941c8e1-9af1-45dd-a3d5-001c977e1ead","lat":35.97605170,"long":139.80949750,"status":"done","name":"外谷津第二公園南側生垣","address":"米島358番地222","city":"春日部市","number":"48-4"}, 
 {"id":"6945dc85-c739-4460-8c3e-68b17f5a2a31","lat":36.10609630,"long":139.65684270,"status":"done","name":"鳩山公園南側植込み","address":"鳩山町7","city":"加須市","number":"14-2"}, 
 {"id":"69467ee0-b1ef-4380-b310-43d876c68091","lat":35.81936300,"long":139.72482300,"status":"done","name":"オ-トレ-ス場附近","address":"青木5-21","city":"川口市","number":"35-3"}, 
 {"id":"69484bf8-1139-4fa2-b9df-b128d9dac5d1","lat":36.18711110,"long":139.12915880,"status":"done","name":"(有)清水自動車","address":"児玉町児玉342-1","city":"本庄市","number":"21-7"}, 
 {"id":"6948fb68-6f29-49f4-b564-360fd8b48850","lat":36.03878000,"long":139.17042500,"status":"done","name":"masked","address":"大字皆谷8-3","city":"東秩父村","number":"5-1"}, 
 {"id":"6950d432-f260-46ed-a66e-db7f278c2696","lat":36.11438578,"long":139.50954573,"status":"done","name":"川里ふれあいセンターフェンス","address":"広田3517番地3","city":"鴻巣市","number":"32-5"}, 
 {"id":"69525d71-16d7-4be1-92d3-1c28f5b22aeb","lat":36.17380870,"long":139.42830950,"status":"done","name":"河原神社","address":"南河原386","city":"行田市","number":"27-3"}, 
 {"id":"6952e5b1-a317-4c1e-8813-2d8aa7733d22","lat":36.10385630,"long":139.56201620,"status":"done","name":"民家北側フェンス","address":"下崎1280","city":"加須市","number":"35-5"}, 
 {"id":"69538aba-b925-4c9c-adde-ee93a941e2e5","lat":35.84613360,"long":139.25728670,"status":"done","name":"建築店南、直竹川沿いガードレール","address":"大字上直竹下分33-2先","city":"飯能市","number":"18-6"}, 
 {"id":"69547bc8-19a6-405b-9326-efd4772cfcbb","lat":35.76284210,"long":139.54837310,"status":"done","name":"民家裏ブロック塀","address":"栗原一丁目13番15号","city":"新座市","number":"23-5"}, 
 {"id":"6957fa17-1324-4209-8e81-ec07dcf611b0","lat":35.96705670,"long":139.74616600,"status":"done","name":"大沼第二公園南側防災倉庫前生垣","address":"大沼1丁目79番地","city":"春日部市","number":"12-6"}, 
 {"id":"696120b3-cadf-4039-a7b0-a4d94dcf310c","lat":35.97286770,"long":139.27227180,"status":"done","name":"梅園橋先Ｔ字路","address":"堂山５７番地１","city":"越生町","number":"5-3"}, 
 {"id":"6967d412-d6f0-4119-be1b-ebd049a68bdd","lat":35.91827980,"long":139.75446700,"status":"done","name":"県道越谷岩槻線しらこばと水上公園入口バス停沿いフェンス","address":"小曽川213-1地先","city":"越谷市","number":"26-4"}, 
 {"id":"69682ff6-da4e-485a-994f-d6d3f9c02ab0","lat":36.21774600,"long":139.23798970,"status":"not_yet","name":"masked","address":"岡3277","city":"深谷市","number":"22-2"}, 
 {"id":"696b91c1-8bf9-437d-ab69-750eb00decd3","lat":35.96359590,"long":139.04992920,"status":"not_yet","name":"東戸神社東側境内地 野立","address":"荒川上田野505","city":"秩父市","number":"32-4"}, 
 {"id":"696e204e-14d5-4686-a155-46fb3f71a833","lat":35.85683730,"long":139.86608060,"status":"done","name":"桜小学校北門右フェンス","address":"彦成4-5-16","city":"三郷市","number":"30-2"}, 
 {"id":"6971c02b-5ce1-4194-9c4b-6329d39ab03e","lat":35.85935060,"long":139.44992670,"status":"done","name":"農村環境改善センター","address":"大字堀兼360番地","city":"狭山市","number":"20-5"}, 
 {"id":"6973bb1c-e12e-4e14-b10b-9f622bb79eee","lat":35.98142170,"long":139.75242860,"status":"done","name":"写真館隣 神明神社入口右側","address":"粕壁1丁目8番","city":"春日部市","number":"8-4"}, 
 {"id":"697a50f5-1dd6-451d-a44c-66f56d6ac69f","lat":35.82858700,"long":139.74572800,"status":"done","name":"坂下町2丁目公園北側フェンス附近","address":"坂下町2-16","city":"川口市","number":"86-3"}, 
 {"id":"697c6075-d07f-4984-822a-992869cebcba","lat":35.95359790,"long":139.41167950,"status":"done","name":"富士見西児童公園西側敷地内","address":"富士見二丁目8番","city":"鶴ヶ島市","number":"10-1"}, 
 {"id":"69809a5a-e966-47be-b2b1-a75fbd461464","lat":35.80635870,"long":139.68584880,"status":"done","name":"民家前(川岸交差点)","address":"下前2丁目6-8","city":"戸田市","number":"7-6"}, 
 {"id":"69816d31-4413-4139-96ee-ec4a212c520d","lat":35.92545766,"long":139.72689497,"status":"done","name":"masked","address":"岩槻区大字黒谷636番地1","city":"さいたま市","number":"10-15-4"}, 
 {"id":"69819f49-1f23-4120-9675-c940ff8c212d","lat":36.02997600,"long":139.21263100,"status":"not_yet","name":"民家前","address":"大字腰越145-3","city":"小川町","number":"12-2"}, 
 {"id":"6983aedd-b0c4-4044-bd29-e32d3ddcb6c1","lat":35.85128096,"long":139.69339227,"status":"done","name":"円正寺第一公園西側フェンス","address":"南区大字円正寺508番地","city":"さいたま市","number":"8-33-7"}, 
 {"id":"698b9d03-278e-465e-86ff-cad5ac183615","lat":35.88407333,"long":139.62245928,"status":"done","name":"市立与野本町小学校北側フェンス","address":"中央区本町東3丁目5番23号","city":"さいたま市","number":"5-10-3"}, 
 {"id":"698ed425-1832-42ee-9fe4-579596a05385","lat":36.14053610,"long":139.30684670,"status":"not_yet","name":"masked","address":"川本明戸87-1","city":"深谷市","number":"26-8"}, 
 {"id":"6990e43d-0e5f-4d5a-98ee-8ddb5ba1e612","lat":35.79310980,"long":139.62084500,"status":"done","name":"朝霞装文社方フェンス","address":"新倉3-1-30","city":"和光市","number":"3-2"}, 
 {"id":"69922af8-5ffa-4d6d-b36e-587c838338be","lat":36.10422480,"long":139.58415880,"status":"done","name":"キャッスルきさい地内","address":"根古屋633-10","city":"加須市","number":"43-7"}, 
 {"id":"699986a9-69e0-4343-8fd7-630e84fdf233","lat":35.87450800,"long":139.78622400,"status":"done","name":"南越谷地区センター入口右側フェンス","address":"南越谷4-21-1","city":"越谷市","number":"38-1"}, 
 {"id":"69a3f0e2-0f27-4aed-87a6-920bf21ff643","lat":35.88351907,"long":139.62409276,"status":"done","name":"与野本町コミュニティセンター正門右側フェンス","address":"中央区本町東3丁目5番43号","city":"さいたま市","number":"5-10-1"}, 
 {"id":"69ac6799-7e7e-4b0a-9182-fa3870224c80","lat":35.93335962,"long":139.60013490,"status":"done","name":"上加自然の森北西角木柵","address":"北区日進町2丁目1499番地","city":"さいたま市","number":"2-9-6"}, 
 {"id":"69ad8c4f-1d95-4ebc-b7fe-5da5d2c4d7d3","lat":35.84902790,"long":139.53705790,"status":"done","name":"ユタカテニスクラブフェンス","address":"鶴瀬東2-22","city":"富士見市","number":"6-3"}, 
 {"id":"69b0f2dc-5543-428d-b558-24fbb7b6b701","lat":35.84924740,"long":139.55738090,"status":"done","name":"本郷中学校正門脇","address":"水子539","city":"富士見市","number":"19-2"}, 
 {"id":"69b4a621-7952-499f-bf19-2f4c09463c16","lat":35.85922490,"long":139.43500680,"status":"done","name":"2街区側狭山台2丁目バス停","address":"狭山台2丁目1番地1","city":"狭山市","number":"11-6"}, 
 {"id":"69b4be4d-4f49-4c6d-9ebd-2bcf32bd1bd3","lat":36.23514520,"long":139.37269000,"status":"done","name":"masked","address":"妻沼2589番地","city":"熊谷市","number":"39-4"}, 
 {"id":"69b54fdc-696c-40d9-b690-2a681402072c","lat":36.17617800,"long":139.54147440,"status":"done","name":"(有)東宝種苗店駐車場フェンス","address":"東3丁目1番30号","city":"羽生市","number":"4-5"}, 
 {"id":"69b8af11-8fd6-4840-a933-01760b5bd965","lat":36.00787700,"long":139.59393300,"status":"done","name":"伊奈町古民家入口","address":"大字小針新宿227-2","city":"伊奈町","number":"9-4"}, 
 {"id":"69c1e4f9-957b-4954-bb00-0b03338fc676","lat":35.98399390,"long":139.56862990,"status":"done","name":"宮前公園東側","address":"中妻三丁目16番地","city":"上尾市","number":"38-6"}, 
 {"id":"69c9cd47-4e8a-4353-9e54-418254e35622","lat":36.14580680,"long":139.36703120,"status":"done","name":"堤公園 南側","address":"赤城町2丁目120番地","city":"熊谷市","number":"9-6"}, 
 {"id":"69d3327c-0285-42df-a4f2-580a43d9641e","lat":35.92298550,"long":139.48909120,"status":"done","name":"3-2","address":"郭町1丁目21番地","city":"川越市","number":"3-2"}, 
 {"id":"69d75d40-d6dd-4dee-bba5-192f0f01d1fb","lat":35.93087306,"long":139.61142039,"status":"done","name":"松原東公園北側入口横水路フェンス","address":"北区日進町2丁目111番地1","city":"さいたま市","number":"2-18-2"}, 
 {"id":"69dda5c1-f425-409d-9dd9-69bca5587dbd","lat":36.02003000,"long":139.54331000,"status":"done","name":"県営中丸団地1号棟西向側(北本中央緑地)","address":"中丸1丁目7番地3","city":"北本市","number":"9-7"}, 
 {"id":"69e2d485-15ac-42c9-a02e-656f99eaeb4a","lat":35.94276709,"long":139.42456560,"status":"done","name":"民家前(大谷川沿)","address":"大字五味ヶ谷110番地6","city":"鶴ヶ島市","number":"4-6"}, 
 {"id":"69e4159b-97cb-4e44-9a2e-192813b0602d","lat":35.85921114,"long":139.64801864,"status":"done","name":"危機管理防災センター西側フェンス","address":"浦和区仲町3丁目5番8号","city":"さいたま市","number":"7-23-6"}, 
 {"id":"69e5a444-b67e-4b64-b4cd-94da01a0ae61","lat":35.84157982,"long":139.78370763,"status":"done","name":"寿橋北側(水路フェンス)[フェンス]","address":"北谷1-18-6","city":"草加市","number":"33-5"}, 
 {"id":"69e95163-a42e-478f-90b5-7f715c7402fb","lat":35.86349100,"long":139.81716900,"status":"done","name":"智泉院南公園フェンス","address":"川柳町4-188","city":"越谷市","number":"49-7"}, 
 {"id":"69f41a00-cbb4-4cde-b1af-8cfb2fad78d8","lat":35.89332210,"long":139.51289560,"status":"done","name":"22-2","address":"大字木野目1914番地16","city":"川越市","number":"22-2"}, 
 {"id":"6a0111f1-e00a-496f-a260-e8f8b21631ca","lat":36.09530590,"long":139.63096910,"status":"not_yet","name":"民家北側ブロック塀","address":"北辻731","city":"加須市","number":"20-1"}, 
 {"id":"6a025f1c-d695-4b82-9b5c-e72bbbbf8a58","lat":36.15055860,"long":139.59345020,"status":"done","name":"民家西側垣根","address":"下谷1316","city":"加須市","number":"6-5"}, 
 {"id":"6a0c31bc-905d-48aa-b5a3-f6e343c7d16d","lat":36.13065300,"long":139.43928500,"status":"done","name":"菊野台くじら公園","address":"持田3-18-20北側","city":"行田市","number":"4-2"}, 
 {"id":"6a0cad1b-2e1a-4948-84fd-7e6d00e4fe96","lat":35.98515110,"long":139.33212570,"status":"done","name":"中央庭球場脇","address":"熊井19番地１","city":"鳩山町","number":"3-6"}, 
 {"id":"6a0d7a85-3f8b-457c-ac61-7a9ee97276e0","lat":36.13695110,"long":139.58148430,"status":"done","name":"不動岡高校発祥之地公園フェンス","address":"不動岡3丁目27-5","city":"加須市","number":"5-5"}, 
 {"id":"6a0f0f83-a1d5-4148-b8e2-5c7bdad8ba15","lat":35.95453220,"long":139.63035450,"status":"done","name":"原市1番耕地公園西側","address":"大字原市3番地","city":"上尾市","number":"16-3"}, 
 {"id":"6a104c43-8a2c-4209-ab81-9ff6d8826ba5","lat":36.14896400,"long":139.29180900,"status":"not_yet","name":"善法寺 北側ブロック塀","address":"長在家1226","city":"深谷市","number":"27-4"}, 
 {"id":"6a12b2bc-d3f0-4d17-8e02-6d00c397ffee","lat":35.81384071,"long":139.81222953,"status":"done","name":"旧・瀬崎児童遊園西側(駐車場フェンス)[フェンス]","address":"瀬崎5-35","city":"草加市","number":"1-2"}, 
 {"id":"6a16e5bf-f837-42fd-a987-2de5db5103bd","lat":36.12609900,"long":139.46928400,"status":"not_yet","name":"いげた製菓南側","address":"佐間3-10-5北側","city":"行田市","number":"8-5"}, 
 {"id":"6a261e81-82b8-4b9e-9f17-a9b1a4eb1c53","lat":35.95649850,"long":139.64803340,"status":"done","name":"民家南側フェンス","address":"大字瓦葺2134番地","city":"上尾市","number":"18-8"}, 
 {"id":"6a2d767e-a856-48d9-b4d4-a2422ca6fa11","lat":35.90067032,"long":139.72245292,"status":"done","name":"市立美園北小学校南西側","address":"緑区美園2丁目12番地11","city":"さいたま市","number":"9-22-1"}, 
 {"id":"6a32f18f-f782-4fbd-9c21-381594d912bf","lat":35.88330406,"long":139.66252269,"status":"done","name":"大東公民館西側フェンス","address":"浦和区大東2丁目13番16号","city":"さいたま市","number":"7-9-1"}, 
 {"id":"6a3a1d4b-5502-4445-9b36-492d90d8e220","lat":36.18784300,"long":139.28878800,"status":"done","name":"空沢公園 東側フェンス","address":"緑ヶ丘10","city":"深谷市","number":"3-1"}, 
 {"id":"6a48134f-4d2f-4437-a24e-1ee2cd02559f","lat":35.95067551,"long":139.41827540,"status":"done","name":"栄小学校東側道路沿い","address":"富士見四丁目26番","city":"鶴ヶ島市","number":"9-6"}, 
 {"id":"6a50e162-41df-4eaf-9601-d1c3106d15a7","lat":35.98452400,"long":139.65490700,"status":"done","name":"JR線路沿い市道1号線北側市有地","address":"東1-6","city":"蓮田市","number":"11-1"}, 
 {"id":"6a76cc02-20aa-4d17-8c46-d7fca3cb2e1e","lat":35.78057820,"long":139.57366370,"status":"done","name":"馬場三丁目児童遊園地フェンス","address":"馬場三丁目3番","city":"新座市","number":"30-1"}, 
 {"id":"6a771713-78b0-407b-9762-eb6cf9df1dde","lat":35.95190580,"long":139.26313580,"status":"done","name":"下ヶ戸橋付近","address":"大満４０７番地１","city":"越生町","number":"6-3"}, 
 {"id":"6a7925c8-7dd9-4bf0-8c5b-bc724f096cb9","lat":35.86251889,"long":139.60554793,"status":"done","name":"埼玉大学国際交流会館4号館入口北側付近フェンス","address":"桜区大字下大久保640番地1先","city":"さいたま市","number":"6-7-4"}, 
 {"id":"6a7f1ef3-7a01-4168-9370-40b79590e5dd","lat":35.99000090,"long":138.97276860,"status":"done","name":"両神11区集会所前","address":"両神小森1554番地1","city":"小鹿野町","number":"9-6"}, 
 {"id":"6a7f6e57-5887-40bd-9b6f-22dd46170488","lat":35.87940119,"long":139.63955614,"status":"done","name":"市立常盤北小学校東側フェンス","address":"浦和区針ヶ谷4丁目2番12号","city":"さいたま市","number":"7-5-7"}, 
 {"id":"6a876802-c9fb-4fe0-a99e-865d52de0b35","lat":35.86213220,"long":139.52661740,"status":"done","name":"プランタン21ビル前","address":"ふじみ野東1-12-14","city":"富士見市","number":"3-6"}, 
 {"id":"6a8a116b-9e15-4a24-8cec-cd6af2d00946","lat":35.97159660,"long":139.75839650,"status":"done","name":"JA南彩春日部支店駐車場敷地北側フェンス","address":"南2丁目4番地30号","city":"春日部市","number":"6-7"}, 
 {"id":"6aa0732b-40d0-4aaf-8a2c-388ea3b64aa9","lat":35.93533478,"long":139.60872783,"status":"done","name":"うねうね公園北側入口付近 鉄塔横","address":"北区日進町2丁目1916番地2他","city":"さいたま市","number":"2-9-8"}, 
 {"id":"6aa1006d-8991-4761-a0b3-242a333f9ebb","lat":35.95317850,"long":139.56040110,"status":"done","name":"西上尾第二団地2街区20号棟西側","address":"大字小敷谷77番地1","city":"上尾市","number":"12-2"}, 
 {"id":"6aa53637-d599-4895-88aa-f8569c400d0a","lat":35.97974358,"long":139.72512536,"status":"done","name":"三角公園向かい側堤防跡(岩槻ゴルフセンター西側)","address":"岩槻区大字小溝97番地138","city":"さいたま市","number":"10-22-3"}, 
 {"id":"6aab5dc8-309e-431a-89df-2328352b2c85","lat":35.84759340,"long":139.88647760,"status":"done","name":"めじろ公園北側入口右","address":"早稲田1-15","city":"三郷市","number":"6-6"}, 
 {"id":"6aab8ef2-e4a9-4137-83eb-4903aced3728","lat":35.87617443,"long":139.61385166,"status":"done","name":"アパート西側水路フェンス","address":"桜区大字神田764","city":"さいたま市","number":"6-3-8"}, 
 {"id":"6ab6029b-e276-413a-b12a-9ebd46af6ffc","lat":35.85491810,"long":139.86392000,"status":"done","name":"さくら保育所南側フェンス","address":"彦成4-4","city":"三郷市","number":"31-2"}, 
 {"id":"6ab901dd-5b44-4039-bdd6-8a1028843bc8","lat":35.90811656,"long":139.70102300,"status":"done","name":"さぎ山記念公園東側入口","address":"緑区大字南部領辻3591番地","city":"さいたま市","number":"9-3-8"}, 
 {"id":"6abcdb9e-7a25-4f0b-bf12-2b0aa05eb2f5","lat":35.86129370,"long":139.18700150,"status":"done","name":"あすなろ会館グラウンド 第11分団詰所横フェンス","address":"大字下名栗861-6","city":"飯能市","number":"27-4"}, 
 {"id":"6ac35ca0-7dc8-49b3-9e96-f309a70c011b","lat":35.90753900,"long":139.57820100,"status":"done","name":"プラザ中央公園 南側フェンス","address":"西区プラザ754番28号","city":"さいたま市","number":"1-10-6"}, 
 {"id":"6acc30a4-4d2c-4b8d-b307-4709bd23ab1e","lat":36.18263720,"long":139.43785570,"status":"done","name":"つどいの広場みなみかわら南側","address":"南河原2610南側","city":"行田市","number":"27-6"}, 
 {"id":"6acd0b95-1913-4f73-967b-9eb5543d5692","lat":35.87699310,"long":139.78300350,"status":"done","name":"富士中学校西側駐車場木柵(木杭)","address":"新越谷1-85","city":"越谷市","number":"69-1"}, 
 {"id":"6aceb847-d1bf-40d8-8a44-7aeaf55d2e3b","lat":36.23426580,"long":139.35331380,"status":"done","name":"旧男沼小学校 南側フェンス","address":"妻沼台137番地1","city":"熊谷市","number":"42-4"}, 
 {"id":"6ad88079-b190-4aa8-9696-302f466eaafa","lat":36.11808350,"long":139.53403220,"status":"done","name":"民家北側(県道側)ブロック","address":"外田ケ谷546","city":"加須市","number":"38-5"}, 
 {"id":"6ada1525-9d9a-47a3-bafd-f03ba16d1f81","lat":35.89054541,"long":139.67798269,"status":"done","name":"さいたま市立病院南側フェンス","address":"緑区大字三室2460番地1","city":"さいたま市","number":"9-2-6"}, 
 {"id":"6ae2cc39-fbcd-47cb-a835-ae51993b6321","lat":36.05985039,"long":139.50712384,"status":"done","name":"JR側フェンス","address":"大間4丁目9番17号","city":"鴻巣市","number":"11-2"}, 
 {"id":"6aed740b-410a-4871-8335-329778d0abc5","lat":36.03145000,"long":139.52826000,"status":"done","name":"西高尾1丁目公園(西高尾バス停脇)","address":"西高尾1丁目160番地2","city":"北本市","number":"13-4"}, 
 {"id":"6af7dbac-c17f-4be0-b188-bd25082726a8","lat":35.80109000,"long":139.71519500,"status":"done","name":"コモディ　イイダ　川口リプレ店附近","address":"川口3-3-2","city":"川口市","number":"19-2"}, 
 {"id":"6afb002b-e31b-493d-a60f-527e3169d6a6","lat":35.84302980,"long":139.52870310,"status":"done","name":"桑村整骨院前駐車場","address":"大字藤久保82番地2","city":"三芳町","number":"5-6"}, 
 {"id":"6b046e38-9573-4192-bc06-660268bbc7d9","lat":36.03600300,"long":139.58003440,"status":"done","name":"栢間小学校正門向い","address":"菖蒲町下栢間2720","city":"久喜市","number":"25-5"}, 
 {"id":"6b08efe6-8f56-4030-928c-83d3b1199305","lat":36.26560646,"long":139.13366373,"status":"done","name":"賀美公民館北側","address":"金久保693-1","city":"上里町","number":"1-4"}, 
 {"id":"6b0a3f98-3a71-4777-8682-fed733eec177","lat":36.10616154,"long":139.44879101,"status":"done","name":"高齢者福祉センターコスモスの家フェンス","address":"吹上本町5丁目4番7号","city":"鴻巣市","number":"25-3"}, 
 {"id":"6b0afa81-b7bf-4e03-ae36-6944b88b9c9a","lat":36.11499140,"long":139.57841260,"status":"done","name":"高柳コミュニティセンター南側","address":"日出安1395","city":"加須市","number":"45-7"}, 
 {"id":"6b0ca590-0b0c-4e29-9634-2fcd9bf499fc","lat":35.91523640,"long":139.78854380,"status":"done","name":"大沢北小学校北側フェンス","address":"大林580","city":"越谷市","number":"25-1"}, 
 {"id":"6b165f93-799a-47c0-88ab-93ee408bcfbe","lat":36.16736450,"long":139.64941090,"status":"done","name":"民家北東フェンス","address":"弥兵衛292-1","city":"加須市","number":"58-1"}, 
 {"id":"6b17a3d9-2e01-4842-b23b-6d9eda60ba19","lat":36.01750240,"long":139.57150480,"status":"done","name":"おけがわ団地(2)公園(東側)","address":"坂田971番地の250","city":"桶川市","number":"13-2"}, 
 {"id":"6b25bef5-354b-4158-bf9b-1a63061e96bd","lat":35.88055582,"long":139.60900474,"status":"done","name":"八王子野球場東側","address":"中央区八王子4丁目338番地1","city":"さいたま市","number":"5-13-2"}, 
 {"id":"6b263b87-c459-4af2-855f-6f4c12de1031","lat":36.09166400,"long":139.56286960,"status":"done","name":"民家北側","address":"戸室227","city":"加須市","number":"41-3"}, 
 {"id":"6b2bdd26-0bc7-422f-a464-a1f33b192092","lat":35.79954950,"long":139.45425050,"status":"done","name":"上新井西公園西側","address":"けやき台1-5-1","city":"所沢市","number":"15-7"}, 
 {"id":"6b2d2bfb-23fb-416c-a1e4-9729ebd7bf2d","lat":35.77620400,"long":139.54350160,"status":"done","name":"バス停『西堀』横芝畑","address":"西堀三丁目3番","city":"新座市","number":"35-4"}, 
 {"id":"6b317716-b066-4943-95f8-a483f398c11a","lat":35.86898970,"long":139.85869970,"status":"done","name":"吉川美南駅東口ロ-タリ-駐輪場フェンス","address":"中曽根917番地1","city":"吉川市","number":"16-5"}, 
 {"id":"6b3d9872-6749-4046-9d64-03b57e8c0cea","lat":36.03680190,"long":139.40144380,"status":"done","name":"箭弓町広場(ピオパーク)南側(植え込み)","address":"箭弓町1丁目5258番地1","city":"東松山市","number":"3-7"}, 
 {"id":"6b3f25c4-d428-432a-aecf-74ffab5cf44d","lat":36.20581230,"long":139.65876550,"status":"done","name":"柿沼ストア前(ポケットパーク脇)","address":"柳生2817-1","city":"加須市","number":"49-5"}, 
 {"id":"6b40b974-fac8-4f8e-a077-4e9a01c3884c","lat":36.05521093,"long":139.50944394,"status":"done","name":"ブロック塀","address":"逆川2丁目5番2号","city":"鴻巣市","number":"17-3"}, 
 {"id":"6b42e6b8-85c2-4669-9ea3-c123813c8e91","lat":35.80570600,"long":139.71838400,"status":"done","name":"幸栄公民館入口附近","address":"幸町3-8-33","city":"川口市","number":"2-1"}, 
 {"id":"6b46f96c-8d85-4b8a-a8be-54814c404d5a","lat":35.81785330,"long":139.76512810,"status":"done","name":"新郷スポ-ツセンタ-附近","address":"東本郷80","city":"川口市","number":"82-3"}, 
 {"id":"6b500fd5-9250-4131-9498-16ed2e85a89d","lat":35.88404100,"long":139.76866100,"status":"done","name":"越谷総合技術高校東側フェンス","address":"谷中町3-100-1","city":"越谷市","number":"35-5"}, 
 {"id":"6b5041d0-bcf8-4170-8b5b-77ebe938bc16","lat":35.85796000,"long":139.75575300,"status":"done","name":"安行藤八団地緑道遊水池広場南側附近","address":"安行藤八840-10","city":"川口市","number":"73-7"}, 
 {"id":"6b50c586-8013-4984-8904-4397a38883d8","lat":35.94496452,"long":139.71290187,"status":"done","name":"東急団地公園北側","address":"岩槻区府内2丁目4番(923番地6)","city":"さいたま市","number":"10-10-7"}, 
 {"id":"6b55deb9-7753-466c-8d87-9b75ad04d440","lat":35.94381690,"long":139.77021890,"status":"done","name":"武里南小学校正門左側フェンス","address":"大枝89番地 武里団地","city":"春日部市","number":"43-2"}, 
 {"id":"6b5c8f3b-ff85-4e4b-b14d-e60672548e4a","lat":35.81825880,"long":139.51496890,"status":"done","name":"masked","address":"大字上富866番地","city":"三芳町","number":"2-7"}, 
 {"id":"6b617422-b900-4401-bce9-4525ca509f61","lat":36.15340530,"long":139.20097220,"status":"done","name":"用土駅南側フェンス","address":"用土1721番地2","city":"寄居町","number":"15-2"}, 
 {"id":"6b63757d-ec18-4561-b614-14cd5555db41","lat":36.00164390,"long":139.43925350,"status":"done","name":"民家東","address":"比企郡川島町正直７３２番地１ 地先","city":"川島町","number":"1-7"}, 
 {"id":"6b74754d-4c34-4309-9bf3-e673926f76b9","lat":36.22999880,"long":139.24274550,"status":"done","name":"masked","address":"滝瀬1216-1","city":"本庄市","number":"10-8"}, 
 {"id":"6b750bcb-62b4-44ac-b4ad-f84be120e3a5","lat":35.95386620,"long":139.30753990,"status":"done","name":"久保公園前","address":"上野東３丁目１番地３","city":"越生町","number":"2-7"}, 
 {"id":"6b774333-4229-4de8-9e6f-16f01b33b3d9","lat":35.81660440,"long":139.57665440,"status":"done","name":"第一高橋コーポ前(境久保バス停前)","address":"三原2-17-21","city":"朝霞市","number":"11-1"}, 
 {"id":"6b7a04d4-e0b6-4de8-bb5c-dfa19793167a","lat":36.00068060,"long":139.33363870,"status":"done","name":"民家前","address":"奥田５６番地","city":"鳩山町","number":"2-1"}, 
 {"id":"6b82408a-4dae-4b42-9e0b-7b7b140293e4","lat":35.92087270,"long":139.49442630,"status":"done","name":"3-8","address":"小仙波町2丁目49番地1","city":"川越市","number":"3-8"}, 
 {"id":"6b84d8a4-fce9-4dc5-8514-f158970c140a","lat":36.19611850,"long":139.30329320,"status":"not_yet","name":"やよい公園 西側フェンス","address":"常盤町80","city":"深谷市","number":"16-6"}, 
 {"id":"6b89100a-1ce5-4dfa-83f1-1d4ae14416ac","lat":35.86045460,"long":139.49843470,"status":"done","name":"緑ケ丘緑地","address":"緑ヶ丘2丁目21番","city":"ふじみ野市","number":"22-1"}, 
 {"id":"6b8b0054-2870-4c04-a874-759861906208","lat":35.84315220,"long":139.23301650,"status":"done","name":"バス停「間野黒指」先","address":"大字上直竹上分267","city":"飯能市","number":"18-8"}, 
 {"id":"6b95e5ea-a525-47ac-ad47-9c8d540f1996","lat":36.19805660,"long":139.08366110,"status":"done","name":"青柳駐在所東","address":"神川町二ノ宮７９－３","city":"神川町","number":"6-5"}, 
 {"id":"6b97cbd2-f17d-450d-8d9e-eaebd3c4dd9e","lat":35.87565140,"long":139.52816020,"status":"done","name":"上福岡歴史民俗資料館","address":"長宮1丁目2番地","city":"ふじみ野市","number":"1-3"}, 
 {"id":"6b9aa295-098d-4c63-b5b7-2516df6a2645","lat":35.81499999,"long":139.80666842,"status":"done","name":"瀬崎小学校正門東側[フェンス]","address":"瀬崎2-32-1","city":"草加市","number":"40-4"}, 
 {"id":"6b9e4f89-4f95-48a4-b034-39db87ec2738","lat":35.94380660,"long":139.47050170,"status":"done","name":"55-4","address":"大字寺山622番地","city":"川越市","number":"55-4"}, 
 {"id":"6ba7ee2b-72ad-4a69-8e64-3e7df69122f1","lat":35.84111501,"long":139.67519719,"status":"done","name":"六辻水辺公園南側水路柵","address":"南区文蔵3丁目3番1号先","city":"さいたま市","number":"8-24-5"}, 
 {"id":"6ba90a3a-3094-4161-8762-deaba97817d1","lat":35.78111540,"long":139.49354630,"status":"done","name":"松戸橋公園　東側","address":"上安松97-1","city":"所沢市","number":"21-3"}, 
 {"id":"6bb38389-4452-45e1-aa68-9fbb52436386","lat":35.93396750,"long":139.33454490,"status":"done","name":"遊水池前","address":"西坂戸二丁目1番地","city":"坂戸市","number":"18-5"}, 
 {"id":"6bb41d76-8733-4f66-88ec-5705a666edc3","lat":36.25926480,"long":139.17408050,"status":"not_yet","name":"正観寺 (西側道路)","address":"都島864","city":"本庄市","number":"13-1"}, 
 {"id":"6bb6cdda-20c2-4c26-ad2c-53de69651b63","lat":35.92495170,"long":139.48543490,"status":"done","name":"1-1","address":"元町1丁目3番地1","city":"川越市","number":"1-1"}, 
 {"id":"6bc861f5-5618-43ed-874b-5afd97a9ad8b","lat":35.91708270,"long":139.48789330,"status":"done","name":"4-2","address":"小仙波町1丁目20番地1","city":"川越市","number":"4-2"}, 
 {"id":"6bc9b34c-6353-4ef8-bda8-85067704f4d0","lat":36.00097800,"long":139.38404600,"status":"done","name":"月ヶ丘会館公園北側","address":"大字岩殿30番地75先","city":"東松山市","number":"24-1"}, 
 {"id":"6bd00746-7adc-44fe-a2b3-ada4aaa24f4f","lat":35.79892220,"long":139.61040980,"status":"done","name":"根岸台保育園","address":"根岸台8-2-41","city":"朝霞市","number":"16-6"}, 
 {"id":"6bd0da71-2c6f-4cce-b9c8-b3a8303bfdc7","lat":36.03423300,"long":139.34232600,"status":"done","name":"masked","address":"大字上唐子960番地1","city":"東松山市","number":"20-5"}, 
 {"id":"6bd54d9f-eab0-44fe-90d8-af311e37bb7f","lat":35.80564900,"long":139.69711300,"status":"done","name":"masked","address":"緑町1","city":"川口市","number":"21-2"}, 
 {"id":"6bd918ce-2bfa-4732-bfe4-7e6686665cbc","lat":35.88115757,"long":139.62560180,"status":"done","name":"与野本町駅前西口ロータリー南側","address":"中央区本町東2丁目112番地1","city":"さいたま市","number":"5-10-5"}, 
 {"id":"6bdfcc44-5f5c-488b-abf7-b61d45e6a99a","lat":36.04329460,"long":139.31834030,"status":"done","name":"平沢歩道橋脇小公園側道路法面","address":"比企郡嵐山町平沢 ８４番地１","city":"嵐山町","number":"4-4"}, 
 {"id":"6be6d05d-aefb-4849-b438-248c04fe2829","lat":36.20713370,"long":139.08770470,"status":"not_yet","name":"貫井集会所","address":"神川町貫井９４－１","city":"神川町","number":"4-4"}, 
 {"id":"6be8adc3-b9cf-4023-9405-9bb7e7383c0d","lat":35.81427090,"long":139.87138240,"status":"done","name":"masked","address":"栄3-226","city":"三郷市","number":"23-5"}, 
 {"id":"6be9406b-bbab-4a92-a94f-23986f36c17c","lat":35.81847430,"long":139.47181280,"status":"done","name":"栗の木公園東側","address":"中新井431-44","city":"所沢市","number":"27-7"}, 
 {"id":"6be9843f-96a0-43a8-bbd4-404bdadb5234","lat":35.91537980,"long":139.32629040,"status":"done","name":"ハ-ト薬局南側","address":"大字北平沢512番地3先","city":"日高市","number":"4-2"}, 
 {"id":"6becf08d-9638-4922-86f8-1efa7def8e76","lat":35.85670150,"long":139.86721790,"status":"done","name":"桜小学校東側（新三郷駅側）フェンス","address":"彦成4-5-16","city":"三郷市","number":"30-3"}, 
 {"id":"6bed93ac-642e-4eae-8de6-29e6b69a9295","lat":35.79429480,"long":139.62104560,"status":"done","name":"大正通り植込み","address":"新倉2-26-30","city":"和光市","number":"3-4"}, 
 {"id":"6bfe8192-c417-4973-926d-0de5a1c46a2f","lat":35.98088500,"long":139.66577100,"status":"done","name":"川島農産物直売所前","address":"大字川島213-1","city":"蓮田市","number":"17-6"}, 
 {"id":"6c070327-1e53-4b10-9696-778cda248e03","lat":35.96535270,"long":139.73108420,"status":"done","name":"民家向かい豊春第一公園柵","address":"上蛭田700番地33","city":"春日部市","number":"16-5"}, 
 {"id":"6c0f297a-d174-4ff9-93f7-449cd44ce1ce","lat":36.13532620,"long":139.15328660,"status":"done","name":"エナーゼ産業角Ｔ字路","address":"矢那瀬451-1","city":"長瀞町","number":"4-5"}, 
 {"id":"6c1139f5-fc09-4467-9221-bdc3b54f7ff5","lat":35.77468220,"long":139.57464250,"status":"done","name":"妙音沢特別緑地南側植え込み","address":"栄一丁目10番","city":"新座市","number":"28-3"}, 
 {"id":"6c19f31d-f049-4139-a5a8-2f09e8a5c7f1","lat":35.87130436,"long":139.64265588,"status":"done","name":"浦和ふれあい館北側フェンス","address":"浦和区常盤9丁目30番22号","city":"さいたま市","number":"7-16-7"}, 
 {"id":"6c1c2561-36a9-4c9a-a458-84c1f14a067e","lat":35.83238840,"long":139.38932900,"status":"done","name":"市民会館入口東脇","address":"豊岡3丁目10-10","city":"入間市","number":"1-7"}, 
 {"id":"6c2043ea-cb65-40d8-a8f7-b65b3cf054d7","lat":35.77634960,"long":139.45250040,"status":"done","name":"光蔵寺北側","address":"荒幡485-5","city":"所沢市","number":"53-4"}, 
 {"id":"6c22d0ef-b8bd-4d85-9c58-c37376bb69ad","lat":35.83279800,"long":139.68222210,"status":"done","name":"芝園保育所附近","address":"芝園町3-7","city":"川口市","number":"52-3"}, 
 {"id":"6c2b2db7-91c7-4c1b-b046-75746b975f2d","lat":36.06632610,"long":139.13047290,"status":"done","name":"芳ノ入観光トイレ駐車場","address":"大字三沢613番地3","city":"皆野町","number":"6-2"}, 
 {"id":"6c2cf9c4-92d2-4c28-8c49-5e2d666b6f87","lat":36.15401660,"long":139.66625670,"status":"done","name":"十軒農民センター北側","address":"砂原447","city":"加須市","number":"57-6"}, 
 {"id":"6c2d77c9-0838-4938-8430-9511ce9f6678","lat":36.00971600,"long":139.64895600,"status":"done","name":"蓮田市総合市民体育館西側入口付近","address":"大字閏戸2343","city":"蓮田市","number":"2-3"}, 
 {"id":"6c300be2-0ad8-4a46-8c48-49c650431e86","lat":35.88490804,"long":139.74716988,"status":"done","name":"masked","address":"岩槻区大字釣上新田195番地","city":"さいたま市","number":"10-28-5"}, 
 {"id":"6c317ad5-1986-4fa1-beff-18ef4b01955f","lat":35.82987919,"long":139.81012945,"status":"done","name":"中央公民館南側正面入口[野立て]","address":"住吉2-9-1","city":"草加市","number":"11-2"}, 
 {"id":"6c392776-d70f-4a97-a1e1-bf484abb8de8","lat":35.80145400,"long":139.83865080,"status":"done","name":"ふれあい桜橋バス停横水路フェンス","address":"大字垳392","city":"八潮市","number":"13-4"}, 
 {"id":"6c3f5a6e-5533-41c0-8cb2-10fd3d3c14fd","lat":36.02997600,"long":139.21263100,"status":"not_yet","name":"腰中集落農業センタ-前","address":"大字腰越1146-2","city":"小川町","number":"13-5"}, 
 {"id":"6c405939-0895-4986-bd44-fc40d6231d2a","lat":35.83281330,"long":139.53106680,"status":"done","name":"藤久保第4区集会所前","address":"大字藤久保1054番地5","city":"三芳町","number":"1-7"}, 
 {"id":"6c432d97-01b1-4148-bd39-d98d6504b278","lat":35.99172200,"long":139.65664700,"status":"done","name":"椿山自治会館フェンス","address":"椿山1-21","city":"蓮田市","number":"14-2"}, 
 {"id":"6c46c6bf-e238-45f6-85e9-2dcb8d833187","lat":35.93206460,"long":139.48764790,"status":"done","name":"2-7","address":"宮元町23番地22","city":"川越市","number":"2-7"}, 
 {"id":"6c495484-3726-498e-b4b8-0a40a6cabb55","lat":36.06062960,"long":139.60591910,"status":"done","name":"しらさぎ公園駐輪場","address":"菖蒲町菖蒲24","city":"久喜市","number":"21-6"}, 
 {"id":"6c4c23bd-89c5-4ed4-bfdb-9e016e5cc602","lat":35.77543380,"long":139.55863040,"status":"done","name":"殿山運動場フェンス","address":"堀ノ内三丁目4番","city":"新座市","number":"3-2"}, 
 {"id":"6c512a87-2816-4e6f-820a-f2fe763b4c76","lat":35.97418970,"long":139.58924190,"status":"done","name":"アリコベール上尾サロン館東側植込み","address":"宮本町2番1号","city":"上尾市","number":"3-4"}, 
 {"id":"6c6443cb-a4bb-4596-9c5e-48c1a4ac56c2","lat":36.12099200,"long":139.70859330,"status":"done","name":"民家前","address":"栗橋457","city":"久喜市","number":"27-7"}, 
 {"id":"6c65296b-0533-4440-9aa3-693ea0d05da0","lat":35.97568340,"long":139.40735830,"status":"done","name":"民家南側","address":"大字片柳1691番地2","city":"坂戸市","number":"5-7"}, 
 {"id":"6c655cea-384c-4f2f-b4de-456472a3e7c5","lat":36.11981930,"long":139.48775050,"status":"done","name":"埼玉郵便局南側","address":"埼玉4962-1南側","city":"行田市","number":"24-6"}, 
 {"id":"6c6627dc-e3c6-464d-95ed-7d2986e5250c","lat":35.80337100,"long":139.67611700,"status":"done","name":"ボートコース北側","address":"本町5丁目7","city":"戸田市","number":"13-7"}, 
 {"id":"6c6c716f-06b3-497f-997d-8b3d8c4bb8de","lat":36.00154100,"long":139.28999300,"status":"done","name":"masked","address":"大字番匠766-1","city":"ときがわ町","number":"4-3"}, 
 {"id":"6c6cb5cc-e17a-4931-87fa-27211243c693","lat":35.93802977,"long":139.60643327,"status":"done","name":"宇賀神会計事務所南側畑","address":"北区日進町3丁目478番地2","city":"さいたま市","number":"2-8-5"}, 
 {"id":"6c6d0d83-4b88-48e7-9c8e-a8fcdb2ff43a","lat":35.87699330,"long":139.22759820,"status":"done","name":"旭橋先丁字路(県道南飯能線沿い)","address":"大字中藤上郷31-1","city":"飯能市","number":"21-5"}, 
 {"id":"6c734d2c-a394-4377-88a5-4804747feed5","lat":35.94603825,"long":139.61507322,"status":"done","name":"松原公園南側フェンス","address":"北区宮原町4丁目42番地","city":"さいたま市","number":"2-4-2"}, 
 {"id":"6c77656a-7926-4f10-abab-237212de5ffc","lat":36.15170050,"long":139.46208440,"status":"done","name":"マミーマート駐車場前","address":"谷郷2-13-24北側","city":"行田市","number":"13-7"}, 
 {"id":"6c791f0f-af5e-4870-974c-902c7619d666","lat":35.96227220,"long":139.39609500,"status":"done","name":"中央図書館","address":"仲町1番23号","city":"坂戸市","number":"9-5"}, 
 {"id":"6c7b1425-5574-4780-9781-0aa762ebf1d3","lat":35.84737603,"long":139.61987547,"status":"done","name":"新開公園北側","address":"桜区新開1丁目14番","city":"さいたま市","number":"6-14-7"}, 
 {"id":"6c7b4cdb-9036-49ab-b139-fba0e28f7006","lat":35.88512680,"long":139.84534300,"status":"done","name":"NTT東日本電話交換センタ-南側フェンス","address":"平沼一丁目22番地4","city":"吉川市","number":"1-5"}, 
 {"id":"6c83c0b1-4e82-435a-a6a9-4cfbbebcd601","lat":35.78184820,"long":139.46529690,"status":"done","name":"南陵中学校東側","address":"久米1470","city":"所沢市","number":"58-3"}, 
 {"id":"6c86fe21-e545-47b5-9b24-d9fec4ec06d8","lat":35.85168507,"long":139.80065444,"status":"done","name":"上州屋草加店前［フェンス］","address":"旭町1-4-33","city":"草加市","number":"25-2"}, 
 {"id":"6c88aa77-a42f-4f06-8bcc-e02da59cd8ee","lat":35.89768000,"long":139.85015930,"status":"done","name":"東武バス折返し所西側植樹帯","address":"きよみ野三丁目10番地","city":"吉川市","number":"18-6"}, 
 {"id":"6c8c9ff3-a504-402d-95f5-9240dcde83ff","lat":35.85280930,"long":139.67400892,"status":"done","name":"masked","address":"南区大谷場2丁目13番55号","city":"さいたま市","number":"8-26-1"}, 
 {"id":"6c8d68ab-e6c3-4ce9-92ce-73da95f7666b","lat":35.99814190,"long":139.58584800,"status":"done","name":"上平保育所西側フェンス","address":"大字西門前498番地1","city":"上尾市","number":"26-7"}, 
 {"id":"6c950467-c3cb-40c4-88f7-f073ee6f026d","lat":35.80123180,"long":139.58327640,"status":"done","name":"朝霞第一小学校体育館裏","address":"膝折町4-11-7","city":"朝霞市","number":"1-2"}, 
 {"id":"6c9b05ae-1dd0-4f0c-8a84-0bca94882638","lat":36.17743880,"long":139.45350780,"status":"done","name":"犬塚農村公園北側","address":"犬塚1406北側","city":"行田市","number":"28-4"}, 
 {"id":"6c9c2002-d55c-4811-94d7-e47fd52d7fa6","lat":35.81926700,"long":139.87580500,"status":"done","name":"新和小学校正門左フェンス（東側駐車場）","address":"中央2-28","city":"三郷市","number":"10-1"}, 
 {"id":"6c9e1427-8e33-4320-80e9-810f11fcdd04","lat":35.79702410,"long":139.46555060,"status":"done","name":"明峰小学校東側","address":"北有楽町26-20","city":"所沢市","number":"4-4"}, 
 {"id":"6ca48d3f-bd79-4296-88e1-e1e64691f378","lat":35.83140840,"long":139.54491690,"status":"done","name":"新開公園西側","address":"みよし台14番地","city":"三芳町","number":"10-5"}, 
 {"id":"6ca4f70f-5f64-45c9-8d8e-f8e94f8fb7db","lat":35.81099724,"long":139.81106834,"status":"done","name":"瀬崎山王公園西側[野立て]","address":"瀬崎6-4","city":"草加市","number":"1-4"}, 
 {"id":"6cb2dc60-d855-4a77-9054-0691501b4119","lat":36.07996200,"long":139.72820200,"status":"done","name":"東5丁目遊水池前","address":"東5丁目12","city":"幸手市","number":"9-6"}, 
 {"id":"6cb8795b-ca2a-45ac-b663-d31199e31f07","lat":35.85389300,"long":139.70109600,"status":"done","name":"柳崎第2公園附近","address":"柳崎1-27","city":"川口市","number":"57-4"}, 
 {"id":"6cbe950f-572b-4444-a1cd-55c23cb2ca90","lat":35.85951600,"long":139.79843100,"status":"done","name":"蒲生郵便局前水路フェンス","address":"蒲生1-5-40地先","city":"越谷市","number":"46-6"}, 
 {"id":"6cd2c6f4-ba93-4060-aeaf-a47d8a39c68a","lat":36.16892310,"long":139.47949820,"status":"done","name":"見沼中学校","address":"荒木4892南側","city":"行田市","number":"19-3"}, 
 {"id":"6cdae36f-9e86-4332-9abe-eb22000230e9","lat":35.78648860,"long":139.46223630,"status":"done","name":"ベルヴィザグラン南側植栽","address":"星の宮1-3-5","city":"所沢市","number":"7-3"}, 
 {"id":"6ce02f4a-5af5-4b4f-9d3f-9c6b93cbd734","lat":35.85724820,"long":139.85756070,"status":"done","name":"９街区徒渉池南西側野立","address":"彦成3-9","city":"三郷市","number":"33-2"}, 
 {"id":"6ce3acc9-d42b-4a83-8b78-503a5e193d71","lat":35.84773370,"long":139.53274950,"status":"done","name":"民家","address":"鶴瀬西3-9-9","city":"富士見市","number":"10-6"}, 
 {"id":"6ce58b3d-624f-4cf4-959d-02f8b9daba4b","lat":36.13335364,"long":139.70634860,"status":"done","name":"栗橋ハイツ集会所北側水路沿","address":"栗橋東5-28-14","city":"久喜市","number":"27-1"}, 
 {"id":"6ce9cb27-3117-47de-90c8-5d07a4436e94","lat":36.08218714,"long":139.68022030,"status":"done","name":"JR東北本線西側ガードレール","address":"外野15-2","city":"久喜市","number":"39-6"}, 
 {"id":"6ce9e820-49c2-4c07-b091-be4a025b08a7","lat":35.98028900,"long":139.65779100,"status":"done","name":"メガ・ドンキホ-テC駐車場北側フェンス","address":"東4-5","city":"蓮田市","number":"11-4"}, 
 {"id":"6cea736d-44e4-48eb-9592-f43c205e1574","lat":35.84249572,"long":139.65634048,"status":"done","name":"masked","address":"南区根岸5丁目18番10号","city":"さいたま市","number":"8-14-3"}, 
 {"id":"6cebad43-9bed-4afb-a27a-f964021ff421","lat":35.85069630,"long":139.54221960,"status":"done","name":"民家脇畑","address":"鶴馬1-20","city":"富士見市","number":"8-1"}, 
 {"id":"6cee67be-97fc-4bdc-a13c-15ff53bcb2e8","lat":35.90453250,"long":139.77318850,"status":"done","name":"文教大学北側フェンス","address":"南荻島3337","city":"越谷市","number":"28-2"}, 
 {"id":"6cf46d36-0355-4987-bffc-b47826721167","lat":35.88202180,"long":139.46399710,"status":"done","name":"32-6","address":"中台南2丁目14番地1","city":"川越市","number":"32-6"}, 
 {"id":"6d06a553-7b36-4031-b6ce-7ad9c117ce82","lat":35.77905200,"long":139.60693440,"status":"done","name":"西大和団地バス停付近","address":"西大和団地4街区","city":"和光市","number":"7-4"}, 
 {"id":"6d08cedb-d562-4580-8288-75fb1d620874","lat":35.98441340,"long":139.80829590,"status":"done","name":"桜川小学校正門右側","address":"大衾496番地1","city":"春日部市","number":"57-2"}, 
 {"id":"6d09e130-502a-4b0d-850e-61a399b30911","lat":35.77194100,"long":139.59993280,"status":"done","name":"二軒新田児童遊園地","address":"南1-28","city":"和光市","number":"8-9"}, 
 {"id":"6d0cc210-79d1-4dc6-8710-f39cd2ecd291","lat":35.86035218,"long":139.68058277,"status":"done","name":"大谷口細野公園南側植込み","address":"南区大字大谷口988番地","city":"さいたま市","number":"8-29-3"}, 
 {"id":"6d12c6e1-f559-40cf-a63e-6aad570f4609","lat":35.78651890,"long":139.47435800,"status":"done","name":"所沢駅東口ロ-タリ-","address":"くすのき台1-14","city":"所沢市","number":"56-2"}, 
 {"id":"6d1b34b6-f3e5-4f28-820f-832fc3dc5450","lat":36.07713120,"long":139.28562450,"status":"done","name":"農協八和田支店前","address":"大字上横田556","city":"小川町","number":"7-6"}, 
 {"id":"6d24b590-e394-45ba-b106-cd4ec6cbe7d6","lat":35.83232520,"long":139.76180720,"status":"done","name":"ソ-マパ-キング向かい側附近","address":"前野宿227-12","city":"川口市","number":"79-6"}, 
 {"id":"6d273278-5d0b-47ab-ad64-2038368123f8","lat":35.95800420,"long":138.98814540,"status":"not_yet","name":"新井商店北側市道沿い(野立)","address":"荒川白久1101-6","city":"秩父市","number":"31-3"}, 
 {"id":"6d44e633-2821-4798-8530-e74bc6daa2ee","lat":35.88025800,"long":139.78893330,"status":"done","name":"(株)中央住宅瓦曽根ビル付近東武線フェンス","address":"瓦曽根3-8地先","city":"越谷市","number":"39-8"}, 
 {"id":"6d4d0dce-a690-42b6-9c42-2aab2b14eaa5","lat":36.13625970,"long":139.39901330,"status":"done","name":"駅東第3公園 西側","address":"銀座7丁目154番地","city":"熊谷市","number":"5-5"}, 
 {"id":"6d4ec4b8-f60b-40c9-a8b4-0842cae69d50","lat":35.89693230,"long":139.17022650,"status":"done","name":"バス停「ひつ沢」東側","address":"大字上名栗876-1","city":"飯能市","number":"28-8"}, 
 {"id":"6d555da1-77ff-484d-b743-77daf7ea5775","lat":35.92910440,"long":139.46756720,"status":"done","name":"55-1","address":"大字上寺山318番地5","city":"川越市","number":"55-1"}, 
 {"id":"6d5aec8e-f38e-4bad-a042-a7da46ef3dea","lat":35.96223930,"long":139.74184980,"status":"done","name":"大増中学校正門横金網","address":"上大増新田140番地","city":"春日部市","number":"15-1"}, 
 {"id":"6d5afc95-f7ad-4025-998b-bc8afdfed774","lat":35.91741620,"long":139.77181740,"status":"done","name":"竹ノ内駐車場フェンス","address":"南荻島4216-9","city":"越谷市","number":"19-3"}, 
 {"id":"6d5b4a94-a1f0-4cb6-892e-83076e95ba55","lat":36.09303840,"long":139.55760490,"status":"done","name":"民家前(南)","address":"中ノ目669-1","city":"加須市","number":"41-2"}, 
 {"id":"6d5b98c3-e1ee-45f9-8d84-13ab9bbf054a","lat":36.03603430,"long":139.09652940,"status":"done","name":"原谷小裏幹線63号蓼沼天理教より150m荒川寄民家 野立","address":"大野原2821","city":"秩父市","number":"14-4"}, 
 {"id":"6d613d61-9200-4553-86ec-c3557df969d6","lat":36.18468260,"long":139.47147670,"status":"done","name":"見沼元圦公園北側","address":"下中条1751-3南側","city":"行田市","number":"18-2"}, 
 {"id":"6d640a50-de2a-4420-b27a-142d005bd873","lat":35.89730800,"long":139.76641800,"status":"done","name":"西中学校西側フェンス","address":"神明町2-385","city":"越谷市","number":"34-1"}, 
 {"id":"6d6d0392-61c8-4eef-bf44-d3e269fef883","lat":36.03750400,"long":139.40907000,"status":"done","name":"松本町一丁目緑地南側","address":"松本町1丁目4695番地11","city":"東松山市","number":"4-2"}, 
 {"id":"6d73bb23-475a-402a-91da-05b14f254bae","lat":35.99200310,"long":139.53361280,"status":"done","name":"愛宕神社際","address":"川田谷3368番地","city":"桶川市","number":"17-1"}, 
 {"id":"6d79276c-bc18-44ce-86b5-5abe9a60c5d6","lat":36.12407660,"long":139.07678400,"status":"done","name":"いろは橋 (太駄上)","address":"児玉町太駄1108-1","city":"本庄市","number":"28-5"}, 
 {"id":"6d80f967-15f5-441d-8a5a-00f96efdfabb","lat":35.86535411,"long":139.69779816,"status":"done","name":"尾間木配水場北側フェンス","address":"緑区東浦和3丁目7番地","city":"さいたま市","number":"9-16-7"}, 
 {"id":"6d8266d1-fb24-4134-8cae-56d5b1b5df4e","lat":35.97110470,"long":139.48855770,"status":"done","name":"民家東","address":"比企郡川島町上狢４５１番地１","city":"川島町","number":"3-4"}, 
 {"id":"6d848b9d-9f4b-4164-9133-3eb40f17e597","lat":35.83760030,"long":139.52899880,"status":"done","name":"藤久保第1公園","address":"大字藤久保5068番地","city":"三芳町","number":"4-3"}, 
 {"id":"6d8e3262-f396-457f-9487-f20af91cb097","lat":35.97500140,"long":139.81932540,"status":"done","name":"民家北側道沿いブロック塀","address":"東中野1522番地1","city":"春日部市","number":"52-3"}, 
 {"id":"6d91595d-d54f-4bdd-80f0-c8ff560dcad3","lat":35.77830800,"long":139.44623400,"status":"done","name":"荒幡小学校第2ベ-ス　北側","address":"荒幡684-3","city":"所沢市","number":"53-7"}, 
 {"id":"6d971806-ec36-4a40-a779-4d583279b3a4","lat":35.86193785,"long":139.63632466,"status":"done","name":"特別養護老人ホーム緑水苑与野フェンス","address":"中央区大戸1丁目33番12号","city":"さいたま市","number":"5-22-2"}, 
 {"id":"6d987085-c52c-4f2e-8188-3facdfdaecff","lat":35.97180850,"long":139.41267000,"status":"done","name":"内田歯科医院向側民家","address":"大字石井2129番地","city":"坂戸市","number":"4-7"}, 
 {"id":"6d98de69-710c-4bfb-ab6c-e0e489e7aba3","lat":36.12304890,"long":139.64634920,"status":"done","name":"香取神社東側フェンス","address":"北大桑805","city":"加須市","number":"62-3"}, 
 {"id":"6d9b2b87-6683-47e4-98db-cb4c28abff43","lat":35.92593627,"long":139.60271291,"status":"done","name":"下加公園北側フェンス","address":"北区日進町1丁目756番地1","city":"さいたま市","number":"2-20-5"}, 
 {"id":"6da58e67-81ac-40ec-85b2-ce980daf9ca6","lat":35.91796660,"long":139.46428390,"status":"done","name":"13-6","address":"大字小室463番地","city":"川越市","number":"13-6"}, 
 {"id":"6da6c9c0-a84f-40e3-8647-0dbce1e77aee","lat":35.84879289,"long":139.79782447,"status":"done","name":"新田高架下広場公園北側(高架下フェンス)[フェンス]","address":"旭町4-3-22","city":"草加市","number":"43-1"}, 
 {"id":"6da6df25-3d9d-4d0f-b079-863871de6924","lat":35.83328994,"long":139.38999360,"status":"done","name":"運動公園テニスコート沿いフェンス","address":"豊岡4丁目2","city":"入間市","number":"31-2"}, 
 {"id":"6da8c933-a432-4ee7-8d53-cf2bac0074fc","lat":35.88311444,"long":139.66228685,"status":"done","name":"市営領家大東団地南側フェンス","address":"浦和区大東2丁目12番1号","city":"さいたま市","number":"7-9-7"}, 
 {"id":"6dab9473-0bb0-4cf2-aa52-d0aff045a1b1","lat":35.91409110,"long":139.77864980,"status":"done","name":"masked","address":"大林383-2","city":"越谷市","number":"24-4"}, 
 {"id":"6dabc4b4-c905-428f-b31a-a9c8f0281c11","lat":36.06761200,"long":139.24017300,"status":"not_yet","name":"諏訪会館前","address":"大字原川108-4","city":"小川町","number":"10-3"}, 
 {"id":"6db049b0-6314-44b7-9a78-1580b25a1c02","lat":35.94133630,"long":139.77875730,"status":"done","name":"池の端集会所フェンス","address":"大枝863番地","city":"春日部市","number":"31-6"}, 
 {"id":"6db399f8-eab5-4140-82a7-76c037aeefc4","lat":35.94110500,"long":139.33073400,"status":"done","name":"第五団地線路沿い空き地","address":"若山3丁目25番地3","city":"毛呂山町","number":"7-6"}, 
 {"id":"6db47389-438a-402a-bcc4-56a8897251b0","lat":35.82597265,"long":139.79165846,"status":"done","name":"西町南公園東側[フェンス]","address":"西町1316","city":"草加市","number":"16-6"}, 
 {"id":"6db6d71c-9c5c-4fe9-a187-633cce5a7dff","lat":36.09177889,"long":139.65253530,"status":"done","name":"スピティ葛梅 (3階建てマンション)南側","address":"葛梅2-1-8","city":"久喜市","number":"34-2"}, 
 {"id":"6db766fb-d4bd-40a1-a683-4c77adeab15a","lat":35.83740440,"long":139.55881740,"status":"done","name":"第26採納広場","address":"水子4582-9","city":"富士見市","number":"20-8"}, 
 {"id":"6db78cac-bdd3-42d0-bfe7-aaacb37aa483","lat":35.87523880,"long":139.51588110,"status":"done","name":"SOMPOケアラヴィ-レ上福岡北側","address":"上福岡2丁目6番","city":"ふじみ野市","number":"6-2"}, 
 {"id":"6dbefeb5-be6c-488b-889c-51836ac337f1","lat":36.08700614,"long":139.66636260,"status":"done","name":"宿集会所","address":"上内1089-1","city":"久喜市","number":"36-7"}, 
 {"id":"6dc1127a-9087-440d-b6c9-23f3baf33c1b","lat":35.96488533,"long":139.68983890,"status":"done","name":"城北中学校正門南側フェンス","address":"岩槻区大字本宿392番地1","city":"さいたま市","number":"10-26-5"}, 
 {"id":"6dc408a7-1baf-4bf4-810f-1fcee074643f","lat":35.85340329,"long":139.78047009,"status":"done","name":"清門中公園東側[フェンス]","address":"清門3-27","city":"草加市","number":"27-6"}, 
 {"id":"6dc5105e-b76c-449e-886e-e285570e4390","lat":35.82577331,"long":139.39136910,"status":"done","name":"扇町屋二区第二集会場","address":"久保稲荷3丁目14-4","city":"入間市","number":"27-6"}, 
 {"id":"6dc5c53b-e291-4d9e-a9d2-e65a17c59ce8","lat":35.86500700,"long":139.40060150,"status":"done","name":"西宿田第2児童公園","address":"柏原2878番地39","city":"狭山市","number":"26-6"}, 
 {"id":"6dce0b45-13c0-411c-bafc-ae67986a1db4","lat":35.81072660,"long":139.82940300,"status":"done","name":"第6児童公園向いフェンス(マンハイム八潮前)","address":"大字大曽根57-21","city":"八潮市","number":"15-1"}, 
 {"id":"6de4e831-d007-49b6-91bf-21a1e4eddc93","lat":35.97457880,"long":139.39757790,"status":"done","name":"末広公園","address":"末広町10番地","city":"坂戸市","number":"7-1"}, 
 {"id":"6de599fe-8808-4fe6-afc5-d649bd6d0339","lat":35.85724960,"long":139.80130080,"status":"done","name":"蒲生愛宕町コンビニ付近谷古田用水フェンス","address":"蒲生愛宕町6-50地先","city":"越谷市","number":"46-5"}, 
 {"id":"6df51760-f89d-4cec-8f80-277959574cba","lat":35.85510600,"long":139.76338200,"status":"done","name":"安行若葉台公園附近","address":"安行藤八46-4","city":"川口市","number":"73-8"}, 
 {"id":"6df664ae-a5ab-4604-bee9-d16a20c811ca","lat":35.87566710,"long":139.30138260,"status":"done","name":"三王塚公園","address":"武蔵台三丁目389番地29","city":"日高市","number":"17-1"}, 
 {"id":"6df95a80-5da1-4d7c-abe1-df1e548902f1","lat":35.78754850,"long":139.88344660,"status":"done","name":"高州東小学校正門（東側）左フェンス","address":"高州2-409","city":"三郷市","number":"15-1"}, 
 {"id":"6e029884-c138-4b52-bb32-42ec685a70f2","lat":36.17595280,"long":139.54346240,"status":"done","name":"東町団地公園フェンス","address":"東2丁目4番33号地先","city":"羽生市","number":"2-3"}, 
 {"id":"6e03e802-d99f-4a12-94fd-982eaa6e94e1","lat":36.14115250,"long":139.44520520,"status":"not_yet","name":"泉蔵院南","address":"皿尾65-3西側","city":"行田市","number":"16-5"}, 
 {"id":"6e082f3e-67d1-4dc1-9e49-702b33a58804","lat":35.84953851,"long":139.62266644,"status":"done","name":"masked","address":"桜区桜田1丁目17番9号","city":"さいたま市","number":"6-14-2"}, 
 {"id":"6e08f402-597c-44f7-988a-5f74e842b484","lat":36.21371500,"long":139.39025710,"status":"done","name":"民家前 北側ブロック","address":"八ツ口873番地","city":"熊谷市","number":"46-6"}, 
 {"id":"6e0d3302-d37e-433a-9d0a-1d287626dbb9","lat":35.97928760,"long":139.64441220,"status":"done","name":"綾瀬南児童公園東側","address":"綾瀬3-2","city":"蓮田市","number":"15-6"}, 
 {"id":"6e0d569e-42da-421e-81fe-c9836afff674","lat":35.90947720,"long":139.49234330,"status":"done","name":"6-4","address":"仙波町4丁目1番地7","city":"川越市","number":"6-4"}, 
 {"id":"6e104d41-734e-4d65-8e61-23e235d800fe","lat":35.97285200,"long":139.59466300,"status":"done","name":"上尾小学校東側フェンス","address":"仲町一丁目11番46号","city":"上尾市","number":"4-2"}, 
 {"id":"6e1e9bfe-1a46-49b8-bc15-7013fc02a574","lat":36.05729061,"long":139.50580373,"status":"done","name":"鴻巣駅西口交差点脇フェンス","address":"大間680番地5","city":"鴻巣市","number":"11-1"}, 
 {"id":"6e1fc9ec-c94a-4767-8b59-e37e2d23c1e2","lat":36.13924540,"long":139.45611130,"status":"done","name":"行田市役所前","address":"本丸2-5東側","city":"行田市","number":"2-1"}, 
 {"id":"6e20d78b-4934-419e-88de-c39d85cb576d","lat":35.81801002,"long":139.40272210,"status":"done","name":"藤沢地区センター入口脇","address":"下藤沢5丁目17-1","city":"入間市","number":"21-1"}, 
 {"id":"6e2134cf-9e5c-455b-a485-7e8d04aa5534","lat":36.17371310,"long":139.30598880,"status":"done","name":"外原西公園 北側","address":"拾六間825番地46","city":"熊谷市","number":"33-2"}, 
 {"id":"6e29ec6f-4285-40cc-a828-2dfe38d38e78","lat":36.05544300,"long":139.27441400,"status":"not_yet","name":"下小川公会堂前","address":"大字小川895-1","city":"小川町","number":"4-1"}, 
 {"id":"6e2a9dea-522f-4bd6-a7ed-635d71b008ce","lat":35.79980230,"long":139.85956290,"status":"done","name":"masked","address":"戸ヶ崎5-7-1","city":"三郷市","number":"20-6"}, 
 {"id":"6e2d2707-c108-4826-850a-91e8eef0a46e","lat":35.84961710,"long":139.88498020,"status":"done","name":"テルルモバイル前、車道植え込み野立（歩道に向けて）","address":"早稲田1-18-4","city":"三郷市","number":"6-4"}, 
 {"id":"6e39492e-7832-45ea-bd24-29c4f200efc9","lat":35.79406110,"long":139.54690970,"status":"done","name":"菅沢一丁目児童遊園フェンス","address":"菅沢一丁目8番","city":"新座市","number":"20-1"}, 
 {"id":"6e421c94-31fe-413b-9d21-f2467b75a3bf","lat":35.92164100,"long":139.43153120,"status":"done","name":"48-4","address":"伊勢原町1丁目10番地","city":"川越市","number":"48-4"}, 
 {"id":"6e4f1796-43f2-40c0-a425-8c89fa3257c4","lat":36.08086700,"long":139.72578000,"status":"done","name":"東5-2町内会館南側先","address":"東5丁目3-27","city":"幸手市","number":"9-7"}, 
 {"id":"6e61cbe1-3e27-44d0-9a1d-2393fde7a80a","lat":35.97763650,"long":139.60193140,"status":"done","name":"masked","address":"二ツ宮709番地","city":"上尾市","number":"2-5"}, 
 {"id":"6e6341a2-88e6-4b52-9f87-c809839d67df","lat":35.91021230,"long":139.68407021,"status":"done","name":"染谷ふれあい公園南側入口横","address":"見沼区染谷3丁目88番地","city":"さいたま市","number":"4-25-6"}, 
 {"id":"6e672930-fee0-4a89-b68f-52f61a819555","lat":35.91636258,"long":139.62798647,"status":"done","name":"masked","address":"大宮区高鼻町1丁目440番地先","city":"さいたま市","number":"3-13-7"}, 
 {"id":"6e69f9b0-5687-4b78-84c5-338ff1b2d8cd","lat":35.94264590,"long":139.33204200,"status":"done","name":"第五団地公園南側","address":"若山3丁目16番地1","city":"毛呂山町","number":"7-2"}, 
 {"id":"6e6aa882-bf76-47ff-b7ba-c8ce1553ab5e","lat":35.85715690,"long":139.89037420,"status":"done","name":"カトレア公園北側入口左","address":"早稲田7-24","city":"三郷市","number":"3-4"}, 
 {"id":"6e71c856-6e8d-4aa9-ae96-c0170712ee28","lat":35.86707145,"long":139.61480262,"status":"done","name":"第2冨田駐車場南側ポール","address":"桜区栄和5丁目22番","city":"さいたま市","number":"6-8-2"}, 
 {"id":"6e777c08-eedf-4db3-9c2f-5bef3b5e131f","lat":35.91063700,"long":139.78739900,"status":"done","name":"鷺後小学校南側フェンス","address":"東大沢2-1-1","city":"越谷市","number":"70-6"}, 
 {"id":"6e7cc30a-deab-4840-b5ca-571367b941fa","lat":36.00033580,"long":139.54054590,"status":"done","name":"愛宕幼稚園脇十字路際駐車場","address":"上日出谷南1丁目34番地の1","city":"桶川市","number":"8-7"}, 
 {"id":"6e7f4bd9-ee2f-4682-a048-09560545f6a5","lat":35.81863400,"long":139.74881000,"status":"done","name":"八幡木中学校南側附近","address":"八幡木1-26-1","city":"川口市","number":"88-2"}, 
 {"id":"6e87ab8d-b510-4b87-8ada-1d33d21693a7","lat":35.83014380,"long":139.52410450,"status":"done","name":"三芳町浄水場","address":"大字藤久保1047番地1","city":"三芳町","number":"1-5"}, 
 {"id":"6e8c6318-5312-45e5-9b82-12b2fa65741c","lat":35.96705530,"long":139.60096870,"status":"done","name":"上尾中学校東側テニスコート脇フェンス","address":"愛宕三丁目23番34号","city":"上尾市","number":"5-3"}, 
 {"id":"6e97e352-8de0-4560-996a-d399687b297b","lat":35.95271891,"long":139.61330058,"status":"done","name":"吉野公園南側フェンス","address":"北区吉野町1丁目379番地1","city":"さいたま市","number":"2-4-7"}, 
 {"id":"6ea696a8-c3a4-4b97-9486-4487d1f11d07","lat":35.82121730,"long":139.68384340,"status":"done","name":"８番２５号中央小学校南側","address":"中央６丁目","city":"蕨市","number":"6-6"}, 
 {"id":"6eacd0cb-926f-4b4e-8262-6044daeb0a5a","lat":36.20667490,"long":139.08101040,"status":"done","name":"小浜自衛消防小屋東","address":"神川町小浜５９７","city":"神川町","number":"4-2"}, 
 {"id":"6eb51ce4-b212-4ee9-9817-fc6a35bdad84","lat":35.84204520,"long":139.57101640,"status":"done","name":"民家","address":"水谷東1-27-33","city":"富士見市","number":"22-3"}, 
 {"id":"6eb5a6a8-dfda-4e2e-8fc8-1a0965b7dc37","lat":35.88061768,"long":139.64762711,"status":"done","name":"浦和ふれあいの里西側フェンス","address":"浦和区領家6丁目10番7号","city":"さいたま市","number":"7-7-5"}, 
 {"id":"6ec7c455-76b5-49fe-bebe-21454332622c","lat":35.96536750,"long":139.62301990,"status":"done","name":"原市五区公民館フェンス","address":"大字原市3705番地","city":"上尾市","number":"37-6"}, 
 {"id":"6ecb07e3-ef90-430f-92b5-acfea9008d52","lat":35.90108560,"long":139.35052850,"status":"done","name":"旧KOスポ-ツ店東側","address":"大字鹿山575番地1","city":"日高市","number":"6-7"}, 
 {"id":"6ecef5e6-6de6-427e-8d2b-9793abb1d7a7","lat":35.81467400,"long":139.73072800,"status":"done","name":"朝日町北公園西側附近","address":"朝日2-3","city":"川口市","number":"9-1"}, 
 {"id":"6ecf121d-5e28-40a3-b4fa-876ff8d87c82","lat":36.23631700,"long":139.18846100,"status":"done","name":"市民活動交流センター駅北口駐車場","address":"銀座3-6","city":"本庄市","number":"2-3"}, 
 {"id":"6ed1cc33-27c3-435d-8680-6a794fea8413","lat":35.98770910,"long":139.57665960,"status":"done","name":"原新町北公園北側フェンス","address":"原新町24番4号","city":"上尾市","number":"7-4"}, 
 {"id":"6ee4a79b-f273-439d-89a4-6c8da1a6293c","lat":36.04283930,"long":139.72790340,"status":"done","name":"フレッシュ会館際","address":"大字杉戸3009番地63地先","city":"杉戸町","number":"6-5"}, 
 {"id":"6ee52a17-1c16-464e-b6fa-d659eaf1a717","lat":35.94835780,"long":139.15357570,"status":"done","name":"松枝バス停留所","address":"大字芦ケ久保1529番地12","city":"横瀬町","number":"7-5"}, 
 {"id":"6eec3633-e58b-44ac-9555-f480aff42577","lat":35.85272390,"long":139.41294790,"status":"done","name":"市役所庁舎東側入口左側","address":"入間川1丁目23番5号","city":"狭山市","number":"5-2"}, 
 {"id":"6eee3932-a08a-4b9a-82b5-43ebfc241b8d","lat":36.02348400,"long":139.00733030,"status":"done","name":"腰ノ根下区集会所前","address":"小鹿野2230番地2","city":"小鹿野町","number":"1-2"}, 
 {"id":"6f05863f-4872-4a64-8d99-0f7ca65c6a1a","lat":35.91697736,"long":139.62587749,"status":"done","name":"大宮税務署西側フェンス","address":"大宮区土手町3丁目184番地","city":"さいたま市","number":"3-14-5"}, 
 {"id":"6f0906f5-dd18-46a1-8f11-7fc372809b69","lat":35.98822350,"long":139.58944170,"status":"done","name":"錦町中央公園東側","address":"錦町7番地","city":"上尾市","number":"30-4"}, 
 {"id":"6f0a1d9d-771b-4274-b275-247ff77bf9ba","lat":35.83727620,"long":139.54050410,"status":"done","name":"民家前市民の庭園","address":"関沢3-43","city":"富士見市","number":"14-2"}, 
 {"id":"6f0c2b67-0dc4-437d-988b-def8ec4cf4d8","lat":35.84592135,"long":139.38460120,"status":"done","name":"黒須第二子供広場(東側フェンス)","address":"黒須2丁目1190","city":"入間市","number":"3-2"}, 
 {"id":"6f0cdb82-1e56-4269-ab4b-ac6109298cf8","lat":36.06440200,"long":139.67217950,"status":"done","name":"J:COM埼玉県央局","address":"南5-1-7","city":"久喜市","number":"2-3"}, 
 {"id":"6f154ab9-10c9-45e3-b6e2-b62b3649438a","lat":36.17822250,"long":139.52874020,"status":"not_yet","name":"埼玉県立羽生実業高校北側フェンス","address":"大字羽生323番地","city":"羽生市","number":"3-4"}, 
 {"id":"6f1dd7ad-9061-4986-8cb3-15d314a6d410","lat":35.78721090,"long":139.43081760,"status":"done","name":"市立小手指保育園南側","address":"小手指南4-15-1","city":"所沢市","number":"46-2"}, 
 {"id":"6f20c141-1f4c-4ab3-b65c-dced77821554","lat":36.12404250,"long":139.44297250,"status":"done","name":"鶴土井公園南側","address":"門井町3-8南側","city":"行田市","number":"6-7"}, 
 {"id":"6f24048c-ff27-4cd2-8d95-b3bd61308a9f","lat":35.95282580,"long":138.96349500,"status":"other","name":"強石区 強石バス停横 ブロック塀","address":"大滝 130","city":"秩父市","number":"25-1"}, 
 {"id":"6f26b40a-a251-4734-9596-f37f0e30b72a","lat":36.01374360,"long":139.08914850,"status":"done","name":"秩父第一中学校正門付近西側 金網塀","address":"滝の上町 9-22","city":"秩父市","number":"5-4"}, 
 {"id":"6f2a7389-b53e-49ff-a036-2e5f94684bdf","lat":36.07043350,"long":139.76437300,"status":"done","name":"香取神社参道","address":"下吉羽201-5","city":"幸手市","number":"12-3"}, 
 {"id":"6f2ca85a-d982-4298-a576-eb1bb4745f2a","lat":35.80661780,"long":139.41695210,"status":"done","name":"狭山ヶ丘コミュニティセンタ-第2駐車場入口","address":"若狭4-2496-6","city":"所沢市","number":"36-4"}, 
 {"id":"6f2f8503-781e-42b5-9dae-13f3cf32fbaa","lat":36.10739453,"long":139.45608935,"status":"done","name":"埼玉県央広域消防本部吹上分署裏金網","address":"鎌塚1丁目1番21号","city":"鴻巣市","number":"24-5"}, 
 {"id":"6f353e03-19f2-46b6-8b1b-95b851872488","lat":35.86596235,"long":139.63376296,"status":"done","name":"市立与野南中学校北側正門右側フェンス","address":"中央区大戸2丁目6番25号","city":"さいたま市","number":"5-22-1"}, 
 {"id":"6f38b56f-a0ae-41ac-aa51-7e1eeef49a0e","lat":35.82569800,"long":139.67543620,"status":"done","name":"３番１２号日鉄パイプライン＆エンジニアリング㈱","address":"錦町２丁目","city":"蕨市","number":"1-5"}, 
 {"id":"6f3bcb36-18ad-44b6-ad8b-9579d6568c21","lat":35.83493440,"long":139.71519720,"status":"done","name":"前川東小学校北側附近","address":"前上町10-1","city":"川口市","number":"40-8"}, 
 {"id":"6f3d4b28-5dcd-4868-97b4-9254316a91f1","lat":35.79043900,"long":139.62634350,"status":"done","name":"宮ノ台児童遊園地","address":"下新倉4-11-8","city":"和光市","number":"17-11"}, 
 {"id":"6f3e7258-6b51-4a32-8187-d31d244f3f95","lat":35.92167909,"long":139.60502226,"status":"done","name":"日進公園コミュニティセンター南側フェンス","address":"北区日進町1丁目312番地2","city":"さいたま市","number":"2-21-1"}, 
 {"id":"6f41a991-cc05-4fca-b11e-c00079a72ebd","lat":35.94738933,"long":139.70672691,"status":"done","name":"林道町公民館北側ブロック塀（住吉神社境内） (位置情報が見つかりませんでした)","address":"岩槻区仲町2丁目13番8号","city":"さいたま市","number":"10-9-5"}, 
 {"id":"6f447052-f987-4a93-a05b-3bf0b847cd4f","lat":35.92073300,"long":139.78872210,"status":"done","name":"masked","address":"弥十郎118","city":"越谷市","number":"7-2"}, 
 {"id":"6f468e43-15b8-42bf-b51d-7b2e84834d7b","lat":35.94545940,"long":139.35006940,"status":"done","name":"山崎屋酒店前","address":"大字市場17番地3","city":"毛呂山町","number":"4-4"}, 
 {"id":"6f4da96f-0d0c-421e-b4d3-439ecb2e406e","lat":35.85063817,"long":139.63699618,"status":"done","name":"エステイトマンション西側道路反対側の水路跡フェンス","address":"南区鹿手袋3丁目8番9号先","city":"さいたま市","number":"8-4-6"}, 
 {"id":"6f54dd82-f9ae-47b7-aa8f-415d1361cb35","lat":36.15233690,"long":139.64819560,"status":"done","name":"民家北側水路","address":"道目455","city":"加須市","number":"57-4"}, 
 {"id":"6f5bfdc7-ea39-4fe4-87e4-1861ddf9256e","lat":35.85897490,"long":139.42608210,"status":"done","name":"中央ふれあい緑地","address":"中央2丁目1293番地3","city":"狭山市","number":"7-7"}, 
 {"id":"6f6f0c31-afce-44d6-8c3d-5fae766eea25","lat":36.00740410,"long":139.08080210,"status":"done","name":"西小学校裏側T字路「宇賀神」横(金室町10-1横) 野立","address":"金室町 10","city":"秩父市","number":"6-2"}, 
 {"id":"6f6fc224-3ae1-4e2e-92ca-da7ee16d58c1","lat":35.88572404,"long":139.65445478,"status":"done","name":"聖フランソア幼稚園北側フェンス","address":"浦和区皇山町18番1号","city":"さいたま市","number":"7-8-8"}, 
 {"id":"6f7005e5-54b2-4405-a4df-71b191d61bdf","lat":36.01759000,"long":139.62115500,"status":"not_yet","name":"JA南彩駒崎集荷所前空き地","address":"大字駒崎269-7","city":"蓮田市","number":"8-3"}, 
 {"id":"6f72dec5-8106-41a7-9d6f-9d9e06112014","lat":36.01943700,"long":139.35046300,"status":"done","name":"市民健康増進センター駐車場北側","address":"大字神戸932番地1","city":"東松山市","number":"19-2"}, 
 {"id":"6f73ace5-9b9d-471a-9b0d-565be38f7088","lat":35.79569170,"long":139.43338210,"status":"done","name":"歩道橋","address":"小手指元町2-5","city":"所沢市","number":"45-6"}, 
 {"id":"6f78ce6b-708c-45a7-9d43-873121cfc8e8","lat":35.85614489,"long":139.68237498,"status":"done","name":"畑西側","address":"南区大字大谷口1511-1先","city":"さいたま市","number":"8-29-8"}, 
 {"id":"6f7a438c-5c70-4790-add6-79a42c42e27d","lat":35.89787058,"long":139.60903478,"status":"done","name":"さいたま市立三つ和会館県道側フェンス","address":"大宮区三橋3丁目52番地","city":"さいたま市","number":"3-7-1"}, 
 {"id":"6f7b8f00-eff7-4abf-8d68-0de63cee0e66","lat":36.15878290,"long":139.36516170,"status":"not_yet","name":"アサミ不動産(株) 国道側","address":"石原189番地","city":"熊谷市","number":"31-2"}, 
 {"id":"6f829b2a-73ad-4d7d-bf18-912e9fbb0d3f","lat":36.04466558,"long":139.50889085,"status":"done","name":"畑","address":"原馬室782番地","city":"鴻巣市","number":"16-3"}, 
 {"id":"6f88aaf6-fd10-49af-8196-140d19b0ea70","lat":35.96878330,"long":139.55265500,"status":"done","name":"あぜよし公園","address":"大字畔吉1250番地1","city":"上尾市","number":"22-5"}, 
 {"id":"6f8f3fa9-0aaa-4241-a4ee-26ed05ac88de","lat":35.81979160,"long":139.55659260,"status":"done","name":"新座三丁目2番12号との通路植え込み","address":"新座三丁目2番11号棟横","city":"新座市","number":"13-3"}, 
 {"id":"6f9608b0-bbf8-45c5-be7c-ed8bd0156ad0","lat":35.91235159,"long":139.64112981,"status":"done","name":"堀の内ポンプ場北西側フェンス","address":"大宮区堀の内町1丁目577番地1","city":"さいたま市","number":"3-18-7"}, 
 {"id":"6f9adfa3-d40a-4546-b908-1ada0f9366bf","lat":35.79316660,"long":139.52316970,"status":"done","name":"本郷生活改善センタ-","address":"本郷671","city":"所沢市","number":"60-2"}, 
 {"id":"6f9ca2b8-1656-43c5-9a4f-fd1ea4d42ab8","lat":36.09598900,"long":139.39702500,"status":"done","name":"上岡地蔵前バス停","address":"大字大谷4838番地1","city":"東松山市","number":"16-1"}, 
 {"id":"6fa334e8-1d16-45ef-8853-3615fe824988","lat":35.89216889,"long":139.72412399,"status":"done","name":"美園西口ふれあい公園東側フェンス","address":"緑区大字下野田405番地","city":"さいたま市","number":"9-21-4"}, 
 {"id":"6fab70d0-de7d-465f-a63d-36377e6dcc57","lat":36.02884620,"long":139.66579990,"status":"done","name":"篠津小学校","address":"篠津2644","city":"白岡市","number":"4-1"}, 
 {"id":"6fabb545-13a1-4e97-b591-8cff4cd51939","lat":35.81554000,"long":139.74992400,"status":"done","name":"谷下公園東側附近","address":"八幡木2-7","city":"川口市","number":"88-4"}, 
 {"id":"6fb43183-4fe4-4290-ba9b-91ae34b0e61c","lat":35.85862970,"long":139.51429200,"status":"done","name":"東久保中央公園","address":"ふじみ野1丁目3番","city":"ふじみ野市","number":"12-2"}, 
 {"id":"6fb6f3d2-8279-40ee-b634-62f7ed0a9d3d","lat":35.86561154,"long":139.60354257,"status":"done","name":"masked","address":"桜区大字大久保領家606番地","city":"さいたま市","number":"6-6-6"}, 
 {"id":"6fbd3b17-f465-4af7-a721-f2c560157a0e","lat":36.13171190,"long":139.62378980,"status":"done","name":"多門寺集会所東側フェンス","address":"多門寺576","city":"加須市","number":"10-7"}, 
 {"id":"6fd0f33e-a392-4edb-aff3-34cc60f76b56","lat":35.77581010,"long":139.42762070,"status":"done","name":"市立山口西保育園南側","address":"上山口115","city":"所沢市","number":"51-7"}, 
 {"id":"6fd309ae-4b54-46f7-b2c9-24107e3a0e65","lat":35.86117992,"long":139.69774503,"status":"done","name":"馬堤公園北側","address":"緑区東浦和2丁目48番地3","city":"さいたま市","number":"9-17-5"}, 
 {"id":"6fd3a98c-04b8-4949-b8b3-8b88ee4828d3","lat":35.79786920,"long":139.40398410,"status":"done","name":"三ヶ島まちづくりセンタ-","address":"三ヶ島5-1639-1","city":"所沢市","number":"40-4"}, 
 {"id":"6fd3c2c7-df47-41d6-89a3-6064f42ad8b1","lat":35.80050184,"long":139.36806280,"status":"done","name":"博物館(アリット)東門フェンス","address":"宮寺2181-1","city":"入間市","number":"19-4"}, 
 {"id":"6fd4af0b-54fd-4d81-af59-c9209721766e","lat":35.86585970,"long":139.83340297,"status":"done","name":"柿木公民館バス停東側［フェンス］","address":"柿木町736","city":"草加市","number":"30-5"}, 
 {"id":"6fd62a90-2e94-4d52-b312-1ce03268e61d","lat":36.00838140,"long":139.02373470,"status":"done","name":"木魂神社入口","address":"下小鹿野3474番地","city":"小鹿野町","number":"2-4"}, 
 {"id":"6fde9702-7252-4461-98f4-b593af393882","lat":35.85927982,"long":139.63049188,"status":"done","name":"マミーマート東側路肩フェンス南","address":"桜区西堀7丁目9番1号","city":"さいたま市","number":"6-12-4"}, 
 {"id":"6fdf88b1-de3d-4ce1-9536-1cf3cdb5ba94","lat":36.07914020,"long":139.16512850,"status":"done","name":"井戸センタ-敷地内","address":"大字大内沢1222-1","city":"東秩父村","number":"4-5"}, 
 {"id":"6fe2cdc3-6e98-4af4-a0a9-127cd6dd1c0c","lat":35.91999220,"long":139.47488290,"status":"done","name":"9-3","address":"月吉町51番地","city":"川越市","number":"9-3"}, 
 {"id":"6fe40365-900d-4c3f-a6a8-399a1a1be596","lat":35.95793900,"long":139.74643330,"status":"done","name":"民家前交差点付近フェンス","address":"谷原新田1818番地2","city":"春日部市","number":"15-3"}, 
 {"id":"6fe6b657-7f06-4e57-9d0a-7d074fd1d2c3","lat":36.14546680,"long":139.46137870,"status":"done","name":"行田税務署入口","address":"栄町17-15","city":"行田市","number":"13-4"}, 
 {"id":"6fee1218-dcae-44e0-92f6-469decfcf744","lat":36.01335420,"long":139.65253620,"status":"done","name":"ツツジヶ丘公園","address":"西2丁目4番","city":"白岡市","number":"12-6"}, 
 {"id":"6feede46-77b4-4e87-bce4-a0e2dd827814","lat":35.92266840,"long":139.42603330,"status":"done","name":"48-1","address":"伊勢原町3丁目3番地","city":"川越市","number":"48-1"}, 
 {"id":"6ff1dfdf-c009-4aac-952c-c96ebcfa32cf","lat":35.95928010,"long":139.64124050,"status":"done","name":"尾山台団地5街区25号棟南側","address":"大字瓦葺2716番地","city":"上尾市","number":"13-6"}, 
 {"id":"6ffa6ab5-d6e7-42da-8d3e-a5b99583a62c","lat":35.92055931,"long":139.61211672,"status":"done","name":"masked","address":"北区大成町4丁目265番地","city":"さいたま市","number":"2-22-3"}, 
 {"id":"6ffcf165-d973-40ce-abd0-0092d5e3697d","lat":35.95437020,"long":139.64506250,"status":"done","name":"前原公園東側フェンス","address":"大字瓦葺3215番地","city":"上尾市","number":"18-4"}, 
 {"id":"70020c78-41f9-482c-b2a0-17eeafd3ac1b","lat":35.94750689,"long":139.60887318,"status":"done","name":"領家南公園東側フェンス","address":"北区宮原町4丁目19番地","city":"さいたま市","number":"2-5-6"}, 
 {"id":"70094e02-248e-44af-83b0-bdb25898ec78","lat":36.19447290,"long":139.13466570,"status":"done","name":"埼玉ひびきの農協児玉支店","address":"児玉町吉田林48-1","city":"本庄市","number":"30-4"}, 
 {"id":"700b09db-857c-4f18-ab27-093fde75890f","lat":35.83503220,"long":139.31864150,"status":"done","name":"バイク販売店向かい","address":"大字落合312-7","city":"飯能市","number":"15-7"}, 
 {"id":"70101d82-41d4-46cf-8b76-22f20cd6d20a","lat":35.88710010,"long":139.17953790,"status":"done","name":"名栗小学校体育館北側ガードレール","address":"大字上名栗2887-4","city":"飯能市","number":"28-4"}, 
 {"id":"7022718a-f341-4bf2-93ec-634989c5d512","lat":36.19914090,"long":139.29486150,"status":"done","name":"深谷外科肛門科病院南 遊歩道フェンス","address":"常盤町78-1","city":"深谷市","number":"17-4"}, 
 {"id":"702616bb-68fc-46c1-8c79-7ab0a51ffb80","lat":35.86905241,"long":139.69924740,"status":"done","name":"市立尾間木中学校 南側フェンス","address":"緑区東浦和4丁目29番地1","city":"さいたま市","number":"9-18-2"}, 
 {"id":"7027f91c-2991-4626-bfbd-017e62c35169","lat":36.09741651,"long":139.45865688,"status":"done","name":"吹上富士見第一児童遊園地内","address":"吹上富士見2丁目6番","city":"鴻巣市","number":"23-6"}, 
 {"id":"7028c6ce-3461-4f97-95f8-b659f08a5361","lat":36.02635200,"long":139.12704780,"status":"not_yet","name":"栃谷16区公会堂下、屋台蔵横栗畑野立","address":"栃谷1230","city":"秩父市","number":"17-8"}, 
 {"id":"7029f3e2-2d6b-499f-b831-d521b03423f0","lat":35.81814950,"long":139.47305120,"status":"done","name":"とめの里駐車場","address":"中新井578付近","city":"所沢市","number":"27-6"}, 
 {"id":"702ba25b-3a3b-4ed0-9a32-19b310741e00","lat":35.97282380,"long":139.76611580,"status":"not_yet","name":"桐箱製作所柵","address":"緑町1丁目7番4","city":"春日部市","number":"4-3"}, 
 {"id":"702d2013-eaed-49f7-a35c-c23190313ede","lat":35.88123550,"long":139.30410950,"status":"done","name":"高麗駅前","address":"武蔵台一丁目220番地5","city":"日高市","number":"16-4"}, 
 {"id":"703025ea-c99f-413f-9bcd-a172154ab491","lat":35.85221760,"long":139.86642640,"status":"done","name":"2街区2号館西側、植え込み野立","address":"さつき平1-1","city":"三郷市","number":"28-5"}, 
 {"id":"70360c6e-38a2-475f-a0a0-e5cea0b4e6fb","lat":36.05934200,"long":138.97025850,"status":"done","name":"塚越 民家向側 ふれあい掲示板","address":"上吉田4311-3","city":"秩父市","number":"23-6"}, 
 {"id":"703b5f16-cefc-4610-b341-16f583670ec2","lat":35.88736540,"long":139.60869678,"status":"done","name":"市立与野西北小学校正門東側フェンス","address":"中央区円阿弥4丁目3番7号","city":"さいたま市","number":"5-1-1"}, 
 {"id":"703fd5c8-4cf2-4374-a073-1a79125c2750","lat":35.91109482,"long":139.60981657,"status":"done","name":"櫛引町1丁目自治会館","address":"大宮区櫛引町1丁目406番地","city":"さいたま市","number":"3-3-1"}, 
 {"id":"704f1d4d-a361-46ad-80f3-4d8879146514","lat":35.81791800,"long":139.58871920,"status":"done","name":"北朝霞公園","address":"北原1-3","city":"朝霞市","number":"18-5"}, 
 {"id":"705634f2-5782-4dde-9641-2052c443bf13","lat":35.80341050,"long":139.68637400,"status":"done","name":"民家東側(川岸橋南)","address":"川岸1丁目8-2","city":"戸田市","number":"8-5"}, 
 {"id":"7058614a-8e69-4955-a909-a41290f86eca","lat":35.78675390,"long":139.59904710,"status":"done","name":"朝霞第八小学校","address":"栄町5-1-41","city":"朝霞市","number":"9-3"}, 
 {"id":"70632cfd-6549-40ee-9409-64b055b8e3b6","lat":36.18093510,"long":139.24102720,"status":"done","name":"マルツ食品㈱ 北側ブロック塀","address":"岡部1974-5","city":"深谷市","number":"23-8"}, 
 {"id":"706fd3d0-715d-47d0-9109-f1c6add5ebe8","lat":35.96594790,"long":139.76530000,"status":"done","name":"居酒屋やすらぎ前鉄道金網","address":"南4丁目21番1号","city":"春日部市","number":"37-3"}, 
 {"id":"707d49bd-8e92-4830-a523-ebe26e97d7db","lat":36.20734910,"long":139.08178020,"status":"not_yet","name":"民家西","address":"神川町小浜５６６－１","city":"神川町","number":"4-1"}, 
 {"id":"708688f4-d5d2-4081-8d52-1b87462d053f","lat":35.96829500,"long":139.77657380,"status":"not_yet","name":"藤塚第三公園東側生垣","address":"本田町2丁目140番地","city":"春日部市","number":"27-1"}, 
 {"id":"70945aa6-695c-4f20-bf59-8ea6992e0bf1","lat":35.95530840,"long":139.29713840,"status":"done","name":"大宮神社北側","address":"上野１７３１番地１先","city":"越生町","number":"2-2"}, 
 {"id":"70948c21-1369-423a-9556-39d440bcabec","lat":35.97714860,"long":139.80096470,"status":"done","name":"庄和すずらん幼稚園県道側金網南方に隣接するブロック塀","address":"米島69番地2","city":"春日部市","number":"54-7"},