[{"id":"d6f2c222-b4f7-4167-a189-ea0c82c3414c","lat":35.11131300,"long":137.30798300,"status":"not_yet","name":"沢ノ堂集荷所横","address":"沢ノ堂町下４４－３","city":"豊田市","number":"733"}, 
 {"id":"d7012cf6-be9f-4a32-89de-53e2b3db0a97","lat":35.18746410,"long":136.89209600,"status":"done","name":"紙漉公園","address":"西区城西三丁目８０１番","city":"名古屋市","number":"32"}, 
 {"id":"d7028249-9310-4ede-8325-2b3ea5220389","lat":34.67104030,"long":137.32353900,"status":"done","name":"326知原公園北側","address":null,"city":"豊橋市","number":"326"}, 
 {"id":"d7082a4e-83d4-44ea-b567-dcf641676f5b","lat":35.08728510,"long":136.97865800,"status":"done","name":"コノミヤ滝ノ水店北側駐車場南側のフェンス","address":"名古屋市緑区滝ノ水二丁目2025番地","city":"名古屋市","number":"72"}, 
 {"id":"d70dbaa6-8102-4860-b8b0-7dab3a6c35a1","lat":35.22322800,"long":136.93510170,"status":"done","name":null,"address":"北区東味鋺一丁目2701番地","city":"名古屋市","number":"167"}, 
 {"id":"d70ddb92-3043-4f09-a54b-282caf264469","lat":34.94932210,"long":136.83192220,"status":"not_yet","name":"旭まちづくりセンター","address":"知多市新舞子字大口46番地","city":"知多市","number":"148"}, 
 {"id":"d70ee5bf-101f-4444-9289-465452b0e2a9","lat":35.33449900,"long":136.89286800,"status":"done","name":"市営力長住宅Ｂ棟東植込み","address":"江南市力長町観音寺１９","city":"江南市","number":"89"}, 
 {"id":"d7136d74-d1e0-4699-93a8-197132f5170f","lat":35.14245180,"long":136.88674990,"status":"done","name":"荒江公園　北側","address":"名古屋市中川区荒江町9番","city":"名古屋市","number":"31"}, 
 {"id":"d7179cb6-a185-4bbe-abd1-de9665968f90","lat":35.02919730,"long":137.19490110,"status":"not_yet","name":"奥殿陣屋西駐車場東","address":"奥殿町字雑谷下１０","city":"岡崎市","number":"478"}, 
 {"id":"d7186960-94e0-4779-badb-bf1e7878859e","lat":34.89613500,"long":137.62318400,"status":"not_yet","name":"「山王」下道路端","address":"下吉田字南山王42-3","city":"新城市","number":"22_4"}, 
 {"id":"d720715e-dbd3-435f-ad25-09876732f54b","lat":34.89547700,"long":137.10946700,"status":"done","name":"サン・シールド㈱資材置場","address":"新村町郷東２４番地","city":"西尾市","number":"113"}, 
 {"id":"d729821c-7043-4c00-aed5-9af563a79a51","lat":34.93466750,"long":137.12059300,"status":"done","name":"masked","address":"下佐々木町字屋敷５７番地北側","city":"岡崎市","number":"554"}, 
 {"id":"d734715c-8ccd-4aaa-b6dc-3fd9ffa108b6","lat":34.82232580,"long":137.33835870,"status":"done","name":"小田渕本郷児童遊園西","address":null,"city":"豊川市","number":"156"}, 
 {"id":"d738f875-2f5a-4113-89fa-03523a324229","lat":35.24582470,"long":137.08181100,"status":"done","name":"水野支所前花壇敷","address":"愛知県瀬戸市中水野町1丁目150番地","city":"瀬戸市","number":"100"}, 
 {"id":"d738ff79-7574-45a0-bfd6-349f289fbd75","lat":35.26060050,"long":136.89275790,"status":"done","name":"県道小口名古屋線","address":"六ツ師女夫越１-４先","city":"北名古屋市","number":"15"}, 
 {"id":"d7446a77-db9f-48c5-92dd-d5494146e0bd","lat":35.17065000,"long":136.79090900,"status":"done","name":"下田廻間ちびっ子広場","address":"七宝町下田廻間45番地","city":"あま市","number":"11"}, 
 {"id":"d746f9cb-b4ad-411a-9b32-8608a1ca20f7","lat":35.09821010,"long":136.95996110,"status":"done","name":"四郎曽池南西側のフェンス","address":"名古屋市緑区長根町164番1地内","city":"名古屋市","number":"131"}, 
 {"id":"d74da2a1-2b09-45f8-b4e8-1efb0e4d6ba4","lat":34.75604580,"long":137.41500120,"status":"done","name":"171春日公園西側","address":null,"city":"豊橋市","number":"171"}, 
 {"id":"d751a8da-eec0-4ba3-910d-06aca3d6ba58","lat":35.11379500,"long":137.05526100,"status":"done","name":"押草緑道内","address":"白鳥四丁目２番地４","city":"東郷町","number":"60"}, 
 {"id":"d7538b6e-075a-4ace-9995-9748cb0080be","lat":35.11585940,"long":136.88969060,"status":"done","name":"五番町住宅Ｃ棟西側フェンス","address":"熱田区五番町9番","city":"名古屋市","number":"49"}, 
 {"id":"d755be3e-ce25-4874-8505-5cbd6add04e2","lat":35.23868680,"long":136.92551980,"status":"done","name":"如意小学校北門西側フェンス","address":"北区如意三丁目131番地","city":"名古屋市","number":"210"}, 
 {"id":"d75b8912-600d-40b0-b77e-922c20e0f091","lat":35.03901940,"long":136.94406170,"status":"done","name":"荒池保育園東側","address":"共和町荒池26-1","city":"大府市","number":"87"}, 
 {"id":"d75fc6ce-5089-45b2-a305-234f72468216","lat":35.35932900,"long":136.91320800,"status":"done","name":"扶桑町役場","address":"扶桑町大字高雄字天道330番地","city":"扶桑町","number":"17"}, 
 {"id":"d761d670-e331-4e6b-a09b-0769ad8feda2","lat":34.93879510,"long":137.14977260,"status":"done","name":"朝日工業北側フェンス","address":"天白町池田５北側","city":"岡崎市","number":"214"}, 
 {"id":"d763a1a5-18c3-4666-8b47-2da373160976","lat":35.15900010,"long":136.87354220,"status":"done","name":"豊丸産業株式会社南側塀","address":"中村区長戸井町３丁目１２番地","city":"名古屋市","number":"124"}, 
 {"id":"d7643991-62e2-4759-af22-a9f6a25aa85a","lat":35.04014600,"long":137.26005600,"status":"done","name":"長福寺道路向畑（松平郷バス停）","address":"松平町大西２４－１","city":"豊田市","number":"570"}, 
 {"id":"d76b5784-a9d0-4dfb-a541-3001bcbaf5f1","lat":34.72103640,"long":137.42905730,"status":"done","name":"100豊橋総合動植物公園中央門南側","address":null,"city":"豊橋市","number":"100"}, 
 {"id":"d76fab0c-09fa-43e2-ba7d-b9a60151abef","lat":35.12540890,"long":136.90686640,"status":"done","name":"白鳥小学校東側フェンス","address":"熱田区白鳥二丁目13番12号","city":"名古屋市","number":"39"}, 
 {"id":"d774c8d5-8705-4998-a4d9-b5b7eb92b9d1","lat":35.36398700,"long":136.91081200,"status":"done","name":"扶桑北中学校","address":"扶桑町大字高雄字福塚10番地","city":"扶桑町","number":"21"}, 
 {"id":"d77752bd-ee04-4fcd-9ec8-d580ba3642df","lat":35.21018950,"long":137.09754670,"status":"done","name":"1丁目と8丁目の間の外周緑地","address":"愛知県瀬戸市萩山台1丁目133","city":"瀬戸市","number":"40"}, 
 {"id":"d778ec4e-9d05-402e-a67d-71c8183f0abe","lat":35.16987500,"long":137.37722800,"status":"not_yet","name":"足助地域バス千田停留所付近","address":"千田町イナハ５０－１","city":"豊田市","number":"745"}, 
 {"id":"d77b3707-59ce-44b5-b31f-eaa14b287d61","lat":35.04408000,"long":137.32932500,"status":"not_yet","name":"森林組合前","address":"大沼町浜松５９－１","city":"豊田市","number":"788"}, 
 {"id":"d77e87b2-a68d-483b-8017-ca9e977abfc3","lat":35.15667520,"long":136.88525730,"status":"done","name":"広見小学校　正門西側","address":"名古屋市中川区広住町4番41号","city":"名古屋市","number":"2"}, 
 {"id":"d7858723-aaa0-4087-a33e-9083e495abbe","lat":34.82748490,"long":137.29004440,"status":"done","name":"生活センター入口","address":"相楽町小畑ケ３３－１１","city":"蒲郡市","number":"1"}, 
 {"id":"d786804a-6d40-45ff-af1e-3dfc2ddb11df","lat":34.75250790,"long":137.38598180,"status":"not_yet","name":"masked","address":null,"city":"豊橋市","number":"336"}, 
 {"id":"d78b5465-e32b-425e-afbc-1ca16e00e51c","lat":34.76162000,"long":136.92505300,"status":"done","name":"屋敷ふれあい公園（旧屋敷ちびっ子広場）","address":"美浜町大字古布字屋敷164番地4","city":"美浜町","number":"31"}, 
 {"id":"d78be8f1-4336-4602-86b2-2e7030a4acf7","lat":34.92052550,"long":137.13656240,"status":"done","name":"マクドナルド岡崎土井店東側花壇","address":"土井町字荒井甲３８番地１南側","city":"岡崎市","number":"574"}, 
 {"id":"d796bfd2-9dad-42ab-9f81-5dc68116c838","lat":35.28299400,"long":136.99076000,"status":"done","name":"クリーンセンター正門北","address":"明知町字引沢1409-1","city":"春日井市","number":"274"}, 
 {"id":"d797a80b-2ecc-4b73-868f-2de3a1e066ea","lat":35.14287560,"long":136.85021730,"status":"done","name":"高畑公園　北側","address":"名古屋市中川区高畑四丁目","city":"名古屋市","number":"115"}, 
 {"id":"d79bfe97-02d1-4125-a8f2-a717d4985a25","lat":35.31083100,"long":136.80070900,"status":"error_wrong_place","name":"宮西小学校東正門南側","address":"大宮４丁目５番","city":"一宮市","number":"1"}, 
 {"id":"d79ddef1-9fd9-4dd0-8770-d39560ad8388","lat":34.95553540,"long":136.92527760,"status":"not_yet","name":"調整池南東ガードパイプ","address":"大字福住字高根台119付近","city":"阿久比町","number":"66"}, 
 {"id":"d79de024-f1a1-4530-8636-ac0b0e30a979","lat":35.29385376,"long":136.91918945,"status":"done","name":"大輪体育館（南側フェンス）","address":"小牧市小牧一丁目114","city":"小牧市","number":"98"}, 
 {"id":"d7a868f5-bc7c-46a1-a46b-ac9d309d9f1e","lat":35.23122800,"long":137.31741300,"status":"not_yet","name":"西細田集荷場","address":"西細田町惣作２６１－１","city":"豊田市","number":"690"}, 
 {"id":"d7a91901-8adb-4c88-8d7e-7f1deac4363a","lat":35.05178250,"long":136.98916480,"status":"done","name":"大蔵池公園\n大蔵池東堤防北より","address":"栄町九左山","city":"豊明市","number":"70"}, 
 {"id":"d7ae097c-9ecf-4ed4-b13a-820b52f593b3","lat":35.20573780,"long":136.91434630,"status":"done","name":"天道公園南出入口東側植込み","address":"北区天道町1丁目17番地","city":"名古屋市","number":"132"}, 
 {"id":"d7b07e47-12cc-4721-84a4-0d91940f3238","lat":35.26222600,"long":137.53356900,"status":"not_yet","name":"稲武地域バス上柏洞停留所付近","address":"大野瀬町日ヨモ２２番地２先","city":"豊田市","number":"862"}, 
 {"id":"d7b16a32-e622-4059-9894-6fc566141985","lat":35.34641600,"long":136.91493200,"status":"not_yet","name":"兼房株式会社　駐車場東側","address":"丹羽郡大口町中小口一丁目１１６","city":"大口町","number":"55"}, 
 {"id":"d7b6b9a3-7e97-4e52-a1b4-1e653ebdaddc","lat":34.95204200,"long":137.09577900,"status":"done","name":"毘沙門公園北側フェンス","address":"東明町１１－１０","city":"安城市","number":"155"}, 
 {"id":"d7c3e74e-6340-4197-933c-062351c0b027","lat":35.14028900,"long":136.76806600,"status":"done","name":"下春日台団地西北角公園西","address":"津島市鹿伏兎町下春日台１番13","city":"津島市","number":"92"}, 
 {"id":"d7c4be89-c749-417d-9db0-c62a9c1822d6","lat":35.21012500,"long":136.81710800,"status":"done","name":"方領第１ちびっ子広場","address":"方領屋敷116番地","city":"あま市","number":"158"}, 
 {"id":"d7ca98e1-58a7-45d8-87cd-998170894211","lat":35.05768590,"long":136.92295780,"status":"done","name":"緑陽台緑地広場（南側）","address":"4.名和町緑陽台１７－２７","city":"東海市","number":"4"}, 
 {"id":"d7d00270-4a4b-4246-934d-60d6753ebafe","lat":34.90633750,"long":137.49730330,"status":"not_yet","name":"城北東部公園ネットフェンス（西側）","address":"城北2丁目7-1","city":"新城市","number":"2_4"}, 
 {"id":"d7d13340-fa70-49b7-b4fd-4825cc59d619","lat":35.00875550,"long":137.07044870,"status":"done","name":"八橋町五輪２９　マキタ寮ドミトリー八橋　駐車場フェンス","address":"八橋町五輪２９　マキタ寮ドミトリー八橋　駐車場フェンス","city":"知立市","number":"25"}, 
 {"id":"d7d7e95e-c3bf-41de-b888-0b7fe816cb00","lat":34.80022750,"long":137.17690010,"status":"done","name":"masked","address":"形原町西中田２４－６","city":"蒲郡市","number":"157"}, 
 {"id":"d7d85e35-be62-4cf6-8e66-3ecd4a0076cc","lat":34.99015400,"long":137.07505200,"status":"done","name":"唐池公園東側植栽","address":"住吉町５－３２－２","city":"安城市","number":"62"}, 
 {"id":"d7dfa155-feba-4fa3-bca0-31d683705ff6","lat":35.13787440,"long":136.90177840,"status":"done","name":"高蔵小学校南東側フェンス","address":"熱田区花町7番33号","city":"名古屋市","number":"12"}, 
 {"id":"d7ec8dfe-7919-47c0-92ac-50733f39d9dd","lat":35.14597800,"long":136.92251050,"status":"done","name":null,"address":"名古屋市昭和区御器所四丁目1-2","city":"名古屋市","number":"132"}, 
 {"id":"d7ee9a0f-5d31-4b46-a7cd-bb3b530f1200","lat":34.94268560,"long":136.91587580,"status":"not_yet","name":"英比水防倉庫北空き地","address":"大字卯坂字知原岬22-1","city":"阿久比町","number":"24"}, 
 {"id":"d7f1bec6-f475-46ea-8c31-ebbd1023ac81","lat":35.33474300,"long":136.84698500,"status":"done","name":"島宮八剣社南玉垣","address":"江南市島宮町水堀２７","city":"江南市","number":"69"}, 
 {"id":"d7fb1c61-b587-4c81-82f5-70369e287bd2","lat":34.88723720,"long":136.91242730,"status":"done","name":"宮本住宅北西角浄化槽フェンス","address":"宮本町4丁目15","city":"半田市","number":"２３－２"}, 
 {"id":"d7fe8b17-a31a-494a-8e92-24d2b87c5144","lat":35.09970800,"long":136.91893670,"status":"done","name":"山崎汚泥処理場　東側フェンス","address":"南区忠次一丁目9-24","city":"名古屋市","number":"23"}, 
 {"id":"d80486a3-3cdb-4374-a2e3-42de28ecf379","lat":34.83408480,"long":136.86839770,"status":"done","name":"道路ｶﾞｰﾄﾞﾚｰﾙ","address":"常滑市小鈴谷字油田8-1","city":"常滑市","number":"127"}, 
 {"id":"d8060bac-bcfe-4874-828e-877ab0238dae","lat":34.98483720,"long":136.86888360,"status":"done","name":"つつじが丘小学校北","address":"知多市つつじが丘4丁目26番地","city":"知多市","number":"28"}, 
 {"id":"d815a32c-eaa2-4110-a291-5f0fefd55766","lat":35.29228200,"long":136.98573300,"status":"done","name":"桃花台第1公園（東側）","address":"小牧市城山四丁目60","city":"小牧市","number":"201"}, 
 {"id":"d816931d-a1df-4b1a-af31-f95f3edee34c","lat":35.31652500,"long":136.94293200,"status":"not_yet","name":"田県公園（西側フェンス）","address":"小牧市田県町50","city":"小牧市","number":"158"}, 
 {"id":"d8195bdd-5529-45da-8c0c-ec770b969ad7","lat":34.89710200,"long":137.21796360,"status":"done","name":"市営住宅桑谷荘南","address":"桑谷町字宮ノ入４２－６西","city":"岡崎市","number":"335"}, 
 {"id":"d824201c-d870-4e4b-a1ca-f30deb48944d","lat":35.16282300,"long":137.18594400,"status":"done","name":"藤岡南中学校","address":"西中山町蔵屋敷８６－１","city":"豊田市","number":"595"}, 
 {"id":"d8251fc6-396d-4a90-8af0-f3123a26c333","lat":35.17410220,"long":136.94688680,"status":"done","name":"若水中学校東側フェンス","address":"千種区若水二丁目6番1号","city":"名古屋市","number":"60"}, 
 {"id":"d82a3e2a-69ad-438d-b0f9-b5c93ec96c5d","lat":34.86558500,"long":136.99253800,"status":"done","name":"川端公園","address":"碧南市川端町２丁目１３番地","city":"碧南市","number":"101"}, 
 {"id":"d838fe61-7b1e-41f4-a986-700bf26e867a","lat":35.20298630,"long":136.93094870,"status":"done","name":"児童交通遊園南側フェンス","address":"北区上飯田南町1丁目45番地の4","city":"名古屋市","number":"25"}, 
 {"id":"d83e8e9c-a6ae-45e1-b0cf-76e97f0b4ec1","lat":35.11850850,"long":136.96792520,"status":"done","name":"保呂公園西側鉄柵","address":"天白区保呂町801番地","city":"名古屋市","number":"101"}, 
 {"id":"d8432b8c-6f7b-4531-a247-d639eb9da489","lat":34.86029230,"long":137.30360670,"status":"done","name":"音羽中学校南","address":null,"city":"豊川市","number":"252"}, 
 {"id":"d84d3414-216b-4458-a0ca-d221a9b39f03","lat":35.20768960,"long":136.97044980,"status":"done","name":"北側ブロック塀","address":"名古屋市守山区小幡中三丁目10番17号","city":"名古屋市","number":"139"}, 
 {"id":"d851a111-10c6-4dcb-b435-1e2a9dad42e3","lat":35.01947500,"long":136.90182110,"status":"done","name":"大田市民館（北東側）","address":"118.大田町細田１４","city":"東海市","number":"118"}, 
 {"id":"d8524067-e8f9-420f-a033-e881d24ea015","lat":34.90781040,"long":136.83099830,"status":"done","name":"榎戸公園","address":"常滑市榎戸町5-81","city":"常滑市","number":"58"}, 
 {"id":"d856c96e-c67a-4787-8733-4cb6a9e9259e","lat":34.95392860,"long":137.16349330,"status":"done","name":"旧岡崎市教育研究所東側フェンス","address":"明大寺本町１丁目４６番地","city":"岡崎市","number":"127"}, 
 {"id":"d8597f2a-381f-420f-9be6-c1200367c12b","lat":35.17831000,"long":136.98823000,"status":"done","name":"蓬来小学校西通用門南側フェンス","address":"名古屋市名東区よもぎ台一丁目501番地","city":"名古屋市","number":"21"}, 
 {"id":"d85f2d21-db0a-4699-9f1a-9949a07047e0","lat":35.36786300,"long":136.90928600,"status":"not_yet","name":"安戸児童遊園","address":"扶桑町大字南山名字安戸93番地","city":"扶桑町","number":"36"}, 
 {"id":"d865660e-ee3c-42f1-ab53-c46e2521b22d","lat":34.76511590,"long":137.43095620,"status":"done","name":"32上下水道局小鷹野浄水場南側","address":null,"city":"豊橋市","number":"32"}, 
 {"id":"d868ca2e-5354-47b0-a545-71912454dccc","lat":35.03674500,"long":137.71753760,"status":"reserved","name":"旧夏目宅付近","address":"三輪字市原31-2","city":"東栄町","number":"51"}, 
 {"id":"d871267e-7094-46d9-8418-bfd5ca2c3796","lat":34.90155800,"long":137.26401470,"status":"error_wrong_place","name":"パン屋「ペトリール」北","address":"上衣文町字一ノ木１１番地北","city":"岡崎市","number":"357"}, 
 {"id":"d876c4fe-6c15-41e0-9561-46a8bf9480c4","lat":35.03189800,"long":137.06497200,"status":"done","name":"高丘新町神社","address":"高丘新町松本４７","city":"豊田市","number":"370"}, 
 {"id":"d87d0c3e-9aed-40d7-8c97-d02a4edea2dc","lat":34.89471370,"long":136.91518310,"status":"done","name":"白山公園南西","address":"白山町5丁目218","city":"半田市","number":"２８－２"}, 
 {"id":"d87d5735-7ebe-43ae-a6a1-03b60b585ad9","lat":34.97435260,"long":137.16613360,"status":"done","name":"井田八幡宮参道西側","address":"井田町字中屋敷６２西側","city":"岡崎市","number":"96"}, 
 {"id":"d87dda57-d904-4c57-ae9c-560b641d3c8d","lat":35.32238800,"long":136.99090600,"status":"done","name":"第一老人福祉センター（南側）","address":"小牧市大字野口2426-1","city":"小牧市","number":"180"}, 
 {"id":"d880778e-87a8-41a1-a572-bed7af2b0dd2","lat":35.09883310,"long":136.99710060,"status":"done","name":"神沢池西側の柵","address":"名古屋市緑区鳴海町字神沢2709番地内","city":"名古屋市","number":"103"}, 
 {"id":"d883a725-797a-48d3-9fd1-f81972e75b5d","lat":34.80659500,"long":137.07704200,"status":"done","name":"南北水路敷","address":"吉良町饗庭下佃１５番地","city":"西尾市","number":"190"}, 
 {"id":"d88683e8-5b66-4e49-bc28-f816c94bf328","lat":35.18977550,"long":136.89803770,"status":"done","name":"数寄屋公園","address":"西区数寄屋町６０１番","city":"名古屋市","number":"30"}, 
 {"id":"d88842bb-5ee8-4494-bc09-81ca8263a7f4","lat":34.89582800,"long":137.04524200,"status":"done","name":"城ケ入ちびっこ広場北フェンス","address":"城ヶ入町欠間１０３－１","city":"安城市","number":"280"}, 
 {"id":"d8925c33-d1ad-47cd-99c4-f19d7c163c71","lat":34.63151940,"long":137.10479250,"status":"done","name":"(有)マルト化学工業付近","address":"田原市古田町郷中１６２","city":"田原市","number":"152"}, 
 {"id":"d896825e-421a-4499-be02-69ab76479f73","lat":34.90678300,"long":137.56161700,"status":"not_yet","name":"旧市川小学校跡地ネットフェンス（北側）","address":"市川字宮ノ前27","city":"新城市","number":"9_2"}, 
 {"id":"d897c82a-1c6c-40dc-a30a-68a62cfa85e1","lat":35.13945000,"long":136.72810000,"status":"not_yet","name":"市江地区コミュニティセンター（11番地1）東ガードパイプ","address":"東條町西田面11番地1","city":"愛西市","number":"34"}, 
 {"id":"d8a0d884-2cbf-4801-9765-e8eebc29f2e9","lat":35.01443920,"long":137.20802500,"status":"not_yet","name":"masked","address":"丹坂町藪下２１","city":"岡崎市","number":"451"}, 
 {"id":"d8a8ebc8-0979-4f20-8998-745501d4f486","lat":35.15507500,"long":136.77027900,"status":"done","name":"白浜公民館東フェンス","address":"津島市白浜町字小新開39番","city":"津島市","number":"82"}, 
 {"id":"d8ac5aed-a6f2-4310-8a41-0e2dc7abde7e","lat":35.14376340,"long":136.87817700,"status":"done","name":"上下水道局量水器検査場　南側","address":"名古屋市中川区二女子町4丁目53番地の1","city":"名古屋市","number":"47"}, 
 {"id":"d8ae83c3-cf1f-433d-8b93-6b3651566497","lat":35.28191800,"long":137.27404800,"status":"done","name":"農業者健康管理センター前","address":"小原田代町釜ヶ洞２２－２先","city":"豊田市","number":"670"}, 
 {"id":"d8aeb819-3a76-494e-8611-e162d8291cc4","lat":34.93721160,"long":137.15872980,"status":"done","name":"向山公園南側フェンス","address":"向山町５－１６東側","city":"岡崎市","number":"141"}, 
 {"id":"d8af81eb-eb5d-4bef-878e-174a85111474","lat":34.71516290,"long":137.39576690,"status":"not_yet","name":"390本郷中学校西側","address":null,"city":"豊橋市","number":"390"}, 
 {"id":"d8c902c7-899b-4ebb-ab75-987bec323e7e","lat":34.95279400,"long":137.07629800,"status":"done","name":"石ナ曽根公園北側生垣の西寄り植栽に隙間が無い場所","address":"百石町１－１０－１","city":"安城市","number":"173"}, 
 {"id":"d8cc9bf3-abe6-4e1f-ab40-dd4bbfeccbb7","lat":34.82940490,"long":137.28388080,"status":"done","name":"相楽運動広場","address":"相楽町上ミ９－２","city":"蒲郡市","number":"2"}, 
 {"id":"d8ce8bf1-3223-4b0b-be0b-d4542119678d","lat":34.84803800,"long":137.02774000,"status":"done","name":"養壽寺","address":"上矢田町熊子６０番地１、下矢田町郷２番地１","city":"西尾市","number":"77"}, 
 {"id":"d8d3886e-c841-40e8-99a9-04ab01a9873e","lat":35.36978100,"long":136.91587800,"status":"not_yet","name":"扶桑台第２児童遊園","address":"扶桑町大字高雄字扶桑台100番地","city":"扶桑町","number":"35"}, 
 {"id":"d8d6e068-7bd1-4104-9a7a-6cbdfe5939df","lat":35.17227200,"long":136.81356800,"status":"done","name":"西條城前田南ちびっこ広場東側水路フェンス","address":"大治町大字西條字城前田１３２地先","city":"大治町","number":"12"}, 
 {"id":"d8dee906-493a-49d1-9380-17453a674219","lat":35.39071300,"long":136.98170500,"status":"done","name":"善師野駅南側フェンス","address":"大字善師野字真土4番地2","city":"犬山市","number":"６２"}, 
 {"id":"d8e030f2-c237-4711-9768-8183d971a5d1","lat":35.33178300,"long":136.87925700,"status":"not_yet","name":"masked","address":"江南市尾崎町屋敷６０","city":"江南市","number":"29"}, 
 {"id":"d8e120dd-c008-4a3e-8a77-21adf70db6d9","lat":35.26930500,"long":137.07631100,"status":"done","name":"(有)大島プレス道路向空地","address":"愛知県瀬戸市川平町23･26","city":"瀬戸市","number":"125"}, 
 {"id":"d8e5bbe5-2a6b-4ce6-ba73-46da7258ac6a","lat":35.21754500,"long":136.84046900,"status":"done","name":"清洲公園西側","address":"清洲三丁目７番地１","city":"清須市","number":"46"}, 
 {"id":"d8e8ac7b-d229-4a45-aa71-1de1158b3283","lat":35.22393000,"long":137.05428100,"status":"done","name":"旭台老人いこいの家（南側ブロック）","address":null,"city":"尾張旭市","number":"97"}, 
 {"id":"d8f26814-6952-4a09-91d2-97fc7e4545cb","lat":35.03120800,"long":137.00669900,"status":"done","name":"絵下城児童遊園","address":"泉田町絵下城36番地10","city":"刈谷市","number":"142"}, 
 {"id":"d8f61d6c-d1ee-4a09-adda-6feaf456977f","lat":35.04200600,"long":136.93710810,"status":"done","name":"「鴻ノ巣」交差点‐「神戸」交差点間西側","address":"共和町鴻ノ巣地内","city":"大府市","number":"89"}, 
 {"id":"d90139f6-40c6-4e9b-bd18-2cf602b66564","lat":35.04602100,"long":137.32379000,"status":"not_yet","name":"下山駐車場","address":"大沼町後庵１０２－９","city":"豊田市","number":"787"}, 
 {"id":"d903d6cd-5a29-4d1c-babf-b6fa38b6cbd9","lat":35.06695470,"long":136.90986510,"status":"done","name":"千鳥公園（北側）","address":"1.名和町一番割中６１","city":"東海市","number":"1"}, 
 {"id":"d907b463-310d-4824-8523-71c0de2a766f","lat":35.16898440,"long":136.97380300,"status":"done","name":"第二池上住宅西棟西側フェンス","address":"千種区池上町3丁目10番地1","city":"名古屋市","number":"159"}, 
 {"id":"d90d55a7-cd5e-4af7-a7b8-da2d6553e2c4","lat":35.21142600,"long":136.84133900,"status":"done","name":"清洲東小学校南交差点(マンション・クレセントラウレル南側)","address":"清洲２３５８番地１","city":"清須市","number":"33"}, 
 {"id":"d917a630-c5cf-4c39-b180-f3656fd69891","lat":34.94659330,"long":137.20077450,"status":"done","name":"長沼池南側フェンス","address":"洞町字長沼２６番地１２北側","city":"岡崎市","number":"267"}, 
 {"id":"d918a2d7-9282-4c97-9d9a-0fa3c4542335","lat":35.21799410,"long":137.12605700,"status":"done","name":"赤津川河川敷沿いガードパイプ","address":"愛知県瀬戸市新明町７−５先（無地番）","city":"瀬戸市","number":"20"}, 
 {"id":"d91b7246-362c-4b7c-bda8-8d3742bf7c73","lat":35.00943540,"long":137.03439070,"status":"done","name":"西町草刈６１ 　　スギ薬局知立福祉アリーナ　第３駐車場","address":"西町草刈６１ 　　スギ薬局知立福祉アリーナ　第３駐車場","city":"知立市","number":"37"}, 
 {"id":"d91c6130-e9f1-4be0-b26f-ca397c063530","lat":35.11962480,"long":136.92920180,"status":"done","name":"北側鉄製塀","address":"瑞穂区井戸田町３丁目５番地","city":"名古屋市","number":"62"}, 
 {"id":"d920d4a5-3eb7-4a80-b218-9b1a9a9872e1","lat":35.14267000,"long":137.24156200,"status":"not_yet","name":"消防格納庫前","address":"芳友町トイタ１９６","city":"豊田市","number":"523"}, 
 {"id":"d925b52c-8a90-4f88-966a-f7386f6db69e","lat":35.07768300,"long":137.18047900,"status":"done","name":"美里交流館駐車場","address":"美里５－２－１","city":"豊田市","number":"204"}, 
 {"id":"d92795e7-1c3e-4d4a-978a-4b0a13e5520a","lat":35.22940200,"long":137.04678600,"status":"done","name":"masked","address":null,"city":"尾張旭市","number":"86"}, 
 {"id":"d92cae71-1c1f-4038-985d-d422bec7b7a8","lat":34.97287790,"long":136.88530780,"status":"done","name":"道路上","address":"知多市佐布里字東脇口54番地の11","city":"知多市","number":"93"}, 
 {"id":"d92fb83c-af52-4f97-b4cf-a38df0a93874","lat":35.18751400,"long":137.02273400,"status":"done","name":"河川沿いフェンス","address":"下山４０番地１","city":"長久手市","number":"46"}, 
 {"id":"d939df07-57c5-40d8-8bf8-87ac5b2f79bc","lat":35.22810080,"long":137.09300970,"status":"done","name":"瀬戸SOLAN小学校北側フェンス","address":"愛知県瀬戸市道泉町７６−２","city":"瀬戸市","number":"3"}, 
 {"id":"d93fb4e7-5c14-487c-8737-8229068ac9e3","lat":34.69005420,"long":137.39683350,"status":"not_yet","name":"497旧若松バス停横","address":null,"city":"豊橋市","number":"497"}, 
 {"id":"d94585ae-c3ba-484c-897a-918846117679","lat":34.98673850,"long":136.85982730,"status":"done","name":"商工会館フェンス","address":"知多市新知字下森1番地の1","city":"知多市","number":"75"}, 
 {"id":"d947b847-9703-4fb6-8e2b-d0c243efc409","lat":35.34037800,"long":136.94003300,"status":"not_yet","name":"米野東ちびっこ広場東側フェンス","address":"大字羽黒新田字米野前1-62","city":"犬山市","number":"１２３"}, 
 {"id":"d949545d-c724-45c6-a19d-55accc38203b","lat":35.14631000,"long":136.99693000,"status":"done","name":"高針原公園東側鉄柵（奥側鉄柵）","address":"名古屋市名東区高針原二丁目1301番地","city":"名古屋市","number":"168"}, 
 {"id":"d94e36bb-cfe4-4017-bdaa-39671a9faba3","lat":34.91773000,"long":137.18527510,"status":"done","name":"消防団倉庫東","address":"緑丘３丁目８－６北側","city":"岡崎市","number":"309"}, 
 {"id":"d958da67-dbf8-480c-a63a-5a52aefd4c1e","lat":35.19098100,"long":137.10580070,"status":"done","name":"さくら公園南側フェンス","address":"愛知県瀬戸市宮地町105-4","city":"瀬戸市","number":"135"}, 
 {"id":"d9592e26-005f-4c1b-8b81-2cda3300f550","lat":35.08336600,"long":136.91908160,"status":"done","name":"市営神松荘7棟　西側フェンス","address":"南区神松町3-2","city":"名古屋市","number":"147"}, 
 {"id":"d95b56c1-3150-49f8-bd02-5ea5b2189833","lat":34.96009000,"long":137.08442500,"status":"done","name":"上条コミュニティ広場西側フェンス","address":"上条町大通４－１","city":"安城市","number":"115"}, 
 {"id":"d95f4d53-f6af-481b-a80b-303456decbf9","lat":35.19610100,"long":137.01573100,"status":"done","name":"旭名東営業所（北側）","address":null,"city":"尾張旭市","number":"7"}, 
 {"id":"d9640e51-5551-4782-b783-1d35cb718b62","lat":35.18578300,"long":136.68752300,"status":"not_yet","name":"枝郷集出荷所南道路敷","address":"早尾町枝郷","city":"愛西市","number":"53"}, 
 {"id":"d9685656-ff92-4025-8114-76e19dc65645","lat":34.91587820,"long":137.17404670,"status":"done","name":"矢崎公園東側","address":"上地３丁目５－９","city":"岡崎市","number":"250"}, 
 {"id":"d96f7d6c-8f8a-4493-8667-5c7249d6983d","lat":35.03238700,"long":137.01637300,"status":"done","name":"masked","address":"今川町3丁目501番地","city":"刈谷市","number":"151"}, 
 {"id":"d96f9213-8ef7-4b8d-ad5c-acb242320e42","lat":35.17041000,"long":137.00178000,"status":"done","name":"西一社第二公園東側南寄鉄柵","address":"名古屋市名東区社台三丁目238番地","city":"名古屋市","number":"77"}, 
 {"id":"d97d0fac-21a4-443a-97d5-bb137ef6b180","lat":35.00494810,"long":137.04364790,"status":"done","name":"新富１丁目４８番地","address":"新富１丁目４８番地","city":"知立市","number":"47"}, 
 {"id":"d981fbc7-8475-4dfd-b178-de213640f402","lat":35.11592730,"long":137.03701900,"status":"done","name":"名鉄豊田線跨線橋東フェンス","address":"日進市藤塚五丁目２８９番地","city":"日進市","number":"65"}, 
 {"id":"d98f278e-d80b-467d-a054-b0a76b95c269","lat":35.08281300,"long":137.23130800,"status":"not_yet","name":"幸海小学校土手","address":"幸海町下御堂下切１４","city":"豊田市","number":"534"}, 
 {"id":"d98f3217-eb94-4d35-bb21-311711e8909a","lat":34.70199600,"long":136.96984900,"status":"done","name":"ごみ集積所横","address":"師崎新町１７の３地先","city":"南知多町","number":"59"}, 
 {"id":"d98fa873-929f-44d1-bfe7-58118a8879c1","lat":35.21699120,"long":137.07590960,"status":"done","name":"八幡工業東側空地","address":"愛知県瀬戸市東長根町19-3","city":"瀬戸市","number":"118"}, 
 {"id":"d9977ccb-8a71-4a95-960d-4ccfed33475d","lat":35.15698870,"long":136.83471070,"status":"done","name":"北畑公園　西側","address":"名古屋市中川区万場一丁目","city":"名古屋市","number":"209"}, 
 {"id":"d9995cd1-ce39-42f0-a0ef-c814264346f9","lat":35.17900500,"long":136.72999600,"status":"done","name":"ＪＡあいち海部駐車場西フェンス","address":"津島市藤浪町１丁目52番","city":"津島市","number":"34"}, 
 {"id":"d99c8947-bc78-4222-bfb2-02f199f61a41","lat":34.90813440,"long":136.89576710,"status":"error_wrong_place","name":"折戸池南東ガードパイプ","address":"平井町5-65","city":"半田市","number":"１２－６"}, 
 {"id":"d9abd84e-126a-4e25-934e-af2b1f040860","lat":34.93844820,"long":137.00277990,"status":"done","name":"masked","address":"神明町八丁目１０－１０","city":"高浜市","number":"25"}, 
 {"id":"d9ad4088-efdd-4d57-bf3d-231cf62afdb1","lat":34.74039380,"long":137.40992610,"status":"done","name":"480幸公園西側","address":null,"city":"豊橋市","number":"480"}, 
 {"id":"d9b0f0fa-97c6-4902-b51d-1fa404643a70","lat":35.29703900,"long":136.76470900,"status":"not_yet","name":"西部浄化センター北側水路フェンス","address":"萩原町花井方字乾出11先","city":"一宮市","number":"6"}, 
 {"id":"d9b64e8e-bd8d-4601-b5d6-c92b16048436","lat":35.32231500,"long":136.92199700,"status":"not_yet","name":"外坪巾共同集荷所北","address":"丹羽郡大口町外坪三丁目８５","city":"大口町","number":"24"}, 
 {"id":"d9b669f8-9067-4648-b783-34b98c0a0f90","lat":34.89363020,"long":137.58711080,"status":"not_yet","name":"東竹ノ輪集会所敷地(水道管注意）","address":"竹ノ輪字浜井場650-3","city":"新城市","number":"22_7"}, 
 {"id":"d9b6878b-e6cf-435c-92b8-a43eb5459f6a","lat":34.95988010,"long":137.17101250,"status":"done","name":"masked","address":"梅園町字山添１１２番地東側","city":"岡崎市","number":"30"}, 
 {"id":"d9b7354f-de1f-4db5-a0c5-832f1eac964f","lat":35.22151960,"long":136.92549800,"status":"done","name":"味鋺小学校北門西側フェンス","address":"北区楠味鋺三丁目126番地","city":"名古屋市","number":"179"}, 
 {"id":"d9b7a7eb-ad08-43e0-86d0-2bb0a90e091c","lat":35.08538800,"long":137.17991600,"status":"done","name":"広川公園","address":"広川町７－９６","city":"豊田市","number":"209"}, 
 {"id":"d9bfa8bf-95c5-4bc1-ad86-fe1a662fc79b","lat":34.96496600,"long":137.10322600,"status":"done","name":"安城東高等学校正門北側フェンス","address":"北山崎町大土塚１０","city":"安城市","number":"106"}, 
 {"id":"d9ca0c0b-6cf2-4d2c-8657-1b3bd01308db","lat":34.93701900,"long":136.92909200,"status":"done","name":"宮津保育園南フェンス","address":"阿久比町陽なたの丘1-9","city":"阿久比町","number":"11"}, 
 {"id":"d9cba48d-3679-406f-9bea-9fff463d1dea","lat":34.70081950,"long":137.36101370,"status":"not_yet","name":"444彦坂池南側(窓口ｾﾝﾀ-駐車場西)","address":null,"city":"豊橋市","number":"444"}, 
 {"id":"d9dbc79d-9f9b-4a14-be16-6121347bc6f1","lat":34.88843500,"long":137.01956200,"status":"done","name":"鷲塚保育園","address":"碧南市旭町３丁目７０番地２","city":"碧南市","number":"51"}, 
 {"id":"d9e4dd22-23e8-4b24-aa2e-c3a442a58f00","lat":35.23395500,"long":136.98481800,"status":"done","name":"和爾良神社北","address":"上条町8-3619","city":"春日井市","number":"144"}, 
 {"id":"d9eeae1a-61d7-4099-a47d-34e5bf8377b6","lat":34.91225540,"long":137.16481780,"status":"done","name":"上地調整池南側フェンス","address":"上地２丁目２７－１０北側","city":"岡崎市","number":"251"}, 
 {"id":"d9efb633-fc83-4345-a7d3-280165ff99b5","lat":35.18753000,"long":136.99328000,"status":"done","name":"香流小学校北側フェンス","address":"名古屋市名東区香流二丁目1201番地","city":"名古屋市","number":"14"}, 
 {"id":"d9f66541-d214-49a4-b0ae-fd76c6bd2556","lat":35.38863000,"long":136.94438200,"status":"done","name":"キャッスルハイツ犬山西側駐車場フェンス","address":"大字犬山字中道20－3","city":"犬山市","number":"２９"}, 
 {"id":"d9fe112e-cd60-4c56-ad45-15232beb6670","lat":34.90174260,"long":136.94884740,"status":"done","name":"西古浜街園西側","address":"相賀町1-115","city":"半田市","number":"６－５"}, 
 {"id":"da01ebd8-db4b-4efc-a02d-13b1bdd13e7c","lat":35.18411720,"long":137.04859030,"status":"done","name":"市役所前バス停東側植込み","address":"岩作城の内６０番地１","city":"長久手市","number":"21"}, 
 {"id":"da021ab2-873c-4772-95ef-b55c72c6ed53","lat":35.32217800,"long":136.80195600,"status":"done","name":"療育サポートプラザ北側","address":"北丹町２番地","city":"一宮市","number":"3"}, 
 {"id":"da05af50-88c5-4b9e-a5ae-550d30d99516","lat":35.28675500,"long":136.80450400,"status":"done","name":"鉄道高架記念緑道西側","address":"妙興寺1丁目6-1","city":"一宮市","number":"1"}, 
 {"id":"da0612e3-10c7-4955-8dbc-fe65c94a0179","lat":35.11506900,"long":137.04340300,"status":"done","name":"南ケ丘二丁目公園北","address":"日進市南ケ丘二丁目１５番地","city":"日進市","number":"75"}, 
 {"id":"da066302-09e2-4095-ab4b-f6091d85db66","lat":35.07233810,"long":136.97461330,"status":"done","name":"鳴海団地201号棟南側のフェンス","address":"名古屋市緑区鳴海町字細根84番地の4","city":"名古屋市","number":"152"}, 
 {"id":"da090284-5d53-420f-9de0-e2edc64a1996","lat":34.89571400,"long":136.99255400,"status":"done","name":"篭田町２丁目地内植樹帯","address":"碧南市篭田町２丁目地内","city":"碧南市","number":"39"}, 
 {"id":"da12b54d-66a2-43df-9d04-ba3573d10d46","lat":35.04725130,"long":136.99903580,"status":"done","name":"masked","address":"栄町裏畑４７番地１","city":"豊明市","number":"38"}, 
 {"id":"da12f21a-ae69-4a28-bd6c-e8c5b2d4d5de","lat":35.17060100,"long":137.35092200,"status":"not_yet","name":"八幡神社向かい","address":"新盛町深沼２９","city":"豊田市","number":"754"}, 
 {"id":"da1317f9-023b-40f9-aa04-1d54990e65ee","lat":34.90872200,"long":137.01191700,"status":"done","name":"応仁寺駐車場","address":"碧南市油渕町１丁目１０番地１","city":"碧南市","number":"14"}, 
 {"id":"da13b227-e215-40f2-98bc-01e72ecf8645","lat":35.17014700,"long":136.80615200,"status":"done","name":"桂下り戸団地入口畑","address":"七宝町桂下り戸16番地1","city":"あま市","number":"19"}, 
 {"id":"da145c3b-80e9-49ce-be1e-5cc8b24cdb13","lat":35.25982700,"long":136.97999600,"status":"done","name":"東丘公園西","address":"六軒屋町6-169","city":"春日井市","number":"173"}, 
 {"id":"da36564e-3057-45d7-ac07-4882b590f33f","lat":35.32000700,"long":136.74653600,"status":"error_wrong_place","name":"masked","address":"小信中島字北東山５５８","city":"一宮市","number":"2"}, 
 {"id":"da37efa9-7b0c-4860-8fac-59679d102a61","lat":35.08151200,"long":137.18003800,"status":"done","name":"入沢公園","address":"広川町９－１５２","city":"豊田市","number":"212"}, 
 {"id":"da40a551-3deb-4808-af4a-5a39e19200b3","lat":35.12108490,"long":136.92923310,"status":"done","name":"(株)藤千商会倉庫　南側金網塀","address":"瑞穂区惣作町３丁目２６番地の１","city":"名古屋市","number":"61"}, 
 {"id":"da428ec1-30d8-48d7-8f17-29cb9c2ad41a","lat":35.03351620,"long":137.71516000,"status":"done","name":"外山宅塀","address":"三輪字横引15-41","city":"東栄町","number":"50"}, 
 {"id":"da443b98-7bed-40ed-8422-f53ed3471299","lat":35.35060500,"long":136.87181100,"status":"done","name":"北部学校給食センター南フェンス","address":"江南市高屋町清水３２","city":"江南市","number":"65"}, 
 {"id":"da563f52-5ae0-4f78-b22e-317b6cdcd490","lat":35.07315190,"long":136.91445660,"status":"done","name":"三吉公園　西側フェンス","address":"南区三吉町3-1","city":"名古屋市","number":"155"}, 
 {"id":"da573dc3-e765-4910-b1bd-c8fabb8ff891","lat":34.93532600,"long":137.08728000,"status":"done","name":"県営古井住宅８棟東の植栽","address":"古井町揚リ登２７－１","city":"安城市","number":"233"}, 
 {"id":"da597ded-3756-4685-9237-6fde61dc3ea8","lat":35.21726680,"long":136.88268840,"status":"done","name":"山西用水路","address":"西区上小田井一丁目６９番先","city":"名古屋市","number":"138"}, 
 {"id":"da616b03-800d-44f0-b701-dd6a9436077a","lat":35.12306200,"long":137.12092600,"status":"done","name":"(下り松公園南側)","address":"三好丘旭二丁目7","city":"みよし市","number":"49"}, 
 {"id":"da69b681-c816-4d3b-a48c-4bdbda6b1a9a","lat":35.22864400,"long":136.97156800,"status":"done","name":"西津公園西","address":"下条町1-4","city":"春日井市","number":"122"}, 
 {"id":"da70118a-5029-43d8-8f5f-e29b66a343ac","lat":35.33247000,"long":136.86674500,"status":"done","name":"江南郵便局入口東側植込み","address":"江南市赤童子町良原１４３－１","city":"江南市","number":"17"}, 
 {"id":"da75037d-7e04-4e01-b2ae-728295e25353","lat":34.78961710,"long":137.38716590,"status":"done","name":"68雇用促進大村宿舎東側","address":null,"city":"豊橋市","number":"68"}, 
 {"id":"da7558dc-c297-4226-a6cb-941ed054799f","lat":35.19721900,"long":137.04750000,"status":"done","name":"晴丘東調整池前ガードパイプ（北側）","address":null,"city":"尾張旭市","number":"148"}, 
 {"id":"da798a04-fe97-41bc-87c6-16ee4de7683c","lat":35.18300600,"long":137.43226600,"status":"not_yet","name":"連谷集会所","address":"連谷町広畑１２","city":"豊田市","number":"746"}, 
 {"id":"da7a44f1-396f-4eea-be77-fb26ac41862e","lat":35.20941450,"long":136.91177420,"status":"done","name":"城北小学校南側正門東側フェンス","address":"北区鳩岡二丁目8番43号","city":"名古屋市","number":"128"}, 
 {"id":"da84488b-bfb3-4373-8e65-4e408eb3cd7d","lat":34.95679600,"long":137.18405230,"status":"done","name":"市有中町共同墓地東側","address":"中町２丁目２番地西側","city":"岡崎市","number":"17"}, 
 {"id":"da89aa8a-008a-4e2f-a01c-0ce536712a5b","lat":34.95556110,"long":137.12249110,"status":"done","name":"内藤モータース南５０ｍ畑","address":"富永町字福塚１４番地１南側","city":"岡崎市","number":"540"}, 
 {"id":"da8e333e-60c2-41e1-8f54-2c68a750ced5","lat":35.26187500,"long":136.98138400,"status":"done","name":"上流公園北","address":"東野町10-8","city":"春日井市","number":"181"}, 
 {"id":"da8fad9e-2e01-4652-8742-4e2c8fcdf40a","lat":35.20788670,"long":136.99830440,"status":"done","name":"大森金城学院前第２自転車駐車場 東側フェンス","address":"名古屋市守山区弁天が丘913番地","city":"名古屋市","number":"47"}, 
 {"id":"da9018e7-2006-48b7-85b5-a3316fcf0d12","lat":35.27045800,"long":136.74319500,"status":"not_yet","name":"旧玉野保育園入口南側生垣","address":"玉野字裏葭野1673先","city":"一宮市","number":"2"}, 
 {"id":"da92a9cf-7815-4ebf-a871-e547ed6e782d","lat":35.08802400,"long":137.19262700,"status":"done","name":"東山団地公園","address":"東山町４－１１１７－４４","city":"豊田市","number":"243"}, 
 {"id":"da947a2b-427f-40ea-a3ff-0175f6562512","lat":34.86905300,"long":137.02250700,"status":"done","name":"中畑小学校","address":"中畑町犬塚６５番地","city":"西尾市","number":"58"}, 
 {"id":"da991e1c-039c-49e5-afab-ce2d564e73d1","lat":35.10722890,"long":136.94216600,"status":"done","name":"桜小学校　東門フェンス","address":"南区桜台二丁目13-38","city":"名古屋市","number":"76"}, 
 {"id":"daa37cc9-0f09-40e0-a375-a77716cc573d","lat":34.78058546,"long":137.17800710,"status":"done","name":"知柄会館","address":"西浦町前浜９","city":"蒲郡市","number":"174"}, 
 {"id":"daaf27c1-ef53-47b4-acb9-1f11d5d212a7","lat":34.98071700,"long":137.07478300,"status":"done","name":"新段留公園北西生垣","address":"篠目町４－１６－１","city":"安城市","number":"72"}, 
 {"id":"dab4073c-4cd4-4b86-b017-31427d540255","lat":35.21178800,"long":136.75726670,"status":"not_yet","name":"関堂接骨院北東\n","address":"坂田町鴻ノ海77","city":"稲沢市","number":"117"}, 
 {"id":"dab5d993-2b21-487e-832b-221e3c02f9f5","lat":35.28048488,"long":136.87534300,"status":"done","name":null,"address":null,"city":"岩倉市","number":"31"}, 
 {"id":"dabac320-9d6d-41cc-a16d-e6ff1bf2bf4c","lat":35.19584410,"long":136.92964170,"status":"done","name":"平安通交差点南西角駐輪場北東向フェンス","address":"北区平安通1丁目13番地の1","city":"名古屋市","number":"22"}, 
 {"id":"dabae24a-a80c-41a4-9fa1-0e360fc2ef68","lat":34.66493260,"long":137.30322600,"status":"done","name":"谷熊農村公園集会所付近","address":"田原市谷熊町太神３８－７","city":"田原市","number":"7"}, 
 {"id":"dac002a5-cc69-4922-a416-8b63f4821dbe","lat":35.25627370,"long":136.75871120,"status":"done","name":"清水小学校\n","address":"清水寺前町126","city":"稲沢市","number":"94"}, 
 {"id":"dac341e2-e3da-4f17-aef8-54e03ebdceb3","lat":34.95938500,"long":137.08244300,"status":"done","name":"市営御幸本町駐車場北西フェンス","address":"御幸本町１１","city":"安城市","number":"128"}, 
 {"id":"dac92677-94d3-470a-b159-39221df56698","lat":34.87523970,"long":137.50729200,"status":"not_yet","name":"新城南部工業用地","address":"黒田字草場48-14","city":"新城市","number":"11_4"}, 
 {"id":"dad3b0b9-cb1d-4d3e-9720-e3c252d7ac1a","lat":35.13942000,"long":137.16723600,"status":"done","name":"亀首児童館","address":"亀首町札掛１２－１","city":"豊田市","number":"459"}, 
 {"id":"dad46a5a-4164-48b3-8af9-d3ff17a8212c","lat":35.21443900,"long":137.20321700,"status":"done","name":"西平川西平橋南","address":"上渡合町竹ノ後口２０７－１","city":"豊田市","number":"642"}, 
 {"id":"dad5b927-b1ef-49ae-9442-3b54d7bb5ba9","lat":35.22822200,"long":136.96604900,"status":"done","name":"小野小学校南","address":"小野町5-70","city":"春日井市","number":"115"}, 
 {"id":"dae321a9-c0bf-4694-89cf-097d8b6751bc","lat":34.85751700,"long":137.08889800,"status":"done","name":"所有地","address":"室町下野５２番地","city":"西尾市","number":"121"}, 
 {"id":"dae32343-80d3-4096-b893-54997e903e70","lat":35.09744650,"long":136.96255000,"status":"done","name":"鳴子団地89棟南側のフェンス","address":"名古屋市緑区鳴子町一丁目6番地","city":"名古屋市","number":"136"}, 
 {"id":"dae719d6-a6ff-4a89-a6ee-89e8aff0f4e4","lat":34.89476400,"long":137.09436000,"status":"done","name":"木戸東公園フェンス","address":"木戸町丸池１９５","city":"安城市","number":"321"}, 
 {"id":"daebdd0f-edfd-4e0f-bd1f-d280831d74d6","lat":35.15388170,"long":136.87368310,"status":"done","name":"愛知公園　西側","address":"名古屋市中川区愛知町33番","city":"名古屋市","number":"57"}, 
 {"id":"daf27c85-a40e-4263-8777-fbcb2d0bcbc9","lat":35.15990100,"long":136.82740280,"status":"done","name":"砂子中割ちびっこ広場","address":"大字砂子字中割６","city":"大治町","number":"32"}, 
 {"id":"daf2d312-e23a-4aa5-9e23-b8b7188cc4dc","lat":35.12972750,"long":136.92418990,"status":"done","name":"市立高田小学校　北側金網塀","address":"瑞穂区宝田町４丁目１番地","city":"名古屋市","number":"11"}, 
 {"id":"daf72c81-754c-44ba-85fa-2ba5cd01f273","lat":34.84464600,"long":136.90547200,"status":"done","name":"masked","address":"旭ヶ丘二丁目2","city":"武豊町","number":"9-62"}, 
 {"id":"db151714-2753-4fd5-9a4b-43dad65eaa27","lat":35.21688820,"long":137.08457620,"status":"done","name":"水無瀬集会所西側フェンス","address":"愛知県瀬戸市水無瀬町85-1","city":"瀬戸市","number":"55"}, 
 {"id":"db1b4413-3ab4-4130-b269-6659ed291deb","lat":34.84001260,"long":136.86973200,"status":"done","name":null,"address":"常滑市大谷字担ぼ51-1","city":"常滑市","number":"123"}, 
 {"id":"db1c43bd-01c6-48fd-963e-77d58be10deb","lat":35.00562910,"long":136.91992250,"status":"done","name":"デイサービス店舗南側","address":"宮内町六丁目275","city":"大府市","number":"127"}, 
 {"id":"db1d0784-10a8-417a-a1fc-04f8b19da24e","lat":35.14161100,"long":136.81012950,"status":"done","name":"戸田どんぐり広場　北側","address":"名古屋市中川区戸田一丁目301番地","city":"名古屋市","number":"173"}, 
 {"id":"db214e7a-9f2f-4244-ae38-f3cf351e8640","lat":34.78961370,"long":137.43968140,"status":"done","name":"215相田屋向側市有地","address":null,"city":"豊橋市","number":"215"}, 
 {"id":"db2305d9-3c38-420f-9a2c-6d3c04283562","lat":35.11081300,"long":136.72663900,"status":"done","name":"産業会館","address":"鯏浦町南前新田111番地","city":"弥富市","number":"32"}, 
 {"id":"db2a578a-09af-424c-bea5-35fbea446b78","lat":34.88762440,"long":136.93407440,"status":"done","name":"加藤化学㈱南側フェンス","address":"港町1丁目38","city":"半田市","number":"２７－３"}, 
 {"id":"db330366-8eec-4b94-b4c3-d765b62aa760","lat":35.12364890,"long":136.77254000,"status":"done","name":"新蟹江北保育所","address":"富吉3丁目217番地","city":"蟹江町","number":"51"}, 
 {"id":"db3ad305-bb44-4a7c-9cfe-d0523002f32d","lat":35.03596380,"long":136.94228030,"status":"done","name":"ネオタウン共和ちびっ子広場東側","address":"共西町五丁目67-11","city":"大府市","number":"90"}, 
 {"id":"db41fbdf-6564-4f51-8d80-b18078ee96f7","lat":34.99716450,"long":136.92527760,"status":"done","name":"大府南中学校正門北西","address":"馬池町二丁目100","city":"大府市","number":"128"}, 
 {"id":"db420685-45a8-4415-b67f-fbb058650a3d","lat":35.27723654,"long":136.86795700,"status":"done","name":null,"address":null,"city":"岩倉市","number":"49"}, 
 {"id":"db42381d-b1bf-4c4d-b81d-cb461721b777","lat":34.98107500,"long":136.97258000,"status":"done","name":"町有地","address":"東浦町大字緒川字旭91番地","city":"東浦町","number":"19"}, 
 {"id":"db468474-2a3b-48fd-8f0f-87802fe197f8","lat":35.20117250,"long":136.93788180,"status":"done","name":"宮前小学校東門南側フェンス","address":"北区上飯田南町4丁目1番地の2","city":"名古屋市","number":"31"}, 
 {"id":"db48f307-e584-42ae-8cb7-fdcc099f333e","lat":35.14468410,"long":136.88057520,"status":"done","name":"二女子第一公園　南側","address":"名古屋市中川区二女子町2丁目","city":"名古屋市","number":"45"}, 
 {"id":"db4f070e-35e5-45ef-b6c7-6d105acdc65b","lat":34.83362660,"long":137.37846000,"status":"done","name":"市営穂ノ原住宅北","address":null,"city":"豊川市","number":"199"}, 
 {"id":"db52a617-9337-4090-b8a4-4e761e4d50bf","lat":34.98108700,"long":136.97177100,"status":"done","name":"緒川駅","address":"東浦町大字緒川字申新田弐区72番地の12","city":"東浦町","number":"20"}, 
 {"id":"db687aa2-a7a3-476e-b0fa-e4e8c76aa21e","lat":35.26222600,"long":137.53356900,"status":"not_yet","name":"稲武大桑老人憩の家","address":"大野瀬町アオキタイラ５０番地","city":"豊田市","number":"867"}, 
 {"id":"db6f181b-1d3e-427b-9a89-bd9032e7f350","lat":35.23986020,"long":137.07178660,"status":"done","name":"はぎの台郵便局北側資材置場下の東側法面","address":"愛知県瀬戸市はぎの台3丁目1-6","city":"瀬戸市","number":"109"}, 
 {"id":"db72c5b3-0bd0-4ccd-a724-701c9c106459","lat":35.13266000,"long":137.17103600,"status":"not_yet","name":"四郷小学校付近","address":"四郷町山畑７６－１１９","city":"豊田市","number":"466"}, 
 {"id":"db7972b6-8bc1-4b85-9084-3d4f4f3af0bb","lat":35.34185000,"long":136.93995700,"status":"not_yet","name":"masked","address":"大字羽黒字高橋郷185","city":"犬山市","number":"１２１"}, 
 {"id":"db7997c6-2e12-4855-a95c-a7c8656ea3bd","lat":34.99578600,"long":137.00391000,"status":"done","name":"刈谷駅南口みなくる広場","address":"若松町2丁目100番地","city":"刈谷市","number":"26"}, 
 {"id":"db7ef4b8-1f38-46b1-9ad4-ae1f582dcc9f","lat":35.15582450,"long":137.06134310,"status":"done","name":"ひばり公園東フェンス","address":"日進市五色園三丁目１６１０番地","city":"日進市","number":"103"}, 
 {"id":"db875d37-5087-4c75-b8e0-3647b8e588be","lat":35.35491200,"long":136.85305800,"status":"done","name":"江南団地７０棟南側フェンス","address":"江南市藤ヶ丘４－１－７","city":"江南市","number":"144"}, 
 {"id":"db93fab4-29a3-42c9-a933-d7ee2405b752","lat":34.72428600,"long":137.40901270,"status":"done","name":"414高師台中学校東側","address":null,"city":"豊橋市","number":"414"}, 
 {"id":"db94d770-2703-4f84-ac07-368e53fcb4a2","lat":35.23307520,"long":136.88084260,"status":"done","name":"ビレッジハウス師勝　　　　　(北)","address":"鹿田清井古７７","city":"北名古屋市","number":"63"}, 
 {"id":"db963a80-086f-4e89-98b4-9511352d07c3","lat":35.18028700,"long":136.88318010,"status":"done","name":"江西国際学園(旧江西小学校)","address":"西区菊井二丁目１２番３２号","city":"名古屋市","number":"20"}, 
 {"id":"db99ee59-655b-4526-887f-7652d8bd9fb9","lat":35.06822200,"long":137.11753800,"status":"done","name":"美山小学校南","address":"美山町４－１","city":"豊田市","number":"158"}, 
 {"id":"db9d1558-6183-4888-9aaf-43a639971f4f","lat":35.15228680,"long":136.92803070,"status":"done","name":"桜花学園高等学校北門西コンクリート塀","address":"名古屋市昭和区緑町1-7","city":"名古屋市","number":"94"}, 
 {"id":"db9d4db9-51e6-46a1-b3a2-9dea66269e08","lat":35.17296520,"long":136.96511240,"status":"done","name":"自由ケ丘小学校北側フェンス","address":"千種区自由ケ丘2丁目15番24号","city":"名古屋市","number":"114"}, 
 {"id":"db9f178c-04dc-4233-9f2b-0117b91dc04d","lat":34.97699820,"long":136.90002620,"status":"done","name":"道路上","address":"知多市八幡字深山口50番地の111","city":"知多市","number":"40"}, 
 {"id":"dba37052-dc81-4c4b-bf79-b8e8d8b3b90e","lat":35.16637400,"long":136.79916400,"status":"done","name":"35.166374","address":"七宝町桂寺附13番地先","city":"あま市","number":"23"}, 
 {"id":"dbabd370-35a4-46e4-b38f-915112efba66","lat":35.01335850,"long":136.91124860,"status":"done","name":"根越公園（北側）","address":"90.富木島町伏見四丁目14-1","city":"東海市","number":"90"}, 
 {"id":"dbadf823-d655-4d1c-9e59-0293e76c4849","lat":35.20264430,"long":137.09572070,"status":"done","name":"masked","address":"愛知県瀬戸市八幡台８丁目２１８","city":"瀬戸市","number":"48"}, 
 {"id":"dbaf8969-089b-4736-b07f-0b4ce02d96cc","lat":35.08804710,"long":137.08553730,"status":"done","name":"(ミレニアム東山台南西側)","address":"東山台17-1","city":"みよし市","number":"38"}, 
 {"id":"dbb2dba6-d9f7-40f9-9b5e-bc7c6faa6e3a","lat":35.27807200,"long":136.79412800,"status":"not_yet","name":"上次公民館西側","address":"大和町於保字上次7-32","city":"一宮市","number":"2"}, 
 {"id":"dbb4d693-9a36-4c13-a378-cf95ccf933ea","lat":35.07565330,"long":136.91450260,"status":"done","name":"桜井興産株式会社　南側フェンス","address":"南区鶴見通2-1","city":"名古屋市","number":"165"}, 
 {"id":"dbbc440e-0e6f-40f4-be94-8a0f8bcffcf9","lat":35.19145200,"long":136.89863860,"status":"done","name":"深井東公園","address":"西区城西五丁目２３０１番","city":"名古屋市","number":"28"}, 
 {"id":"dbbcad26-b12e-4edd-9d05-da4c750b6c92","lat":35.32363900,"long":136.94523600,"status":"not_yet","name":"masked","address":"字鳥屋越48-4","city":"犬山市","number":"１５０"}, 
 {"id":"dbca2bf9-cd4b-45e1-9624-107202f3c576","lat":35.16456120,"long":136.83722290,"status":"done","name":"交通局稲西営業所用地駐輪場東側フェンス","address":"中村区稲西町１７１番地","city":"名古屋市","number":"42"}, 
 {"id":"dbd3c042-c6af-4018-8aba-f769ac15e3ff","lat":34.74253080,"long":137.40519610,"status":"done","name":"478つつじが丘地域福祉センター南","address":null,"city":"豊橋市","number":"478"}, 
 {"id":"dbe0febd-a072-4782-b351-f7a6be636a20","lat":34.90040430,"long":137.14330780,"status":"done","name":"芝岡製作所入口東側フェンス","address":"福岡町毘沙門４８番地","city":"岡崎市","number":"224"}, 
 {"id":"dbeb9854-f113-48ba-a0d5-7019a4f4302f","lat":34.70928200,"long":137.42105680,"status":"done","name":"422南高田町集会所","address":null,"city":"豊橋市","number":"422"}, 
 {"id":"dbec8216-2ca2-43a4-8acb-49501ccd5fff","lat":35.22380000,"long":137.06206890,"status":"done","name":"グリーンヒルズ広場北側ガードレール","address":"愛知県瀬戸市南山町3丁目28-44","city":"瀬戸市","number":"88"}, 
 {"id":"dbeda58a-2f96-4b31-a78c-ef67d0609389","lat":34.87646780,"long":136.84199090,"status":"done","name":"保示児童遊園","address":"常滑市保示町4-81","city":"常滑市","number":"88"}, 
 {"id":"dbefc475-703a-477c-8adc-69da3673fa53","lat":34.97138870,"long":137.61380970,"status":"not_yet","name":"湯谷温泉駅前","address":"豊岡字滝上12-1","city":"新城市","number":"14_2"}, 
 {"id":"dbf094d4-17d4-4c36-adb8-33a78cbd2a0d","lat":35.08678900,"long":137.13051300,"status":"done","name":"宮町児童遊園","address":"宮町５－１３－３","city":"豊田市","number":"138"}, 
 {"id":"dbf42691-8ff5-48f2-9d07-164bbeaf8168","lat":35.18402000,"long":137.02022000,"status":"done","name":"藤が丘小学校正門内西側フェンス","address":"名古屋市名東区藤が丘54番地","city":"名古屋市","number":"57"}, 
 {"id":"dbf65fe3-a109-4f0a-ad7d-cc3976c42359","lat":35.27855345,"long":136.87310620,"status":"done","name":null,"address":null,"city":"岩倉市","number":"45"}, 
 {"id":"dbf787e2-224d-4b7d-8795-02d983b6d571","lat":35.18202200,"long":136.83033800,"status":"done","name":"西之宮公園","address":"坂牧阿原132番地","city":"あま市","number":"114"}, 
 {"id":"dbffe04d-56bc-46f0-af85-d87083341b8c","lat":34.97973300,"long":137.11517300,"status":"done","name":"志貴保育園前フェンス","address":"尾崎町北裏４９","city":"安城市","number":"26"}, 
 {"id":"dc00bc0e-b844-4dce-9f25-be9a45ed46c9","lat":34.64927980,"long":137.24200710,"status":"done","name":"中部電力㈱大久保変電所付近","address":"田原市大久保町仲原１０３－１","city":"田原市","number":"28"}, 
 {"id":"dc04ba27-9981-48c4-bdd9-61bca176d93f","lat":35.20815130,"long":136.91602600,"status":"done","name":"金田公園北出入口西側","address":"北区金田町2丁目15番地","city":"名古屋市","number":"133"}, 
 {"id":"dc056f10-b3b6-4045-baaa-53b0ca436705","lat":35.11797330,"long":136.85314960,"status":"done","name":null,"address":"港区小碓一丁目339番地","city":"名古屋市","number":"82"}, 
 {"id":"dc088a7e-5a16-432f-8053-05c5692faaac","lat":35.07272860,"long":137.61923590,"status":"done","name":"県道鳳来東栄線の三叉路横防火水槽前","address":"神田字宮平16-8","city":"設楽町","number":"16"}, 
 {"id":"dc0d26b8-4990-4826-8224-faf052391a51","lat":35.17450940,"long":136.93735290,"status":"done","name":"内山小学校北側フェンス","address":"千種区内山一丁目4番15号","city":"名古屋市","number":"8"}, 
 {"id":"dc11e15d-9e7d-435c-8a05-daf70fb9967f","lat":35.08417690,"long":136.95635290,"status":"done","name":"名鉄自動車学校北東側のフェンス","address":"名古屋市緑区鳴海町字文木90番地","city":"名古屋市","number":"28"}, 
 {"id":"dc15dc53-960c-4d2a-9788-445fe3f3073f","lat":35.16153000,"long":136.77954100,"status":"done","name":"大坪公園南フェンス","address":"津島市大坪町字壷里23番","city":"津島市","number":"79"}, 
 {"id":"dc19df19-8afc-4123-8362-9a96ed005885","lat":35.38530700,"long":136.95245400,"status":"done","name":"丸山地区学習等供用施設進入路沿い","address":"大字犬山字中ノ宮45-1","city":"犬山市","number":"４１"}, 
 {"id":"dc1b9bd3-127c-44a2-899a-a6930258dace","lat":34.78522880,"long":137.17513340,"status":"done","name":"龍田会館","address":"西浦町下地","city":"蒲郡市","number":"167"}, 
 {"id":"dc1e1050-fa49-4c18-b56a-8751bcd2f8f9","lat":35.24693300,"long":137.00938400,"status":"done","name":"神領小学校西","address":"神領町1-1-8","city":"春日井市","number":"227"}, 
 {"id":"dc21d750-41b7-48e8-8013-a5bfc8b445e4","lat":34.98853030,"long":136.90820920,"status":"done","name":"南加木屋第５自転車等駐車場（東側）","address":"134.加木屋町一丁目６４","city":"東海市","number":"135"}, 
 {"id":"dc28143f-dce9-4158-8758-adc18e0c7b81","lat":35.23274750,"long":136.92026240,"status":"done","name":"楠小学校北側フェンス","address":"北区池花町309番地","city":"名古屋市","number":"202"}, 
 {"id":"dc2d1e98-284d-469d-9b71-bbf0586a60ae","lat":35.15446160,"long":137.05374060,"status":"done","name":"平池橋西高欄","address":"日進市岩崎町平池１番地２","city":"日進市","number":"108"}, 
 {"id":"dc31d58a-b00c-473e-82c0-bf1da496ddd3","lat":34.66157140,"long":137.27229610,"status":"done","name":"東赤石交差点付近","address":"田原市東赤石五丁目７４","city":"田原市","number":"69"}, 
 {"id":"dc39ee02-3133-4c04-9361-8f49d3b63e79","lat":35.22887640,"long":136.68734220,"status":"not_yet","name":"masked","address":"藤ケ瀬町西藤44番地","city":"愛西市","number":"77"}, 
 {"id":"dc3c9829-62fd-4e5d-a5e9-d7c85d6c1de4","lat":34.87014000,"long":136.90832500,"status":"done","name":"石川堤(知多東部線より西100ｍ):フェンス","address":"豊成二丁目地内","city":"武豊町","number":"11-74"}, 
 {"id":"dc43003e-b155-426e-ba01-d952867e227e","lat":35.16418360,"long":136.93846300,"status":"done","name":"中電不動産　今池寮南側フェンス","address":"千種区今池南14番10号","city":"名古屋市","number":"40"}, 
 {"id":"dc4b217a-2421-4084-96e8-510cfd286628","lat":34.75460480,"long":137.41229980,"status":"done","name":"167三ノ輪東公園","address":null,"city":"豊橋市","number":"167"}, 
 {"id":"dc4dc539-5cd0-4c2e-92cb-d8737a4efb65","lat":35.26081980,"long":136.80409690,"status":"done","name":"洲原公園\n","address":"稲島町洲原東4639-7","city":"稲沢市","number":"80"}, 
 {"id":"dc5ae1d8-9e92-4f3c-b4ec-134232668f9e","lat":35.20723230,"long":136.76480310,"status":"not_yet","name":"目比町児童遊園\n","address":"目比町南瀬古2239","city":"稲沢市","number":"114"}, 
 {"id":"dc5b45ca-adb0-4760-b941-f883ef7f78df","lat":35.12254240,"long":137.05986420,"status":"done","name":"橦木団地集会所北フェンス","address":"日進市藤枝町奥廻間１１９２番地９８","city":"日進市","number":"74"}, 
 {"id":"dc5dfda8-1014-4bb5-bcb8-8037f1e71c71","lat":34.84020270,"long":137.37652220,"status":"done","name":"コニカミノルタ（株）北東","address":null,"city":"豊川市","number":"189"}, 
 {"id":"dc5f09c6-f57a-4b4e-b62d-0a2d578190ae","lat":35.17367740,"long":136.93742530,"status":"done","name":"内山小学校南側フェンス","address":"千種区内山一丁目4番15号","city":"名古屋市","number":"10"}, 
 {"id":"dc6d97c5-e18a-42f3-95da-4339cbddd552","lat":35.25839600,"long":136.95207200,"status":"done","name":null,"address":"高山町3-5","city":"春日井市","number":"34"}, 
 {"id":"dc6e8453-d4c1-4ae3-87c4-c4d4949638c8","lat":34.84320200,"long":137.33945360,"status":"done","name":"平尾南公園東","address":null,"city":"豊川市","number":"106"}, 
 {"id":"dc6eb146-4688-4b0f-9d34-752e7cab228b","lat":35.20121400,"long":136.77302600,"status":"not_yet","name":"丹波自主防災会倉庫南70M東側","address":"丹波中屋敷103番地","city":"あま市","number":"76"}, 
 {"id":"dc70d242-6d39-46d2-bc8d-b96dcaf6a157","lat":34.91894830,"long":137.17303290,"status":"done","name":"市営住宅若松荘北側","address":"庄司田３丁目５－１４南側","city":"岡崎市","number":"239"}, 
 {"id":"dc79a27a-aaba-49ea-afb1-dbb80f4440e9","lat":35.10903260,"long":136.99282800,"status":"done","name":"市営御前場荘5号棟南西側フェンス","address":"天白区御前場町31番地","city":"名古屋市","number":"109"}, 
 {"id":"dc79ce62-c44b-4b07-b208-75ef5eb8144c","lat":35.12672000,"long":137.28294400,"status":"not_yet","name":"おいでんバス井ノ口停留所付近","address":"井ノ口町広見２１－１１","city":"豊田市","number":"712"}, 
 {"id":"dc7c49a0-dc2d-4da3-bd1f-88be6991bb3f","lat":34.67135140,"long":137.30704910,"status":"done","name":"やぐま台公民館付近","address":"田原市やぐま台２７－７","city":"田原市","number":"5"}, 
 {"id":"dc7ea8e2-3e0a-4ebd-9e70-804649688d45","lat":34.66303150,"long":137.27600970,"status":"done","name":"漆田一区公民館付近","address":"田原市神戸町郷仲１５４－１","city":"田原市","number":"68"}, 
 {"id":"dc8170ae-95f2-4e77-9b3c-ea0411f2e897","lat":35.34702300,"long":136.78277600,"status":"done","name":"野府川沿フェンス","address":"木曽川町黒田字勘冶西77","city":"一宮市","number":"4"}, 
 {"id":"dc8dd9be-23fc-405f-a095-4eae12eaf05e","lat":35.23504660,"long":136.91734680,"status":"done","name":"北浦公園東南角植込み","address":"名古屋市北区如意二丁目12番地","city":"名古屋市","number":"206"}, 
 {"id":"dc912ac5-f622-455e-9b44-0ea6619ffe0e","lat":35.03669720,"long":136.94756240,"status":"done","name":"共和西児童老人福祉センター西側","address":"共和町七丁目547","city":"大府市","number":"91"}, 
 {"id":"dc915a62-4352-4cc3-a037-a59d2a7fdd76","lat":34.87152620,"long":137.51710930,"status":"not_yet","name":"黒田区民広場ネットフェンス（南側）","address":"黒田字頼実2-5","city":"新城市","number":"11_3"}, 
 {"id":"dc9375cb-6d60-465b-8634-190f122b76fe","lat":35.07102600,"long":136.78907800,"status":"done","name":null,"address":"大字古政成三丁目79番地","city":"飛島村","number":"16"}, 
 {"id":"dc999fcd-dd83-4a04-a5b5-abf5fd00b2ce","lat":35.16528110,"long":136.83854460,"status":"done","name":"稲西小学校南側フェンス","address":"中村区稲西町８８番地","city":"名古屋市","number":"43"}, 
 {"id":"dc9d5f2b-84fa-4713-802b-a0bff781fc12","lat":35.21574500,"long":137.03714700,"status":"done","name":"体育館（南側）","address":null,"city":"尾張旭市","number":"67"}, 
 {"id":"dca54856-3dea-4628-88ea-e9816c248820","lat":35.33467900,"long":136.90007000,"status":"not_yet","name":"竹田公園　北","address":"丹羽郡大口町竹田三丁目４４","city":"大口町","number":"68"}, 
 {"id":"dcacb762-a0e0-4b1e-81aa-7a370f1706b6","lat":35.09995370,"long":137.02882480,"status":"done","name":"音貝小学校　西　町有地（空地）","address":"大字春木字音貝８６番地１","city":"東郷町","number":"41"}, 
 {"id":"dcb53ec3-7f9a-4ac5-a1ce-be9e706ad30e","lat":34.95863000,"long":137.10591100,"status":"done","name":"ゆたか児童遊園南側フェンス","address":"大岡町宮前２５","city":"安城市","number":"107"}, 
 {"id":"dcb5f26c-f578-48e1-a335-65774b6e0690","lat":34.84766190,"long":137.38385130,"status":"done","name":"長草児童遊園西","address":null,"city":"豊川市","number":"183"}, 
 {"id":"dcb91e64-e083-4fd7-8c3c-64b3c8d4eb9b","lat":35.29867600,"long":136.97454800,"status":"done","name":"桃ケ丘第4公園（東側）","address":"小牧市桃ケ丘三丁目62","city":"小牧市","number":"188"}, 
 {"id":"dcbdfdee-6861-4fe4-a7bd-76b14e6f32f0","lat":35.03028500,"long":137.14570600,"status":"done","name":"鴛鴨町区民会館","address":"鴛鴨町新林５１－１","city":"豊田市","number":"256"}, 
 {"id":"dcbf7e07-a403-43ab-a206-8d5054ccbb00","lat":35.12503100,"long":137.18179300,"status":"done","name":"井上団地東ちびっこ広場","address":"井上町２－１１２－４２","city":"豊田市","number":"475"}, 
 {"id":"dcc758fb-d79f-4ac6-b7bf-84bab614aef1","lat":34.78623390,"long":136.86200300,"status":"reserved","name":"奥田小学校","address":"美浜町大字奥田字海道田55番地1","city":"美浜町","number":"55"}, 
 {"id":"dce16de0-31b3-4bf9-b894-27b7d8f4b9f7","lat":34.72984180,"long":137.41036000,"status":"done","name":"415御幸神社北側","address":null,"city":"豊橋市","number":"415"}, 
 {"id":"dce7e515-c67b-459a-8524-d57cea075857","lat":34.84657300,"long":136.91914400,"status":"done","name":"奥村医院北50ｍ:建柱","address":"大屋敷26－3","city":"武豊町","number":"1-3"}, 
 {"id":"dcec4ae6-5534-44a2-9b70-2752c98141b8","lat":35.16032000,"long":137.18708800,"status":"not_yet","name":"西中山後田ちびっこ広場","address":"西中山町後田９９－２９","city":"豊田市","number":"598"}, 
 {"id":"dced04ce-dda7-484f-b96f-a500ca0ec099","lat":35.15467620,"long":136.97295450,"status":"done","name":"名古屋大学農学部東側フェンス","address":"千種区東山元町6丁目1番地１","city":"名古屋市","number":"174"}, 
 {"id":"dcf2e45b-5219-4e8d-ad5e-274636df845f","lat":35.29933200,"long":136.80548100,"status":"not_yet","name":"大志小学校東門南側","address":"大志２丁目７番","city":"一宮市","number":"2"}, 
 {"id":"dcf3a231-82b4-4859-8dcd-506cba455702","lat":34.97721100,"long":136.95756500,"status":"done","name":"町有地","address":"東浦町大字緒川字沙弥田11番地の２","city":"東浦町","number":"27"}, 
 {"id":"dcf5722e-c8e9-4ee0-96ae-696777015eec","lat":34.94933010,"long":137.60401120,"status":"done","name":"中央集会所前(バス停留所）","address":"大野字久羅下42-1","city":"新城市","number":"15_4"}, 
 {"id":"dcf8b90d-b7a0-4e42-9524-b10af06d92d0","lat":35.02964800,"long":137.40548700,"status":"not_yet","name":"山遊里","address":"羽布町柿田１５－１","city":"豊田市","number":"802"}, 
 {"id":"dcfe1abb-4186-4d7f-bf77-64ae7075acbc","lat":35.14493900,"long":137.14035000,"status":"done","name":"県営保見住宅１１棟西側公園","address":"保見ケ丘４－１－１","city":"豊田市","number":"429"}, 
 {"id":"dd06491d-89af-4006-b9e4-4632158ca2e4","lat":34.90656960,"long":137.22191510,"status":"done","name":"なかよし公園南側","address":"藤川台２丁目７－９","city":"岡崎市","number":"344"}, 
 {"id":"dd0f039b-a545-4ce6-85c9-f2e36aaa5ba2","lat":35.17536200,"long":136.81347700,"status":"done","name":"八剱社東側","address":"大治町大字西條字南屋敷７７","city":"大治町","number":"10"}, 
 {"id":"dd10241e-8136-4891-9d39-95161342ea9d","lat":34.85269500,"long":137.02809100,"status":"done","name":"東レハイブリットコード㈱","address":"上矢田町郷後1番地1","city":"西尾市","number":"74"}, 
 {"id":"dd135d6c-a34a-4d26-91ed-7e994df70178","lat":35.18184870,"long":136.97069950,"status":"done","name":"富士見台小学校東側フェンス","address":"千種区富士見台2丁目1番地","city":"名古屋市","number":"127"}, 
 {"id":"dd1573f9-d4e3-4320-b0ec-91198a953b37","lat":35.21618300,"long":137.03481800,"status":"done","name":"市役所（西側）","address":null,"city":"尾張旭市","number":"68"}, 
 {"id":"dd196142-1044-4614-b958-84067106d52b","lat":35.18530820,"long":136.96156870,"status":"done","name":"出池公園南側鉄柵","address":"千種区茶屋が坂一丁目1601番地","city":"名古屋市","number":"82"}, 
 {"id":"dd250a09-d25f-4d10-96cc-f6c79db8c3d4","lat":34.97303010,"long":137.16534950,"status":"done","name":"市立看護専門学校南側フェンス","address":"伊賀町字西郷中１０４南側","city":"岡崎市","number":"78"}, 
 {"id":"dd322681-8aee-41d7-85a8-a2fd160af255","lat":35.10882610,"long":136.90215620,"status":"done","name":"中京病院健康管理センター　東側フェンス","address":"南区三条一丁目1番10","city":"名古屋市","number":"2"}, 
 {"id":"dd33b240-1bfa-460a-b290-a00ee711acd3","lat":35.00625290,"long":136.90384970,"status":"not_yet","name":"白拍子児童遊園（西側）","address":"169.加木屋町白拍子４－１","city":"東海市","number":"170"}, 
 {"id":"dd33f19e-87fd-44b2-92d4-e2d2eacade3d","lat":35.17853900,"long":136.71023600,"status":"done","name":"山祇社","address":"津島市下新田町２丁目84番１","city":"津島市","number":"21"}, 
 {"id":"dd365fdc-6c9f-4d85-8066-69921a916b7a","lat":34.60578690,"long":137.18291360,"status":"done","name":"masked","address":"田原市池尻町下り瀬古７５－１","city":"田原市","number":"126"}, 
 {"id":"dd3b9472-c433-45b8-9318-186e68470f22","lat":34.91758590,"long":136.82359790,"status":"done","name":null,"address":"常滑市蒲池町2-8","city":"常滑市","number":"51"}, 
 {"id":"dd3c115f-a08d-478a-8719-05927ebc6ef5","lat":35.31543350,"long":136.94354248,"status":"not_yet","name":"久保山東児童遊園（東側）","address":"小牧市大字久保一色216-99","city":"小牧市","number":"166"}, 
 {"id":"dd3fc217-d4a1-404c-8d23-fdc830b5da27","lat":34.61727020,"long":137.22268800,"status":"done","name":"masked","address":"田原市高松町一色７３","city":"田原市","number":"116"}, 
 {"id":"dd4e1136-8075-4a04-a7d8-f119f6f98a36","lat":34.80380900,"long":136.86066400,"status":"not_yet","name":"民家ブロック塀","address":"美浜町大字上野間字新居69番地1","city":"美浜町","number":"62"}, 
 {"id":"dd4efdcc-aef4-46c4-9dd7-2784007e3ede","lat":34.85364200,"long":137.01524400,"status":"done","name":"消防署西分署","address":"楠村町寺前１２番地","city":"西尾市","number":"70"}, 
 {"id":"dd52abc9-abb7-4559-9be3-ff4b4bfd9b0f","lat":35.25106000,"long":136.95428500,"status":"done","name":"広田公園東","address":"朝宮町3-1","city":"春日井市","number":"163"}, 
 {"id":"dd533e59-5ee2-440e-a4b0-27efea1d2dca","lat":35.13282510,"long":136.94120700,"status":"done","name":"ニチイのほほえみ石川橋　南側アルミフェンス","address":"瑞穂区大殿町２丁目７番地の４","city":"名古屋市","number":"146"}, 
 {"id":"dd57549b-a8a0-42b8-bf4b-d723a4511b72","lat":35.13541490,"long":136.89012810,"status":"done","name":"野立小学校東門北側フェンス","address":"熱田区青池町2丁目21番地","city":"名古屋市","number":"76"}, 
 {"id":"dd585df4-8318-4abd-9c76-94290ac2e0d2","lat":35.20880560,"long":137.09240050,"status":"done","name":"masked","address":"愛知県瀬戸市原山台1丁目103-2","city":"瀬戸市","number":"30"}, 
 {"id":"dd59c6db-dc93-4362-a5ca-f2201890fc6a","lat":35.26581100,"long":136.95537700,"status":"done","name":"大手公園西","address":"大手町3-13","city":"春日井市","number":"21"}, 
 {"id":"dd5e0fa8-f9b4-4df5-a8f1-b7e25776e67c","lat":34.85576600,"long":137.09951800,"status":"done","name":"西尾市総合倉庫","address":"室町中屋敷１５２番地","city":"西尾市","number":"123"}, 
 {"id":"dd5f95b7-4552-4948-a65f-fa6d1af88946","lat":34.81786300,"long":137.04293800,"status":"done","name":"大東化成（株）","address":"一色町池田宮前３８番地１","city":"西尾市","number":"153"}, 
 {"id":"dd63b948-425d-487e-96c7-ea474025477b","lat":35.24182500,"long":136.98619100,"status":"done","name":"春日井駅南駐輪場南","address":"上条町3-43","city":"春日井市","number":"136"}, 
 {"id":"dd64dd75-e25a-4824-aaaa-52b93d417855","lat":35.02611720,"long":136.96047390,"status":"done","name":"市道二ツ池追分線沿立合池北側","address":"追分町五丁目90-1","city":"大府市","number":"78"}, 
 {"id":"dd6d37a1-543c-4473-a450-51d6276b2da7","lat":35.00762900,"long":137.00225800,"status":"done","name":"小山公園（東側）","address":"新富町4丁目250番地","city":"刈谷市","number":"80"}, 
 {"id":"dd82113c-82ea-4e2c-b56b-fce9c81429bd","lat":34.95566700,"long":137.08467000,"status":"done","name":"末広公園北側植栽","address":"末広町２３－３３","city":"安城市","number":"137"}, 
 {"id":"dd8a5c72-a96e-413d-aacc-a07483eed99b","lat":35.27106835,"long":136.85557230,"status":"done","name":null,"address":null,"city":"岩倉市","number":"68"}, 
 {"id":"dd8ab9ae-f180-4d42-8180-fa271f6c51e4","lat":35.05746100,"long":137.15052800,"status":"done","name":"山之手３丁目公園","address":"山之手３－１３０－３","city":"豊田市","number":"108"}, 
 {"id":"dd92f4a3-bafb-4452-84d6-24bbc57bed14","lat":35.13339390,"long":136.92982550,"status":"done","name":"市立瑞穂ケ丘中学校　東門北寄金網塀","address":"瑞穂区高田町３丁目２８番地","city":"名古屋市","number":"7"}, 
 {"id":"dd9c7ce5-06f1-47f1-a70c-afd0d0c071cd","lat":35.25566890,"long":136.81343770,"status":"done","name":"長出公園\n","address":"長野一丁目4-8    ","city":"稲沢市","number":"74"}, 
 {"id":"dda010b5-e660-407e-b8be-85c94b6d67ae","lat":34.85342000,"long":136.92158500,"status":"done","name":"ＪＲ武豊駅自転車置場(東面南側):フェンス","address":"金下地内","city":"武豊町","number":"2-9"}, 
 {"id":"dda10143-44c1-4bdc-86b7-a02559c2a7f2","lat":35.23340200,"long":136.95698500,"status":"done","name":"八光公園東","address":"柏井町1-42","city":"春日井市","number":"97"}, 
 {"id":"dda2a332-c018-41b5-bb43-51ffaa08f6b6","lat":35.12757580,"long":136.99915190,"status":"done","name":"大藪公園東側鉄柵","address":"天白区原一丁目901番地","city":"名古屋市","number":"19"}, 
 {"id":"dda4c4b4-6cb3-4a70-a9f1-14e9d685e214","lat":35.11107070,"long":136.83970450,"status":"done","name":null,"address":"港区当知四丁目1906番地の１","city":"名古屋市","number":"88"}, 
 {"id":"ddae0c41-f169-4bae-9951-1358345a554c","lat":35.25558900,"long":136.98490900,"status":"done","name":"浅山児童遊園西","address":"浅山町4-1310-144","city":"春日井市","number":"215"}, 
 {"id":"ddb3a43c-5cfa-4b9a-84dd-49f058584f06","lat":35.15755250,"long":136.91427240,"status":"done","name":"名古屋まちづくり公社千代田第2駐車場　北側金網フェンス","address":"名古屋市中区千代田二丁目１７０５","city":"名古屋市","number":"59"}, 
 {"id":"ddb41ee1-3833-4f71-97a4-21e31875641e","lat":35.28835802,"long":136.87596020,"status":"done","name":null,"address":null,"city":"岩倉市","number":"7"}, 
 {"id":"ddb95004-ac38-4091-bba9-3a185ba409df","lat":35.05489700,"long":137.21461500,"status":"done","name":"松平コミュニテイ-裏","address":"九久平町寺前１６","city":"豊田市","number":"559"}, 
 {"id":"ddc12029-3669-453f-ab74-0b687eae3ed1","lat":34.72867370,"long":137.44505310,"status":"done","name":"90大岩第五公園東側","address":null,"city":"豊橋市","number":"90"}, 
 {"id":"ddc6f632-37c7-4ce3-a60c-394c144a7b22","lat":35.29763400,"long":136.76881400,"status":"not_yet","name":"masked","address":"萩原町花井方字東天神東の切13-1先","city":"一宮市","number":"7"}, 
 {"id":"ddd467cf-c136-4d02-ae20-b09d612c8ebf","lat":35.16993000,"long":136.76915000,"status":"done","name":"旧神守配水場東","address":"津島市百島町字祢宜66番","city":"津島市","number":"66"}, 
 {"id":"ddd98187-ea55-4351-a5e5-26892f3366db","lat":35.18933500,"long":137.36167900,"status":"not_yet","name":"公衆便所付近","address":"榊野町池田２５－４","city":"豊田市","number":"837"}, 
 {"id":"dddb5f65-6c7b-4d9c-b685-4dbb32dd1edd","lat":34.96044900,"long":137.06671100,"status":"done","name":"現業事務所東","address":"横山町下管池４０－９","city":"安城市","number":"146"}, 
 {"id":"dddce658-52cf-4211-b6cc-104c66044a83","lat":35.34460100,"long":136.89520300,"status":"not_yet","name":"柏森南保育園 ","address":"扶桑町大字柏森字中島293番地1","city":"扶桑町","number":"58"}, 
 {"id":"ddf17310-6413-4164-acab-69a273bc1b73","lat":35.18215210,"long":136.86371940,"status":"done","name":"日比津中学校西側フェンス","address":"中村区高道町２丁目２番３６号","city":"名古屋市","number":"6"}, 
 {"id":"ddf64aa1-f6d7-43db-bad3-c021c76830f6","lat":35.18289050,"long":137.07079090,"status":"done","name":"熊張橋東三差路市道","address":"北熊２６番地先","city":"長久手市","number":"6"}, 
 {"id":"ddf71101-0366-433b-aca1-5fbb5d710385","lat":34.96723260,"long":136.86416130,"status":"done","name":"竹内　康昇 方","address":"知多市岡田字高見64番地","city":"知多市","number":"106"}, 
 {"id":"ddfeb3bd-ffea-4c91-acf3-a0fe965332e6","lat":34.97702490,"long":136.84898140,"status":"done","name":"水谷　治之 方","address":"知多市長浦3丁目39番地","city":"知多市","number":"121"}, 
 {"id":"ddff5e39-8d9b-438e-8054-5ecf36d70601","lat":35.03231750,"long":136.90933930,"status":"done","name":"個人住宅（西側ガードパイプ)","address":"67.荒尾町中屋敷１４２－２","city":"東海市","number":"67"}, 
 {"id":"de08f61d-8506-4a40-a645-7c332b0b2aca","lat":34.62483790,"long":137.24505920,"status":"done","name":"新井構造改善センター付近","address":"田原市高松町西新井１０３－１","city":"田原市","number":"109"}, 
 {"id":"de16d93b-959e-4b58-abf5-555d22358b3d","lat":35.10366810,"long":136.94064610,"status":"done","name":"桜台高等学校　東側フェンス","address":"南区霞町21","city":"名古屋市","number":"86"}, 
 {"id":"de1bfe44-a24d-4495-84d0-8814d5887b3f","lat":35.38684800,"long":136.97715800,"status":"done","name":"吉田一男所有空き地","address":"大字善師野字向田11番地","city":"犬山市","number":"６４"}, 
 {"id":"de25577b-71c4-4315-a3b5-60b1c2bba050","lat":35.19819300,"long":136.85994000,"status":"done","name":"明治チュ-インガム㈱本社第一工場前ガ-ドパイプ","address":"西枇杷島町旭三丁目８番地","city":"清須市","number":"24"}, 
 {"id":"de2e8b8c-f63d-4693-8257-6a4f1b737c84","lat":35.14446110,"long":136.87984730,"status":"done","name":"祐正寺　東側","address":"名古屋市中川区二女子町4丁目63番地","city":"名古屋市","number":"49"}, 
 {"id":"de37d1f2-7e84-4cdb-9813-7257bd42e0d1","lat":35.01934800,"long":136.94232200,"status":"done","name":"権兵衛池南側","address":"長草町車池1－1","city":"大府市","number":"37"}, 
 {"id":"de402459-ab0e-41a2-8685-a2f29fb80fda","lat":35.33046700,"long":136.79246500,"status":"done","name":"用水路沿いフェンス","address":"今伊勢町馬寄字八丁堀20-15","city":"一宮市","number":"5"}, 
 {"id":"de4104fd-edea-421a-a0a5-20194f207cc2","lat":34.84977960,"long":137.31482850,"status":"done","name":"御油松並木公園駐車場南側","address":null,"city":"豊川市","number":"143"}, 
 {"id":"de451135-86d8-4029-b3e5-201c22a8c214","lat":35.23326780,"long":136.88396380,"status":"done","name":"ふたば荘　　　　　　(北)","address":"二子双葉３","city":"北名古屋市","number":"64"}, 
 {"id":"de47fa76-98af-4bbb-91bc-ef958fbeb88e","lat":35.00448530,"long":137.07502530,"status":"done","name":"八橋町西出口７１?３　西出口公園","address":"八橋町西出口７１?３　西出口公園","city":"知立市","number":"26"}, 
 {"id":"de498fd1-63a2-4558-863a-c6986a5d0c10","lat":35.16894500,"long":136.79422000,"status":"done","name":"中電鉄塔ﾌｪﾝｽ東側ｶﾞｰﾄﾞﾚｰﾙ","address":"七宝町川部山王172番地","city":"あま市","number":"13"}, 
 {"id":"de5140fb-68af-49eb-a0a8-bec145b4f4bd","lat":35.11416380,"long":136.90690910,"status":"done","name":"内田橋南第一公園　東側鉄柵","address":"南区内田橋一丁目10番","city":"名古屋市","number":"5"}, 
 {"id":"de518731-c6be-4998-a4f2-41c98a403002","lat":34.98392310,"long":136.91536660,"status":"done","name":"大堀保育園（東側）","address":"145.加木屋町東大堀２８−３４","city":"東海市","number":"146"}, 
 {"id":"de598994-133b-4abb-a171-d8623608e2af","lat":35.11502500,"long":137.18779000,"status":"done","name":"平戸橋二区ふれあい広場","address":"平戸橋町神田１９５","city":"豊田市","number":"495"}, 
 {"id":"de5a138f-dea4-45d8-82df-288e8f776260","lat":35.14898000,"long":137.01715000,"status":"done","name":"大針第三公園東側フェンス","address":"名古屋市名東区大針三丁目177番地付近","city":"名古屋市","number":"144"}, 
 {"id":"de5bb4a1-8961-4d5f-8aec-8f47c95e5e6f","lat":35.12076600,"long":137.16322300,"status":"done","name":"愛環鉄道四郷駅ロータリーフェンス","address":"四郷町森前５２","city":"豊田市","number":"467"}, 
 {"id":"de61a463-7857-405e-83be-6e360d78edfa","lat":35.29266700,"long":136.85285900,"status":"not_yet","name":"千秋子育て支援センター北側","address":"千秋町天摩字山畑370-56","city":"一宮市","number":"7"}, 
 {"id":"de64664d-ebcb-4276-8c02-5d888ade5ea9","lat":34.95553540,"long":136.92527760,"status":"not_yet","name":"高根台西公園遊園地北フェンス","address":"大字福住字高根台145-2","city":"阿久比町","number":"61"}, 
 {"id":"de7398a4-8e69-4e48-a148-2082b0438c3d","lat":35.01542300,"long":137.13021900,"status":"done","name":"ぐみの木公園西側","address":"上郷町２－９－１","city":"豊田市","number":"279"}, 
 {"id":"de7ce972-7324-475e-bbc3-cd3a236dedff","lat":35.09707880,"long":136.92308620,"status":"done","name":"名古屋市南保健センター　北側フェンス","address":"南区東又兵ヱ町5-1-1","city":"名古屋市","number":"130"}, 
 {"id":"de808b6d-8094-40a8-80bd-15e5b6dee308","lat":35.16822640,"long":136.89237860,"status":"done","name":"シャムズガーデン　東側鉄柵","address":"名古屋市中区錦一丁目１５１６－２","city":"名古屋市","number":"15"}, 
 {"id":"de838cec-5082-4905-90f5-b142ef9db7b6","lat":35.11105000,"long":136.75390600,"status":"not_yet","name":"masked","address":"坂中地二丁目60番地","city":"弥富市","number":"90"}, 
 {"id":"de87c159-db1b-4e0f-a739-c17d48f65f39","lat":35.04365530,"long":137.55731800,"status":"not_yet","name":"方瀬登り口土手","address":"連合字仲曽根14-1","city":"新城市","number":"19_4"}, 
 {"id":"de8b815c-3c53-4a4d-9c8a-fba26914ecd4","lat":35.33780600,"long":136.94473500,"status":"not_yet","name":"masked","address":"字栗林67","city":"犬山市","number":"１２５"}, 
 {"id":"de8e65ee-3b7c-429e-a7fc-c3fe9f8eeeb6","lat":35.25057200,"long":136.91198700,"status":"done","name":"豊山町役場東側","address":"豊場字新栄２６０","city":"豊山町","number":"8"}, 
 {"id":"de8e9c55-1397-49fb-8235-7890a45e9cb6","lat":35.21140300,"long":137.02085900,"status":"done","name":"旭野高校（北側フェンス）","address":null,"city":"尾張旭市","number":"16"}, 
 {"id":"de936024-9ecc-43a4-afcc-472185c0dd17","lat":35.13514030,"long":136.92643060,"status":"done","name":"市立御剱小学校　東側金網塀","address":"瑞穂区亀城町５丁目４番地の１","city":"名古屋市","number":"6"}, 
 {"id":"de94c3a0-10a2-4b90-bb2c-956119426945","lat":35.05529480,"long":136.76656800,"status":"done","name":"鍋田神明社東","address":"鍋田町稲山194番地1","city":"弥富市","number":"68"}, 
 {"id":"de98623c-046e-48f4-91a4-4f04770f43af","lat":35.12795300,"long":136.85292610,"status":"done","name":"中島小学校　北側","address":"名古屋市中川区中島新町二丁目401番地","city":"名古屋市","number":"136"}, 
 {"id":"de9bc5bb-7234-4d01-9db8-c18f6356a52d","lat":35.13689040,"long":136.99164850,"status":"done","name":"植田中学校南西側フェンス","address":"天½åºæ¤ç°æ¬çºä¸ä¸ç®702çªå°","city":"åå¤å±å¸","number":"37"}, 
 {"id":"dea4bce5-d57f-4a50-be42-38ec7e41cad2","lat":35.28400000,"long":136.76536600,"status":"other","name":"åå´","address":"è©åçºè©åå­å¤§æ¥23","city":"ä¸å®®å¸","number":"3"}, 
 {"id":"deb2c002-39da-4744-a9b5-1e420b643cc6","lat":35.10381390,"long":137.68828660,"status":"not_yet","name":"æ²³éå®ä¸","address":"è¶³è¾¼å­è¥¿å·å2","city":"æ±æ çº","number":"36"}, 
 {"id":"deb3028c-a96d-46ef-8c82-746876ba0ec1","lat":35.27352900,"long":136.94129900,"status":"done","name":"ä¸æ¬ç«¹åç«¥éåè¥¿","address":"çå±±çº2047-6","city":"æ¥æ¥äºå¸","number":"25"}, 
 {"id":"deb7d1f5-1f6f-4ef6-a45e-7ccfbcd06b28","lat":35.12913500,"long":137.17196700,"status":"not_yet","name":"åé·ã¡ã³ã£ãåºå ´","address":"åé·çºå¤©éï¼ï¼ï¼","city":"è±ç°å¸","number":"462"}, 
 {"id":"deb97918-438f-483f-a115-e9b0be5094a9","lat":35.09047690,"long":136.97487730,"status":"done","name":"æ»ã®æ°´ä¿è²åè¥¿å´ã®ãã§ã³ã¹","address":"åå¤å±å¸ç·åºæ»ãæ°´ä¸ä¸ç®301çªå°","city":"åå¤å±å¸","number":"75"}, 
 {"id":"dec8d9a1-d3da-4ea3-9bcc-59ab6fa2e713","lat":35.11408820,"long":136.99341720,"status":"done","name":"å¤©ç½æ¶é²ç½²åå´ä¸­å¤®ãã§ã³ã¹","address":"å¤©ç½åºåäºä¸ç®2506çªå°","city":"åå¤å±å¸","number":"28"}, 
 {"id":"dece26e5-17d2-4b99-a628-1ec9c9910256","lat":34.99608350,"long":136.87878330,"status":"done","name":"æ©å·ãç«å¤« æ¹","address":"ç¥å¤å¸å«å¹¡å­å ä¹å196çªå°ã®1","city":"ç¥å¤å¸","number":"5"}, 
 {"id":"decfcd7f-5efc-4266-bedf-fc894ddf935e","lat":35.30104400,"long":136.99496500,"status":"done","name":"åã±ä¸ç¬¬4å¬åï¼æ±å´ãã§ã³ã¹ï¼","address":"å°ç§å¸åã±ä¸åä¸ç®65","city":"å°ç§å¸","number":"214"}, 
 {"id":"ded594fb-5d46-402c-9fb9-3ed88866e76e","lat":35.25072050,"long":137.08450910,"status":"done","name":"å ç´é£æååºåéè·¯åå´ç©ºå°","address":"æç¥çç¬æ¸å¸æ°´åçº290çªå°","city":"ç¬æ¸å¸","number":"103"}, 
 {"id":"dedfa2d1-64a9-4698-b782-1b867665cad4","lat":34.95274400,"long":136.96865800,"status":"done","name":"çè·¯èäººæ©ã®å®¶","address":"æ±æµ¦çºå¤§å­çè·¯å­å°å¤ªé104çªå°ã®25","city":"æ±æµ¦çº","number":"66"}, 
 {"id":"dee25373-7e9d-49e0-b580-665f2442307b","lat":35.18043000,"long":137.01804000,"status":"done","name":"è¤æ£®ä¸­å­¦æ ¡åè¥¿å´ãã§ã³ã¹","address":"åå¤å±å¸åæ±åºå°æ± çº66çªå°","city":"åå¤å±å¸","number":"63"}, 
 {"id":"dee93dd6-d863-444c-bf2f-0e47b5895b5f","lat":35.07274900,"long":136.91481470,"status":"done","name":"ä¸åå¬åãåå´ãã§ã³ã¹","address":"ååºä¸åçº3-1","city":"åå¤å±å¸","number":"154"}, 
 {"id":"def2ccfd-012b-44e4-b488-707ae55e0523","lat":34.69907400,"long":136.96925400,"status":"not_yet","name":"å®çå¯ºé§è»å ´é£ãã¿éç©å ´","address":"å¸«å´å¤©ç¥å±±ï¼ï¼ã®ï¼","city":"åç¥å¤çº","number":"61"}, 
 {"id":"defa20ed-c15e-4980-9d55-0aab75a37d3f","lat":35.19935790,"long":136.94162620,"status":"done","name":"å¸å¶æ°å±±ç°åèåå´æ±å¯ããã§ã³ã¹","address":"ååºå±±ç°åä¸ç®10çª81å·","city":"åå¤å±å¸","number":"9"}, 
 {"id":"df090f1b-8773-44cf-80b9-bb2708cff04b","lat":35.10227200,"long":137.25773600,"status":"not_yet","name":"ã¾ãããå¸å ´","address":"åå®çºä¸æ ãå®ï¼ï¼ï¼ï¼","city":"è±ç°å¸","number":"716"}, 
 {"id":"df0c0264-783c-4f42-8cac-8f22c57b4547","lat":35.29754300,"long":136.91102600,"status":"done","name":"éãå¬åï¼åå´ãã§ã³ã¹ï¼","address":"å°ç§å¸éãæ¬çº354","city":"å°ç§å¸","number":"85"}, 
 {"id":"df0ca236-eb97-499d-8e93-731cb68642fc","lat":35.20782900,"long":136.81364400,"status":"done","name":"å°è·¯ï¼å·å¬å","address":"å°è·¯ä¸ä¸ç®4çªå°","city":"ãã¾å¸","number":"160"}, 
 {"id":"df0e8703-db01-4c19-a3d6-ccac7ab7910e","lat":35.18196220,"long":136.91216130,"status":"done","name":"å±±å¹ã³ãã¥ããã£ã»ã³ã¿ã¼ãåå´è¥¿å¯ãéç¶²ãã§ã³ã¹","address":"æ±åºç½å£ä¸ä¸ç®52çªå°2","city":"åå¤å±å¸","number":"29"}, 
 {"id":"df1265b8-6d3e-4234-a047-cf53cd9f2738","lat":34.97600160,"long":136.84647810,"status":"not_yet","name":"é·æµ¦ï¼å·ç·å°","address":"ç¥å¤å¸é·æµ¦3ä¸ç®221çªå°","city":"ç¥å¤å¸","number":"122"}, 
 {"id":"df1aef1c-8627-4e02-ac2c-78bbf5e9bf74","lat":35.01386330,"long":136.96129610,"status":"done","name":"æ¡éµé«ç­å­¦æ ¡ã°ã©ã¦ã³ãåå´","address":"ä¸­å¤®çºäºä¸ç®15","city":"å¤§åºå¸","number":"3"}, 
 {"id":"df2472c8-7d87-4c8a-8197-83c84df3b5e0","lat":35.08532130,"long":137.03865290,"status":"done","name":"çè°æ± è¦ªæ°´å¬åï¼ãã§ã³ã¹ï¼","address":"å¤§å­æ¥æ¨å­ä¸æ­£èå»»éï¼ï¼çªå°ï¼","city":"æ±é·çº","number":"27"}, 
 {"id":"df25573e-1b5d-43ae-8762-06af575caef1","lat":34.66754470,"long":137.19655280,"status":"done","name":"é¦¬èå¤ç®çåºå ´ä»è¿","address":"ç°åå¸éç°çºåä¸ï¼ï¼ï¼ï¼","city":"ç°åå¸","number":"95"}, 
 {"id":"df2d7839-5f07-47ed-b354-db0a836cf2b0","lat":35.12152100,"long":137.13896200,"status":"done","name":"åå±±å¬å","address":"æµæ°´çºåå±±ï¼ï¼ï¼","city":"è±ç°å¸","number":"434"}, 
 {"id":"df33fc34-51dc-4fc5-83ef-4024d48955a8","lat":34.89890230,"long":136.91678560,"status":"done","name":"éå®¿å°å­¦æ ¡æ­£é","address":"æ¸åçº1ä¸ç®5-2","city":"åç°å¸","number":"ï¼ï¼ï¼ï¼"}, 
 {"id":"df37d20e-4000-40b0-a96a-1604779dd12f","lat":35.07698400,"long":137.14918500,"status":"done","name":"æ¨¹æ¨å¬å","address":"æ¨¹æ¨çºï¼ï¼ï¼ï¼ï¼","city":"è±ç°å¸","number":"60"}, 
 {"id":"df3a7910-41f5-44d5-a1f9-d228c4f8e590","lat":34.67110200,"long":137.26564630,"status":"done","name":"ç¥æç¤¾ä»è¿","address":"ç°åå¸ç°åçºåçªå ´ï¼ï¼ï¼ï¼","city":"ç°åå¸","number":"47"}, 
 {"id":"df533455-706b-45f1-b20a-efb40b36e18b","lat":34.96715630,"long":136.87843770,"status":"done","name":"éè·¯ä¸","address":"ç¥å¤å¸å²¡ç°å­æ°æ©22çªå°ã®4","city":"ç¥å¤å¸","number":"112"}, 
 {"id":"df699f6f-1b5f-4cc7-a4a1-5deaa89500ea","lat":34.95799310,"long":137.18421670,"status":"done","name":"å¸æä¸­çºå±åå¢å°è¥¿å´","address":"ä¸­çºå­æ±ä¸¸æ ¹ï¼ï¼ï¼çªå°æ±å´","city":"å²¡å´å¸","number":"28"}, 
 {"id":"df77d272-f5bc-42e5-872d-7065d06501eb","lat":35.31193200,"long":136.95866400,"status":"done","name":"æ¬åºç¬¬1åç«¥éåï¼åå´ãã§ã³ã¹ï¼","address":"å°ç§å¸å¤§å­æ¬åº2613-385","city":"å°ç§å¸","number":"132"}, 
 {"id":"df81a076-ba46-439b-a295-62f845afd2dd","lat":35.11491380,"long":136.88099750,"status":"done","name":"æ±æµ·å¬åãæ±å´","address":"æ¸¯åºååä¸çªçº4ä¸ç®5çªå°ã®11","city":"åå¤å±å¸","number":"20"}, 
 {"id":"df840a24-d224-4aa8-9bc7-29d6bade02c6","lat":35.22221500,"long":137.02604900,"status":"done","name":"åå±±å¬åé·æ± åå´æ­©éå","address":null,"city":"å°¾å¼µæ­å¸","number":"57"}, 
 {"id":"df84b567-96ce-48e1-be5a-0d3b9dce8ecd","lat":34.93841790,"long":137.16111820,"status":"done","name":"ã¹ã¼ãã¼é­æ¹¯ãèµæ¹¯è¥¿å´ãã§ã³ã¹","address":"æ¸å´æ°çºï¼çªï¼","city":"å²¡å´å¸","number":"160"}, 
 {"id":"df919fb7-05a9-4d0a-98e5-71e4b5b46cd7","lat":34.71604500,"long":136.90438800,"status":"done","name":"masked","address":"è±æµåäºï¼ï¼","city":"åç¥å¤çº","number":"34"}, 
 {"id":"dfa0a99c-8010-426c-bd1b-4a3d46ed899c","lat":35.12280540,"long":136.73681170,"status":"done","name":"ãããæ­¯ç§æ¨ª","address":"æ±ä¸­å°ä¸ä¸ç®142çªå°1","city":"å¼¥å¯å¸","number":"12"}, 
 {"id":"dfa18f1b-bbe6-4ac3-8efd-2b44b41354f3","lat":34.78635430,"long":137.41385970,"status":"done","name":"23æ®å·éä¼æ","address":null,"city":"è±æ©å¸","number":"23"}, 
 {"id":"dfa8e232-df3b-4b21-b1dc-999e0f609d42","lat":34.82420700,"long":136.90922500,"status":"not_yet","name":"æç¦å¯ºå:ã¬-ããã¤ã","address":"å¨è²´å­åç°å°å","city":"æ­¦è±çº","number":"5-32"}, 
 {"id":"dfad3c71-9724-45db-8f39-9a3c78c5e605","lat":34.97929510,"long":137.23114300,"status":"done","name":"å¬æ°é¤¨åãå´éåå°åæ","address":"å¤§äºéçºå­ã¤ã¢ãªï¼ï¼","city":"å²¡å´å¸","number":"388"}, 
 {"id":"dfaf52c2-71e0-4c6f-b0cc-c2d336508feb","lat":35.02165550,"long":137.17058730,"status":"done","name":"å¸å¶ä½å®ä»æ¨èï¼å·æ£æ±å´ãä»æ¨èæ±åç«¥éååå´ãã§ã³ã¹","address":"ä»æ¨çºå­å·è¶ï¼ï¼","city":"å²¡å´å¸","number":"473"}, 
 {"id":"dfc7a824-f035-431c-9fa2-44e9b5485fd3","lat":34.81575818,"long":137.24043150,"status":"done","name":"æ°´ç¥ãããã³åºå ´","address":"ä¸è°·çºä¹èï¼ï¼ï¼ï¼","city":"è²é¡å¸","number":"38"}, 
 {"id":"dfcaee07-bd73-4147-aff7-cd43d0f02a79","lat":34.74642740,"long":137.42181800,"status":"done","name":"483è¥¿å±±ç¬¬ä¸å¬ååå´","address":null,"city":"è±æ©å¸","number":"483"}, 
 {"id":"dfccd42a-d8aa-4a8c-8ce3-30523ab62b33","lat":34.87780800,"long":137.06700100,"status":"done","name":"å«ãé¢ãµãããã»ã³ã¿ã¼","address":"æ¸ã±å´çºè±ç¾ï¼ï¼ï¼çªå°ï¼","city":"è¥¿å°¾å¸","number":"39"}, 
 {"id":"dfd2faec-64f6-4cbc-9078-b8212ecef930","lat":35.04105230,"long":136.91625350,"status":"done","name":"æ¸¡åï¼å·å¬åï¼åè¥¿å´ï¼","address":"55.èå°¾çºçç­éï¼ï¼âï¼","city":"æ±æµ·å¸","number":"55"}, 
 {"id":"dfd3f138-673a-4f4f-b6b3-6594e8a3b22b","lat":35.01703090,"long":136.95088540,"status":"done","name":"æ·±å»»éå¬ååå´","address":"æå±±çºåä¸ç®109","city":"å¤§åºå¸","number":"39"}, 
 {"id":"dfd6369b-9682-4b23-90c4-d2da2192baf4","lat":34.90506960,"long":137.14687350,"status":"done","name":"ã¤ã³ããªã¢ãã¨ãåãã¤ããéè¼¸ã±é§è»å ´è¥¿å´ãã§ã³ã¹","address":"ç¦å²¡çºå­ä¸é«é ï¼ï¼çªå°ï¼","city":"å²¡å´å¸","number":"229"}, 
 {"id":"dfe22022-5958-4187-bb20-9ef5272b6d63","lat":35.02655580,"long":136.93873090,"status":"done","name":"ã¢ãã¼ããã½ã¬ã¤ã¦ã","address":"é·èçºæ±å¯å40-1","city":"å¤§åºå¸","number":"111"}, 
 {"id":"dff3774d-cf26-4447-826a-6392e1b60e00","lat":34.82933460,"long":137.32529980,"status":"done","name":"å½åºå¸æ°é¤¨ã®æ·å°åãã§ã³ã¹","address":null,"city":"è±å·å¸","number":"121"}, 
 {"id":"dff393bf-a951-4401-9295-1f146c98fd93","lat":34.64323730,"long":137.29601870,"status":"done","name":"æ±ã¶è°·å¬æ°é¤¨ä»è¿","address":"ç°åå¸æ±ç¥æ¸çºå¾¡è¾²ï¼ï¼ï¼ï¼","city":"ç°åå¸","number":"78"}, 
 {"id":"dff3a84f-6d61-4d57-a32a-55724151f457","lat":35.11977510,"long":137.05222020,"status":"done","name":"ä¸­ä¹ç­éæ±å¬ååæµ","address":"æ¥é²å¸æ ä¸ä¸ç®ï¼ï¼ï¼çªå°","city":"æ¥é²å¸","number":"70"}, 
 {"id":"dff6a496-aa5f-4732-be47-f831c3216507","lat":35.28780922,"long":136.86579980,"status":"done","name":null,"address":null,"city":"å²©åå¸","number":"22"}, 
 {"id":"e0079002-a3c9-43f6-a8b3-8a2f843f6269","lat":35.24851900,"long":136.98573700,"status":"done","name":"è²´è¹ç¥ç¤¾è¥¿","address":"è²´è¹çº82","city":"æ¥æ¥äºå¸","number":"220"}, 
 {"id":"e007f6af-5141-462f-85a3-9f7e13152c90","lat":35.18977780,"long":136.90599960,"status":"done","name":"å¸å¶ååèCæ£é§è»å ´åå´æ¤è¾¼ã¿","address":"ååºååä¸ä¸ç®3çª","city":"åå¤å±å¸","number":"91"}, 
 {"id":"e011db29-a42b-4d7e-9a76-8f07d2006b77","lat":35.11981110,"long":136.95067520,"status":"done","name":"å¸ç«å¼¥å¯å°å­¦æ ¡ãæ­£éåå´éç¶²å¡","address":"çç©åºæ¥åçºï¼ä¸ç®ï¼ï¼çªå°ã®ï¼","city":"åå¤å±å¸","number":"96"}, 
 {"id":"e0157c55-cad0-4a3c-8d43-2b0ddc9a14f8","lat":35.10909680,"long":136.81936530,"status":"done","name":"ä¸èå¬åãæ±å´æµåå¯ã","address":"æ¸¯åºç§èä¸ä¸ç®","city":"åå¤å±å¸","number":"133"}, 
 {"id":"e015b5c8-ba46-4513-9dd0-97780ad97a2d","lat":34.92222600,"long":136.96437240,"status":"done","name":"ã«ã¡ã¬ã³å·¥å ´åå´éè·¯ã¬ã¼ãã¬ã¼ã«","address":"äºå´åæµ¦çº1-95","city":"åç°å¸","number":"ï¼ï¼ï¼"}, 
 {"id":"e015b651-78ea-4af6-aad8-e67e828d345e","lat":35.10385590,"long":136.84784510,"status":"done","name":"å²¡ç°å·¥æ¥­ã±ãåå¤å±æ¯åºãåå´ãã§ã³ã¹ãå¥ãå£è¥¿å´","address":"åå¤å±å¸æ¸¯åºé«æ¨çº2ä¸ç®27çªå°","city":"åå¤å±å¸","number":"116"}, 
 {"id":"e01c677d-e592-4e04-a54e-d81d19287435","lat":34.77578820,"long":137.36694120,"status":"done","name":"302ä¸ä¸æ°´éå±è°å£ãã³ãå ´åå´","address":null,"city":"è±æ©å¸","number":"302"}, 
 {"id":"e0297821-6e73-4946-b1fb-14139d55a5bd","lat":35.04544670,"long":136.91689610,"status":"done","name":"ãã­ã¼åååºåå´ã¬ã¼ãã¬ã¼ã«","address":"22.ååçºå¯ºå¾³ï¼ï¼","city":"æ±æµ·å¸","number":"22"}, 
 {"id":"e02a2f92-1c32-481d-b2b6-f3bca98ef6c0","lat":35.19725080,"long":136.99924160,"status":"done","name":"ä¸å¸å ´å¬ååå´éæµ","address":"åå¤å±å¸å®å±±åºå¤©å­ç°ä¸ä¸ç®1301çªå°","city":"åå¤å±å¸","number":"28"}, 
 {"id":"e02a4ac0-4b01-4042-ad38-42cebdc8d2ba","lat":35.05312700,"long":137.14846800,"status":"done","name":"åºæ°ä¼é¤¨","address":"å¾¡å¹¸æ¬çºï¼ï¼ï¼ï¼ï¼ï¼ï¼","city":"è±ç°å¸","number":"307"}, 
 {"id":"e040cf6a-36f9-40f3-87f4-7fac123facf9","lat":35.19782000,"long":137.02150930,"status":"done","name":"æ¬å°ä¸å°å­¦æ ¡ åéè¥¿å´ãã§ã³ã¹","address":"åå¤å±å¸å®å±±åºæ¬å°ãä¸908çªå°","city":"åå¤å±å¸","number":"3"}, 
 {"id":"e04f990d-caca-484f-9f55-4abee79e7013","lat":35.23798500,"long":137.35863900,"status":"not_yet","name":"æ­å°åãã¹ä¸ä¸­åçæä»è¿","address":"ä¸ä¸­çºçåï¼ï¼ï¼ï¼","city":"è±ç°å¸","number":"827"}, 
 {"id":"e0525d74-912d-4170-8e80-7f0ed7b5ef5f","lat":34.98882300,"long":136.98413100,"status":"done","name":"äºåå¬åå","address":"åçº1ä¸ç®1çªå°1","city":"åè°·å¸","number":"2"}, 
 {"id":"e0551ff3-81b2-44c9-ad75-a166439c063f","lat":34.91108280,"long":136.94712070,"status":"done","name":"ä¹å·å¬åæ¤æ¨¹å¸¯","address":"ä¹å·å¤ªç°çº1ä¸ç®28","city":"åç°å¸","number":"ï¼ï¼ï¼ï¼"}, 
 {"id":"e057db5d-6f74-424d-9b66-62069c84019a","lat":34.83778173,"long":137.23913060,"status":"done","name":"masked","address":"æ¸ç°çºæ©è©°ï¼ï¼","city":"è²é¡å¸","number":"86"}, 
 {"id":"e058a2be-69b6-49dd-8d4e-27440009a431","lat":34.96355500,"long":137.15276450,"status":"done","name":"å«å¸å¬å","address":"å«å¸åçºï¼ï¼ï¼ï¼ï¼è¥¿å´","city":"å²¡å´å¸","number":"63"}, 
 {"id":"e058bcb6-647c-4f3a-b4a0-c8e9e6293856","lat":35.06914430,"long":136.95476750,"status":"done","name":"æ¼å±±å¬åè¥¿å´ã®æµ","address":"åå¤å±å¸ç·åºæ¼å±±1301çªå°","city":"åå¤å±å¸","number":"29"}, 
 {"id":"e058c937-a569-4997-81f6-3c36afc5ef90","lat":35.18897600,"long":136.81974800,"status":"other","name":"çç®å¯ºåé²ç½ï½¾ï¾ï¾ï½°","address":"çç®å¯ºé å20çªå°","city":"ãã¾å¸","number":"100"}, 
 {"id":"e05a1e41-7d16-40ec-8746-f28abac98a2d","lat":35.01154570,"long":137.20435900,"status":"not_yet","name":"masked","address":"æµç°çºå­äºåç°ï¼","city":"å²¡å´å¸","number":"450"}, 
 {"id":"e06cae19-61bd-47ec-b1ce-62a54e8e6cfb","lat":35.01889500,"long":136.90490300,"status":"done","name":"æµã¬å¬åï¼åæ±å´ï¼","address":"83.ä¸­å¤®çºï¼ä¸ç®ï¼ï¼ï¼","city":"æ±æµ·å¸","number":"83"}, 
 {"id":"e06f072a-cf22-49f7-945d-06baacf32e69","lat":35.16699800,"long":136.96074800,"status":"done","name":"æç¥å­¦é¢å¤§å­¦è¥¿å´ãã§ã³ã¹","address":"åç¨®åºæ¥ åçº1ä¸ç®100çªå°","city":"åå¤å±å¸","number":"107"}, 
 {"id":"e0703d1a-aa15-40b2-b75d-5ee3d3b0a04c","lat":35.13787500,"long":137.16169700,"status":"reserved","name":"æ£®è°éä¼æå","address":"äºé¦çºä¸åã¤ç°ï¼ï¼","city":"è±ç°å¸","number":"460"}, 
 {"id":"e071388d-c2f4-40b5-968d-b36e49a09054","lat":34.97584710,"long":136.85558300,"status":"done","name":"äºã¿è¡æ± å","address":"ç¥å¤å¸æ¥é·å­äºï¾è¡4çªå°ã®1","city":"ç¥å¤å¸","number":"96"}, 
 {"id":"e075f851-8d9d-4da1-9f8e-b86d38272b0d","lat":35.12209010,"long":136.95966350,"status":"done","name":"çç«æ­åé«ç­å­¦æ ¡ãè¥¿å´éç¶²ãã§ã³ã¹","address":"çç©åºçæ°´çºï¼ä¸ç®ï¼ï¼çªå°","city":"åå¤å±å¸","number":"101"}, 
 {"id":"e087325f-f1b1-47cb-9b5b-7d3e55cd86ff","lat":35.11980400,"long":136.75247200,"status":"done","name":"è¿éä½å¤æ¨é§å","address":"ä½å¤æ¨å­ä¸ç®225çªå°","city":"å¼¥å¯å¸","number":"2"}, 
 {"id":"e08fbb6b-4cc3-4570-9ec4-38e551cd6dc5","lat":35.20085040,"long":136.95296220,"status":"done","name":"é³¥ç¾½è¦å°å­¦æ ¡ãæ±éåå´ãã§ã³ã¹","address":"åå¤å±å¸å®å±±åºé³¥ç¾½è¦äºä¸ç®17çª6å·","city":"åå¤å±å¸","number":"140"}, 
 {"id":"e0935b2c-071f-4204-bda9-ea4d8f4b311e","lat":35.28821900,"long":137.06758100,"status":"done","name":"å¤ä¹åä¸­å¬æ°é¤¨è¥¿","address":"å¤ä¹åçº2156-5","city":"æ¥æ¥äºå¸","number":"359"}, 
 {"id":"e0974a9e-eea2-427d-a56e-c7f2d8b6feca","lat":35.32083900,"long":136.82197600,"status":"not_yet","name":"masked","address":"ä¸¹ç¾½å­å­åç875-1","city":"ä¸å®®å¸","number":"6"}, 
 {"id":"e0993b69-b603-4bb6-b627-d8c8e0464f33","lat":34.86139140,"long":137.42966980,"status":"done","name":"ä¸å®®æ±é¨ä¿è²åå","address":null,"city":"è±å·å¸","number":"224"}, 
 {"id":"e0b25593-c19a-46dd-ba31-e1440d264266","lat":35.12875580,"long":136.89360070,"status":"done","name":"æ¥æ¯éä¸­å­¦æ ¡è¥¿éåå´ãã§ã³ã¹","address":"ç±ç°åºå¤§å®åä¸ç®2çª45å·","city":"åå¤å±å¸","number":"85"}, 
 {"id":"e0c67c3d-394e-4c5c-ba1f-346ea6bb9a1e","lat":34.84991500,"long":136.91476400,"status":"not_yet","name":"åéç¥å¤æ­¦è±é§(æ¹æ­å£å):ã³ã³ã¯ãª-ãæ­","address":"éå´å°å","city":"æ­¦è±çº","number":"2-8"}, 
 {"id":"e0d46ddd-14b5-4a22-95e8-23d23fcece66","lat":35.02962510,"long":136.93968540,"status":"done","name":"ã¡ã¾ã³è¿è¤åå´","address":"é·èçºåå±æ·5","city":"å¤§åºå¸","number":"109"}, 
 {"id":"e0d514ac-bccd-48a2-8ebb-14d9f66cec7f","lat":34.95613480,"long":136.83071560,"status":"done","name":"çè°·ãæ¶å­ æ¹","address":"ç¥å¤å¸æ°èå­å­åå±æ·26çªå°","city":"ç¥å¤å¸","number":"142"}, 
 {"id":"e0df62ae-7043-4347-a35a-c02b4f684159","lat":35.13419510,"long":136.90487150,"status":"done","name":"æå±å°å­¦æ ¡åå´ãã§ã³ã¹","address":"ç±ç°åºå¤å¯çº5çª1å·","city":"åå¤å±å¸","number":"17"}, 
 {"id":"e0e07b1e-0c64-4418-8dea-5457d111d2ea","lat":35.17619000,"long":137.01064000,"status":"done","name":"åæ±åºå½¹æåå´ãã§ã³ã¹","address":"åå¤å±å¸åæ±åºä¸ç¤¾äºä¸ç®50çªå°","city":"åå¤å±å¸","number":"71"}, 
 {"id":"e0fd511e-7543-4fc4-b49c-6f1f50fa0ca5","lat":35.26006300,"long":136.88954200,"status":"other","name":"çä¹åºå±±ã®åè¥¿åç«¥éå(æ±)","address":"çä¹åºå±±ã®åï¼ï¼","city":"ååå¤å±å¸","number":"10"}, 
 {"id":"e0fe0470-c2fa-467b-ab43-0cba8215ace6","lat":35.28448500,"long":137.04609700,"status":"done","name":"114å·æ£æ±","address":"è¤å±±å°1-4-2","city":"æ¥æ¥äºå¸","number":"300"}, 
 {"id":"e1009056-9269-46de-86ea-fa918ab4b85e","lat":35.35598000,"long":136.86825600,"status":"done","name":"masked","address":"æ±åå¸æä¹éçºä¸­é·ï¼ï¼","city":"æ±åå¸","number":"138"}, 
 {"id":"e112b316-810a-4db8-9091-fcc3581a7aa8","lat":34.77192260,"long":137.37801070,"status":"done","name":"18å¤§ä¸éæï¼æ ªï¼åå´","address":null,"city":"è±æ©å¸","number":"18"}, 
 {"id":"e11bdee8-bb60-4902-a199-4f114ce4440a","lat":35.11506900,"long":137.04340300,"status":"done","name":"åã±ä¸äºä¸ç®å¬åå","address":"æ¥é²å¸åã±ä¸äºä¸ç®ï¼ï¼çªå°","city":"æ¥é²å¸","number":"77"}, 
 {"id":"e120afe6-c095-43bf-8ed0-fefa0b3cb230","lat":35.14903320,"long":136.83812920,"status":"done","name":"çå¶ä¸­æä½å®ï¼å·æ£è¥¿åè§ãã§ã³ã¹","address":"ä¸­æåºå«ç¤¾äºä¸ç®ï¼ï¼ï¼çªå°","city":"åå¤å±å¸","number":"169"}, 
 {"id":"e122b58b-1295-46ab-8bb2-ee50138a85d4","lat":35.25054490,"long":136.70815120,"status":"done","name":"å¸äººãã¯ã­ã¹ï¼æ ªï¼æ±\n","address":"ç¥ç¶æ±çºåè²«å ¤å¤22","city":"ç¨²æ²¢å¸","number":"192"}, 
 {"id":"e12afb1c-9825-4e9c-8521-bfda2653df85","lat":35.10030900,"long":136.72737630,"status":"done","name":"è¼ªä¸­ã®é·å","address":"å¤§è¤çº5çªå°3","city":"å¼¥å¯å¸","number":"41"}, 
 {"id":"e12f1f10-28d2-4c36-a5af-2d9b5e87ef5b","lat":35.18983610,"long":137.03134160,"status":"done","name":"çéæ²¿ãç©ºãå°åå´","address":"è¥¿åï¼ï¼çªï¼","city":"é·ä¹æå¸","number":"34"}, 
 {"id":"e13603ba-8e91-4531-b7df-4c3f3f8a9a2a","lat":35.20753000,"long":137.01961700,"status":"done","name":"æ¸å·å°å­¦æ ¡ï¼åå´ãã§ã³ã¹ï¼","address":null,"city":"å°¾å¼µæ­å¸","number":"18"}, 
 {"id":"e13a1832-a44d-40f6-b7e7-11ac1b7c6da6","lat":35.04460900,"long":137.05702200,"status":"done","name":"æã±ä¸å¬å","address":"è¥¿å²¡çºæã¶ä¸ï¼ï¼ï¼ï¼ï¼","city":"è±ç°å¸","number":"384"}, 
 {"id":"e13c5a72-260b-4ea1-a5c6-a8c81bce56fc","lat":35.10236040,"long":136.96729050,"status":"done","name":"äº¤éå±éä¸¦å¶æ¥­æç¨å°å¸å¶åç¸çèæ±å´ãã­ãã¯å¡åå´","address":"å¤©ç½åºç¸å·ä¸ä¸ç®1çªå°","city":"åå¤å±å¸","number":"128"}, 
 {"id":"e13e30df-0aa4-4937-b012-01d4af1e6b35","lat":35.24201700,"long":137.11982930,"status":"done","name":"ï¼æ ªï¼ã¬ã¯ãã£åå½éæ²¿ãç©ºå°","address":"æç¥çç¬æ¸å¸åéçº3ä¸ç®10-1","city":"ç¬æ¸å¸","number":"166"}, 
 {"id":"e13f9a1c-149b-468c-bffb-c00fa1443397","lat":35.34946800,"long":136.82649200,"status":"done","name":"æµäºåå°å­¦æ ¡æ­£éåå´","address":"æµäºçºå¤§éå­ååå±±75","city":"ä¸å®®å¸","number":"2"}, 
 {"id":"e14a1ec6-2d8f-47bc-8595-32dc38361028","lat":35.09748800,"long":136.86607350,"status":"done","name":"é è¥ç¥ç¤¾ãåå´ã®éæµ","address":"æ¸¯åºé è¥çº1ä¸ç®76çªå°ã®196","city":"åå¤å±å¸","number":"38"}, 
 {"id":"e14ca3e6-5914-4fc2-a4e4-aa297e6351fd","lat":34.97057980,"long":137.16850230,"status":"done","name":"æ¢å¹³æ©è¥¿å´ã¬ã¼ããã¤ã","address":"ä¼è³çºå­ï¼ä¸ç®ï¼ï¼ï¼ï¼åå´","city":"å²¡å´å¸","number":"72"}, 
 {"id":"e152f4fa-7e8b-464e-9376-73d149356c20","lat":34.74230430,"long":137.33990560,"status":"done","name":"277ç¥éæ°ç°çºå­ã¯ãå²6ï¼ç©ºå°ï¼","address":null,"city":"è±æ©å¸","number":"277"}, 
 {"id":"e163d343-f656-47d6-aafd-010093075fe6","lat":34.94530820,"long":136.85345770,"status":"not_yet","name":"éè·¯ä¸","address":"ç¥å¤å¸éæ²¢å­ä¸­åå±±131çªå°ã®4","city":"ç¥å¤å¸","number":"173"}, 
 {"id":"e1658a9b-08f2-4808-b0d9-326c21e1260d","lat":35.16661980,"long":136.91871650,"status":"done","name":"ç½å±±ä¸­å­¦æ ¡ãæ±å´åå¯ãéç¶²ãã§ã³ã¹","address":"åå¤å±å¸ä¸­åºæ°æ ä¸ä¸ç®ï¼ï¼çªï¼ï¼å·","city":"åå¤å±å¸","number":"36"}, 
 {"id":"e16791aa-c93d-4f11-9856-f44a3e40ed3a","lat":35.03746400,"long":137.04608200,"status":"done","name":"masked","address":"æ±å¢çºæ°æ1çªå°142","city":"åè°·å¸","number":"179"}, 
 {"id":"e16a5b34-bd61-44bc-aad6-bf4cf36fd960","lat":34.90394600,"long":136.99729900,"status":"done","name":"å¾¡é¬ç¤¾","address":"ç¢§åå¸è¥¿å±±çºï¼ä¸ç®å°å","city":"ç¢§åå¸","number":"17"}, 
 {"id":"e16be65e-44a5-4cce-b045-5df57f0fd43a","lat":34.96207960,"long":137.16374100,"status":"done","name":"å²¡ä¿¡æ¬çºæ¯åºè·å¡é§è»å ´æ±å´ãã§ã³ã¹","address":"è½è¦éï¼ä¸ç®ï¼ï¼åå´","city":"å²¡å´å¸","number":"68"}, 
 {"id":"e16c8b94-cce8-486b-9ef3-47571dae2713","lat":35.21261230,"long":136.91650070,"status":"done","name":"å¸å¶æé¡å¯ºèè¥¿3æ£åå´ãã§ã³ã¹","address":"ååºå®äºäºä¸ç®5çª","city":"åå¤å±å¸","number":"140"}, 
 {"id":"e16d5862-8a0c-486d-b863-da2e9f50f564","lat":34.81453350,"long":137.30051770,"status":"done","name":"ããã­ã¡ã³ã£å­åºå ´æ±","address":null,"city":"è±å·å¸","number":"289"}, 
 {"id":"e17476c2-2d97-4698-9a7d-75b4227a1d39","lat":35.14020510,"long":136.88441730,"status":"done","name":"å«å¹¡å°å­¦æ ¡ãæ±éåå´","address":"åå¤å±å¸ä¸­å·åºå«çé5ä¸ç®4çªå°","city":"åå¤å±å¸","number":"32"}, 
 {"id":"e17f86b0-e043-4bb1-9225-58fed6bc3ad7","lat":35.30831100,"long":136.97544900,"status":"done","name":"åäººææå°","address":"å°ç§å¸å¤§å­æ± ä¹å2483-1","city":"å°ç§å¸","number":"185"}, 
 {"id":"e17fc533-f161-4962-85e6-fc50bf3be379","lat":35.11395600,"long":137.10369900,"status":"done","name":"(ç¦è°·åºæ°ä¼é¤¨æ­£éå³å´)","address":"ç¦è°·çºå¯ºãå21-1","city":"ã¿ããå¸","number":"13"}, 
 {"id":"e1802521-4ae3-4843-b2ec-082fac7e6f30","lat":35.15417590,"long":136.91495840,"status":"done","name":"ä»²ããã©ãããã²ãã°ãæ±å´éç¶²ãã§ã³ã¹","address":"åå¤å±å¸ä¸­åºåä»£ç°ä¸ä¸ç®ï¼ï¼ï¼ï¼","city":"åå¤å±å¸","number":"63"}, 
 {"id":"e18267c1-9a82-4583-b91b-9041167de1b2","lat":34.99744140,"long":136.86944220,"status":"done","name":"æ©å·ãä¹å­ æ¹","address":"ç¥å¤å¸å«å¹¡å­æ±æµ·é19çªå°ã®1","city":"ç¥å¤å¸","number":"12"}, 
 {"id":"e183534a-6858-4980-875b-f9a9563925e2","lat":35.08515490,"long":136.92038250,"status":"done","name":"å®åå°å­¦æ ¡ãæ±å´ãã§ã³ã¹","address":"ååºå ¤èµ·çº3-48","city":"åå¤å±å¸","number":"150"}, 
 {"id":"e1835ec1-57cb-438b-ae74-06b597e95223","lat":35.14303580,"long":136.98656380,"status":"done","name":"å§¥ã¶å´å¬ååå´éæµ","address":"å¤©ç½åºæ¤ç°å±±äºä¸ç®1201çªå°","city":"åå¤å±å¸","number":"66"}, 
 {"id":"e1862558-6eda-47e7-98ad-05c853abc6d8","lat":34.98306700,"long":137.28510820,"status":"done","name":"ãåããã¹åæ±å´","address":"éåçºå­åç°ï¼ï¼çªå°ï¼ä»è¿","city":"å²¡å´å¸","number":"647"}, 
 {"id":"e188ef27-2594-4eaf-a1ec-4c652cc65133","lat":35.25900300,"long":136.95904500,"status":"done","name":"å¤§æç°éã¡ã³ã£å­åºå ´æ±","address":"å¤§æç°éçº1-19-10","city":"æ¥æ¥äºå¸","number":"18"}, 
 {"id":"e18a1398-d93d-47ea-9eeb-ef1815af332d","lat":34.91797540,"long":137.17612470,"status":"done","name":"ãã¿ãå¬ååå´","address":"ç·ä¸ï¼ä¸ç®ï¼ï¼ï¼ï¼åå´","city":"å²¡å´å¸","number":"305"}, 
 {"id":"e19b4345-e984-4a44-9249-28aef6fde8b5","lat":35.27890000,"long":136.72119100,"status":"not_yet","name":"ææ¥è¥¿ä¿è²ååå´å¥å£æ±å´ãã­ãã¯å¡","address":"ä¸ç¥ç¶æ±å­å±±åï¼ï¼","city":"ä¸å®®å¸","number":"1"}, 
 {"id":"e19c3653-b750-4937-909e-cebb0a2224d1","lat":34.93893550,"long":136.94772760,"status":"done","name":"å¸å¶ä½å®åå°å¬åè·¡å°","address":"ç³å¡çº13ä¸ç®29-2","city":"åç°å¸","number":"ï¼ï¼ï¼"}, 
 {"id":"e1a44314-fd88-4169-98eb-c8049149f473","lat":35.25354800,"long":136.97340400,"status":"done","name":"ä¸ãæ®µå¬åå","address":"å«ç°çº8-10","city":"æ¥æ¥äºå¸","number":"170"}, 
 {"id":"e1a75bc9-06a0-4c2f-bab5-d8b888da8861","lat":35.17238140,"long":136.86192110,"status":"done","name":"æ¥æ¬èµ¤åå­ç¤¾æç¥å»çã»ã³ã¿ã¼åå¤å±ç¬¬ä¸çé¢è¥¿å´ãã§ã³ã¹","address":"ä¸­æåºéä¸çºï¼ä¸ç®ï¼ï¼çªå°","city":"åå¤å±å¸","number":"55"}, 
 {"id":"e1acc30c-fb32-4f25-a684-2afa0b82beab","lat":34.87238820,"long":137.28898080,"status":"done","name":"masked","address":null,"city":"è±å·å¸","number":"263"}, 
 {"id":"e1ad9ac0-a7e9-431b-bd80-6a26075af5d6","lat":35.16637000,"long":136.76295500,"status":"done","name":"æ±åå£å°å¬åè¥¿","address":"æ´¥å³¶å¸çç°çºå­æ±å60çª","city":"æ´¥å³¶å¸","number":"69"}, 
 {"id":"e1b1b658-1ab8-4694-8d59-55fc97ed907f","lat":34.85081340,"long":137.34705860,"status":"done","name":"å¹³å°¾æ±å¬åè¥¿","address":null,"city":"è±å·å¸","number":"109"}, 
 {"id":"e1ba9838-4467-4d42-9261-be572348902a","lat":35.32698400,"long":136.92234800,"status":"not_yet","name":"å¤åªäº¤å·®ç¹ãæ±","address":"ä¸¹ç¾½é¡å¤§å£çºå¤åªä¸ä¸ç®ï¼ï¼ï¼","city":"å¤§å£çº","number":"26"}, 
 {"id":"e1be221b-73dd-42ad-9c69-bca797ab7626","lat":35.19772800,"long":137.03077200,"status":"done","name":"æ¬å°åå°å­¦æ ¡ï¼åå´ãã§ã³ã¹ï¼","address":null,"city":"å°¾å¼µæ­å¸","number":"138"}, 
 {"id":"e1c8e9cb-1eb8-4492-8c15-325917ba05ad","lat":34.84048217,"long":137.22623370,"status":"done","name":"ç¥ãé·åç«¥éåå°","address":"ç¥ãé·çºå®®åï¼ï¼ï¼","city":"è²é¡å¸","number":"102"}, 
 {"id":"e1c91f2d-2cdc-435d-a393-234712dccccc","lat":35.17633390,"long":136.86874740,"status":"done","name":"ä¸­æåºå½¹ææ±å´å¡","address":"ä¸­æåºæ¾åçºï¼ä¸ç®ï¼ï¼çªå°ã®ï¼","city":"åå¤å±å¸","number":"70"}, 
 {"id":"e1cb35fa-5ee0-4854-88fa-8cb4701f6949","lat":35.23730500,"long":136.94726600,"status":"done","name":"å·æ·»å¬åå","address":"åå·æ°çº3-100","city":"æ¥æ¥äºå¸","number":"93"}, 
 {"id":"e1cce230-52e2-4360-93f1-036a72decf38","lat":34.94297210,"long":136.99933960,"status":"done","name":"å±±ç°å¬ååå´","address":"å°æ± çºåä¸ç®ï¼ï¼ï¼ï¼","city":"é«æµå¸","number":"10"}, 
 {"id":"e1cdf9de-908c-4dcc-a86b-ec0fe44fc95d","lat":34.97067760,"long":137.22838950,"status":"done","name":"å¸¸ç£åãã©ãã®å®¶åå´ãç°å£çºå¬æ°é¤¨åã¬ã¼ãã¬ã¼ã«","address":"ç°å£çºå­å²©æ¬ï¼ï¼ï¼","city":"å²¡å´å¸","number":"393"}, 
 {"id":"e1d3ca79-a152-4b23-ab90-0db9272130c6","lat":34.69823590,"long":137.40872020,"status":"not_yet","name":"423å­ãç¾éä¼æ","address":null,"city":"è±æ©å¸","number":"423"}, 
 {"id":"e1d8317c-0630-49c1-b949-ef7753bf045c","lat":35.16302610,"long":136.98745110,"status":"done","name":"æã±ä¸ã³ãã¥ããã£ã»ã³ã¿ã¼é§è»å ´åå´ãã§ã³ã¹","address":"åç¨®åºæã±ä¸1ä¸ç®3çªå°","city":"åå¤å±å¸","number":"177"}, 
 {"id":"e1d93340-58f2-46ee-935b-fba02bc2d7cc","lat":34.80832700,"long":137.03472900,"status":"done","name":"å¯¾ç±³ä½å®ã¡ã³ã£ãåºå ´","address":"ä¸è²çºå¯¾ç±³ä¸æèï¼çªå°ï¼","city":"è¥¿å°¾å¸","number":"158"}, 
 {"id":"e1d9ff74-72e4-4201-867d-fc82e530b546","lat":35.01614430,"long":136.89628290,"status":"done","name":"ä¸­å¿è¡æ´åäºåæï¼åå´ï¼","address":"198.å¤§ç°çºæ±çï¼ï¼ï¼","city":"æ±æµ·å¸","number":"122"}, 
 {"id":"e1dc1171-a347-4b07-97fe-f293cfcb6d7a","lat":35.11129800,"long":137.10795600,"status":"done","name":"(çæ´åç«¥éåè¥¿å´)","address":"ä¸å¥½ä¸æ¡äºä¸ç®17-24","city":"ã¿ããå¸","number":"56"},