[{"id":"bf56cf4e-8c76-4122-83d1-eb3087762a9e","lat":34.83376840,"long":134.91733190,"status":"not_yet","name":"ＪＲ小野町駅前広場の北西側 駐車場奥の植栽","address":"下来住町482の4","city":"小野市","number":"14-91"}, 
 {"id":"bf58cb8d-45ed-4c38-adde-3fcf8eaa9bd6","lat":34.70123200,"long":135.19303410,"status":"done","name":"水道局北野寮南西フェンス","address":"中央区北野町1丁目2番","city":"神戸市","number":"124"}, 
 {"id":"bf5ea266-592b-4d04-84e0-cf6a3a42ab9e","lat":35.20583390,"long":134.87005020,"status":"not_yet","name":"黒川大明寺橋付近市有地","address":"黒川","city":"朝来市","number":"23"}, 
 {"id":"bf72218f-c721-44f0-afa6-11bb90c105e2","lat":34.90255700,"long":135.18975150,"status":"done","name":"すずかけ台２丁目　えるむプラザ駅前駐車場前野立て","address":"すずかけ台2丁目 えるむプラザ駅前駐車場前野立て","city":"三田市","number":"183"}, 
 {"id":"bf7370bf-1b5a-4109-964e-10992f88f47e","lat":34.92875290,"long":135.19117080,"status":"not_yet","name":"広野　ＪＲ広野駅駐輪場金網（東側）","address":"広野 JR広野駅駐輪場金網(東側)","city":"三田市","number":"75"}, 
 {"id":"bf783265-519f-435e-9355-e17761ab2e42","lat":34.78178610,"long":135.40333610,"status":"done","name":"堂の前公園 西側鉄柵","address":"千僧6丁目95番地","city":"伊丹市","number":"135"}, 
 {"id":"bf795eb8-544a-492d-8811-dc9211247af8","lat":34.64637310,"long":134.98047060,"status":"done","name":"衣川中学校（北側フェンス）","address":"南王子町7","city":"明石市","number":"148"}, 
 {"id":"bf83ecfe-3549-430c-83e1-bf5fb9a43a2a","lat":35.38226450,"long":134.81598260,"status":"not_yet","name":"道の駅「やぶ」","address":"場1294-77","city":"養父市","number":"116"}, 
 {"id":"bf861647-babf-4087-bf80-0af7b9b6feb2","lat":34.66859160,"long":135.16304770,"status":"done","name":"兵庫年金事務所南側 駐輪場","address":"兵庫区駅前通1丁目3番","city":"神戸市","number":"180"}, 
 {"id":"bf8aac65-7ede-454a-9837-b634124b19e2","lat":null,"long":null,"status":"not_yet","name":"シャンテ川西専用駐車場金網","address":"小花2丁目5番","city":"加西市","number":"21"}, 
 {"id":"bf8b90ab-9f79-49bd-b71b-266697dd65b5","lat":35.43591780,"long":134.60105000,"status":"not_yet","name":"masked","address":"村岡区日影667","city":"香美町","number":"177"}, 
 {"id":"bf90d096-556b-49d4-9b99-dda7438e19a0","lat":34.21891000,"long":134.82405100,"status":"not_yet","name":"惣川集落進入口　擁壁","address":"灘惣川358-3付近","city":"南あわじ市","number":"4-74"}, 
 {"id":"bf91dfdf-80bf-4218-806b-8029ebd0db0d","lat":34.64747480,"long":134.98687540,"status":"done","name":"NTT明石別館（NTT明石別館南側フェンス）","address":"樽屋町8-27","city":"明石市","number":"115"}, 
 {"id":"bf9bc40d-8ac5-424b-8f03-4e17eb02d401","lat":34.85169650,"long":134.97270350,"status":"not_yet","name":"吉反田池２号　市道1501号線ガードレール","address":"長尾町822の66地先","city":"小野市","number":"4-26"}, 
 {"id":"bf9cd463-200b-415c-be34-1c81aa3fdc51","lat":35.58220120,"long":134.73295530,"status":"not_yet","name":"高架下バス停フェンス","address":"竹野町森本514-11高架下バス停フェンス","city":"豊岡市","number":"207"}, 
 {"id":"bf9ee36c-6bd3-4e6d-a573-fbe1d2a87ddc","lat":34.86408800,"long":134.88196200,"status":"done","name":"営農センター花壇後ろ側","address":"網引町","city":"加西市","number":"126"}, 
 {"id":"bfa0b311-3759-4c9c-8c96-7fe1b221d49d","lat":34.78056684,"long":134.77033090,"status":"done","name":"日笠歩道橋の西詰","address":"高砂市曽根町1754－1地先","city":"高砂市","number":"13-6"}, 
 {"id":"bfa34abb-c545-454a-b2a0-cdbf1509ae78","lat":34.66840850,"long":135.13468820,"status":"done","name":"「育英高校グラウンド」西出入口そばのフェンス","address":"長田区長尾町2丁目1番","city":"神戸市","number":"151"}, 
 {"id":"bfa3e65c-bf60-4c38-bef4-1f5f86eb762a","lat":34.79139650,"long":134.71631380,"status":"not_yet","name":"マックスバリュー東山店南フェンス","address":"東山181-1","city":"姫路市","number":"640"}, 
 {"id":"bfb24d44-bafb-405f-8734-e62149e1da8c","lat":35.07905040,"long":135.03585440,"status":"done","name":"県道篠山山南線歩道　転落防止柵","address":"篠山山南線","city":"丹波市","number":"管理番号238山南20"}, 
 {"id":"bfb48151-7053-46a2-b293-e3ed1307549f","lat":34.94156000,"long":135.17422180,"status":"not_yet","name":"長坂　旭公会堂フェンス前敷地（掲示板の右）野立て","address":"長坂 旭公会堂フェンス前敷地(掲示板の右)野立て","city":"三田市","number":"58"}, 
 {"id":"bfb53d9d-6c45-4e00-93e5-d88216a6004d","lat":34.24846860,"long":134.75048750,"status":"not_yet","name":"北阿万地区公民館前フェンス","address":"北阿万筒井1228-7","city":"南あわじ市","number":"4-35"}, 
 {"id":"bfb6b798-486f-460e-a0e6-8bb9e0cd8688","lat":34.72424170,"long":134.88240680,"status":"done","name":"野添北公園西側入口左側植込み","address":"上野添2丁目1898-1","city":"播磨町","number":"6"}, 
 {"id":"bfb84343-dcc8-4ba3-8ba7-df0956574c3a","lat":34.89344230,"long":135.07510690,"status":"done","name":"南山活性化支援施設（Mina-Kuru）","address":"南山1丁目4番地2","city":"加東市","number":"163"}, 
 {"id":"bfbb5f75-d988-4c15-aadb-cd27843a80ab","lat":34.72883600,"long":134.87724300,"status":"other","name":"城の宮住宅集会所東側防護柵","address":"平岡町山之上684-35","city":"加古川市","number":"194"}, 
 {"id":"bfbbfe13-1620-4da9-95f8-4ab743e4cf9a","lat":35.64124950,"long":134.48261540,"status":"not_yet","name":"masked","address":"田井","city":"新温泉町","number":"33"}, 
 {"id":"bfc1d9fc-6b1a-4db5-8139-3036f2de0f99","lat":34.69520370,"long":135.20376910,"status":"done","name":"新生田川住宅17号棟西側ガードレール","address":"中央区南本町通6丁目3番17号","city":"神戸市","number":"83"}, 
 {"id":"bfd4bc57-ca34-436d-a886-4fa3f39c0ab2","lat":34.81025010,"long":135.21388980,"status":"done","name":"五社新橋西詰フェンス","address":"北区藤原台南町1丁目19番","city":"神戸市","number":"273"}, 
 {"id":"bfd735b0-db2e-41b5-b3fa-2b2c8ba3f642","lat":35.03995710,"long":135.26889130,"status":"not_yet","name":"曽地奥共同作業所横広場フェンス","address":"曽地奥","city":"丹波篠山市","number":"15-7"}, 
 {"id":"bfd8a27a-f3b9-41fa-8a3a-452d04261331","lat":34.66380650,"long":134.96669300,"status":"done","name":"市道(中村モータープール前)","address":"西明石町5丁目7","city":"明石市","number":"211"}, 
 {"id":"bfd8d278-37b1-4d95-bc15-8fc6a841b994","lat":34.78687390,"long":134.81658420,"status":"done","name":"旧加古川西市民病院南東側市道フェンス","address":"米田町平津384-1(10-2042西井ノ口42号線)","city":"加古川市","number":"437"}, 
 {"id":"bfe0b183-4d3c-41c2-a1ec-f7614258722c","lat":34.66155620,"long":135.02144580,"status":"done","name":"バス停日向前付近","address":"西区伊川谷町有瀬656番地","city":"神戸市","number":"112"}, 
 {"id":"bfeae064-d5a6-4d54-8b92-72faede61e1b","lat":34.75267610,"long":134.38682060,"status":"done","name":"上仮屋北たかのは公園北面","address":"上仮屋北たかのは公園北面","city":"赤穂市","number":"11"}, 
 {"id":"bfee5598-843a-436e-98c7-aef286254297","lat":34.66447220,"long":135.17077570,"status":"done","name":"須佐野中学校西側金網","address":"兵庫区松原通1丁目1番","city":"神戸市","number":"186"}, 
 {"id":"bfee7934-f600-4cfb-ad82-615d04049043","lat":34.81874500,"long":134.38015280,"status":"not_yet","name":"富原児童遊園横","address":"富原児童遊園横","city":"赤穂市","number":"114"}, 
 {"id":"bfeea310-2caf-4e7c-9c20-ddc428b0bb5d","lat":35.03845590,"long":134.76041190,"status":"not_yet","name":"ゴミステーション北側","address":"澤176","city":"市川町","number":"90"}, 
 {"id":"bfeeb0c7-e80e-45c3-8a84-a0403174ce24","lat":34.85454340,"long":134.70838880,"status":"done","name":"西中島公園西側","address":"増位新町一丁目90","city":"姫路市","number":"153"}, 
 {"id":"bff435ae-1fda-4f6d-a526-1b86ef7ecbcd","lat":34.64850450,"long":135.04555720,"status":"done","name":"狐坂公園北側道路鉄柵","address":"垂水区清水が丘1丁目6番","city":"神戸市","number":"288"}, 
 {"id":"bffb256b-b3be-49e5-b217-bd81fd09f0b9","lat":34.70581160,"long":135.20020450,"status":"done","name":"雲中小学校南東側ガードレール","address":"中央区熊内町3丁目1番","city":"神戸市","number":"53"}, 
 {"id":"c00725f6-3c6b-466a-b8e4-129303b907c4","lat":34.74888080,"long":135.17226100,"status":"not_yet","name":"菖蒲谷公園北側鉄柵","address":"北区小倉台6丁目8番地","city":"神戸市","number":"42"}, 
 {"id":"c008ce63-3e5a-4d53-a3cc-ec2cf1a83bdf","lat":34.65626600,"long":135.03862960,"status":"not_yet","name":"西脇小学校前フェンス","address":"垂水区西脇1丁目9番","city":"神戸市","number":"146"}, 
 {"id":"c00e0ed8-9114-427e-908f-fd166eec504e","lat":34.71008200,"long":135.20758640,"status":"done","name":"masked","address":"中央区野崎通3丁目3番3号","city":"神戸市","number":"9"}, 
 {"id":"c0130e37-5f18-4e3c-a3d1-ae3e1cef9745","lat":null,"long":null,"status":"not_yet","name":"東久代2児童遊園地金網","address":"東久代1丁目10番","city":"加西市","number":"143"}, 
 {"id":"c0143a1e-919e-43e3-b0dc-073168a88121","lat":34.66749300,"long":134.95739630,"status":"done","name":"西明石こだま西公園(北側フェンス)","address":"西明石西町2丁目2","city":"明石市","number":"188"}, 
 {"id":"c01736ef-20dc-41ca-b9ab-23715e305c6b","lat":34.67503160,"long":135.11013300,"status":"done","name":"地下鉄妙法寺駅東鉄柵","address":"須磨区横尾1丁目31番地","city":"神戸市","number":"159"}, 
 {"id":"c01cf1d2-d5e5-4e3d-8305-a845e0cae017","lat":34.82418120,"long":134.80570380,"status":"not_yet","name":"masked","address":"志方町西牧5-4地先(0007 西牧横大路線)","city":"加古川市","number":"487"}, 
 {"id":"c022673f-49ce-456a-9e80-09b0b011203e","lat":34.82063400,"long":135.21762290,"status":"done","name":"有野小学校南西石垣","address":"北区藤原台中町3丁目17番","city":"神戸市","number":"283"}, 
 {"id":"c0249c20-7d42-42d1-a8c4-2d6540cb90af","lat":34.65367450,"long":135.16842190,"status":"done","name":"吉田町中公園南西フェンス","address":"兵庫区吉田町2丁目18番","city":"神戸市","number":"218"}, 
 {"id":"c029629e-e0b9-455f-b95d-42c96562b965","lat":34.72705240,"long":135.44059750,"status":"done","name":"常光寺団地子ども広場 北側","address":"常光寺3-6常光寺団地子ども広場 北側","city":"尼崎市","number":"144"}, 
 {"id":"c029a596-9d6d-4b77-8d85-dfa85ff85ce8","lat":34.71662330,"long":134.87174140,"status":"not_yet","name":"待池さくせんポンプ場南側フェンス","address":"南野添1丁目22-1","city":"播磨町","number":"17"}, 
 {"id":"c02d3a94-336e-46cb-894c-80d29e152731","lat":34.73391210,"long":135.35804570,"status":"done","name":"ネオレジデンス前ガードパイプ","address":"津門大箇町 13番28号","city":"西宮市","number":"174"}, 
 {"id":"c0302e60-f2c5-472d-b5ef-ff90f217aeca","lat":34.99652070,"long":134.96946160,"status":"not_yet","name":"フレグランスモア北側市道柵","address":"郷瀬町545-2","city":"西脇市","number":"31"}, 
 {"id":"c030405e-6c2d-4c94-84db-7a6d13582188","lat":34.28678310,"long":134.94445330,"status":"not_yet","name":"由良公民館南側フェンス","address":"由良一丁目６番１０号","city":"洲本市","number":"114"}, 
 {"id":"c036d19f-525d-4b4c-be02-ab6ff01c3f55","lat":34.69134130,"long":134.98118120,"status":"not_yet","name":"バス停寺谷(降車場)付近","address":"西区樫谷町寺谷269番地の1","city":"神戸市","number":"133"}, 
 {"id":"c03af4a2-26ec-449b-a268-4b8eb20dea71","lat":35.00622620,"long":134.97084860,"status":"done","name":"日野団地市住543号前市道柵","address":"日野町","city":"西脇市","number":"36"}, 
 {"id":"c03b693c-ed65-49f3-a472-2be954e214be","lat":34.72976410,"long":135.13887520,"status":"done","name":"鈴蘭台第1団地1号棟東側金網","address":"北区北五葉7丁目1番1号","city":"神戸市","number":"129"}, 
 {"id":"c0412b83-74e5-4298-a9ac-4fc0a86865ec","lat":34.71770810,"long":135.27387470,"status":"done","name":"川井公園北東鉄柵","address":"東灘区魚崎北町2丁目7番","city":"神戸市","number":"147"}, 
 {"id":"c04890a3-d2f6-4a84-86fe-06aea38271c0","lat":34.68199710,"long":135.14499210,"status":"done","name":"「サンハイムKOBE」の向側ガードレール","address":"長田区長田天神町5丁目8番","city":"神戸市","number":"33"}, 
 {"id":"c049f451-d5dd-45f3-8902-e14bbd3c2932","lat":34.80923770,"long":134.96968220,"status":"not_yet","name":"イオン三木店南側金柵","address":"大村","city":"三木市","number":"150"}, 
 {"id":"c04cfb8f-44fd-4a80-91b7-ba512ed3b135","lat":34.73643020,"long":135.38922760,"status":"done","name":"県営尼崎今北団地２号棟　東側","address":"稲葉元町3-8県営尼崎今北団地2号棟 東側","city":"尼崎市","number":"244"}, 
 {"id":"c057ca2f-9c9f-4cea-9aa2-bbee8cf468f5","lat":34.91003100,"long":134.80112600,"status":"not_yet","name":"山下中町公会堂敷地","address":"山下中町","city":"加西市","number":"54"}, 
 {"id":"c05a4d66-2ef0-4766-ad98-40d2a4e03383","lat":34.72677140,"long":135.29211160,"status":"done","name":"東灘本庄郵政宿舎金網","address":"東灘区本庄町2丁目8番27号","city":"神戸市","number":"35"}, 
 {"id":"c063dfa6-67f6-458a-b561-fa6b46cad5fc","lat":34.75827260,"long":135.33180900,"status":"done","name":"阪神バス停甲陽園若江町　阪急フェンス","address":"甲陽園若江町1番","city":"西宮市","number":"118"}, 
 {"id":"c06d7a62-ee0e-4e32-af76-2e2ca0acf7c2","lat":35.40725080,"long":134.77164790,"status":"done","name":"下町公民館前 YBファブバラス駐車場に設置","address":"八鹿町八鹿759-3","city":"養父市","number":"23"}, 
 {"id":"c0720edd-d62c-4200-89f4-bedd5b418368","lat":34.71166540,"long":134.92300020,"status":"not_yet","name":"バス停秋田(田井方面)付近","address":"西区岩岡町古郷2793番地の1","city":"神戸市","number":"351"}, 
 {"id":"c077fcea-a3f5-42ce-8e1c-dee32e661f06","lat":34.33375200,"long":134.91287200,"status":"not_yet","name":"サントピアマリーナテニスコート付近","address":"小路谷1273番地1","city":"洲本市","number":"149"}, 
 {"id":"c07818a8-f7f2-46e3-a048-42f345562ef1","lat":34.71916320,"long":134.92620410,"status":"not_yet","name":"福吉東公園付近","address":"西区福吉台1丁目22番地","city":"神戸市","number":"352"}, 
 {"id":"c080a9d2-6fbe-4cca-8820-38a025764cf7","lat":34.75276270,"long":135.31676850,"status":"done","name":"苦楽園公園東側入口北","address":"樋之池町 19番","city":"西宮市","number":"95"}, 
 {"id":"c0837155-3e64-468c-adcf-bf9a6b17b526","lat":34.84549430,"long":134.45003750,"status":"done","name":"下頃バス停付近","address":"矢野町下田","city":"相生市","number":"106"}, 
 {"id":"c0879434-7a1c-4e4b-843c-1aea105b4d01","lat":34.66756770,"long":135.15541410,"status":"done","name":"「市営二番町住宅」南側のガードレール","address":"長田区二番町3丁目1番地","city":"神戸市","number":"102"}, 
 {"id":"c098832e-b7a2-4332-8050-755df6ff54f5","lat":34.77548610,"long":135.31332080,"status":"done","name":"鷲林寺会館南ガードレール","address":"鷲林寺1丁目 2番","city":"西宮市","number":"106"}, 
 {"id":"c09c077d-257f-4aa3-b2cf-1f1a34542ef7","lat":34.25779450,"long":134.72123300,"status":"done","name":"旧市役所南淡庁舎跡地北東側 道路柵","address":"福良甲512","city":"南あわじ市","number":"4-18"}, 
 {"id":"c09f0a59-b81d-4b4e-a57c-eb8c624bbeb4","lat":34.96263500,"long":134.84529600,"status":"not_yet","name":"下道山町公民館前農村公園側歩道ガードパイプ","address":"下道山町","city":"加西市","number":"205"}, 
 {"id":"c09fe7b7-f141-4e01-9525-0cf02252d841","lat":34.78863064,"long":134.80532180,"status":"not_yet","name":"かんな児童公園の南側（植栽）","address":"高砂市神爪5丁目4","city":"高砂市","number":"20-4"}, 
 {"id":"c0a183f1-1ae0-4e7a-9ff4-9aacd928c025","lat":34.74452910,"long":134.82397160,"status":"done","name":"尾上市民センター駐車場植込み","address":"尾上町長田419-1","city":"加古川市","number":"250"}, 
 {"id":"c0a69a9d-0a40-4799-bf3e-cf57ca718e4c","lat":35.08034500,"long":135.04787790,"status":"done","name":"久下アフタースクール　フェンス","address":"山南町長野","city":"丹波市","number":"管理番号230山南12"}, 
 {"id":"c0a6f380-5666-4d17-aa30-37a7523c25ea","lat":34.74782600,"long":134.87707500,"status":"not_yet","name":"北芳苑西側市道ガードレール","address":"平岡町新在家(04-2686　新在家34号線)","city":"加古川市","number":"245"}, 
 {"id":"c0adb9f5-76d3-47b6-98c2-d5ac486faa18","lat":34.76406650,"long":135.32725960,"status":"done","name":"西山第1公園 北側フェンス","address":"甲陽園西山町4番","city":"西宮市","number":"122"}, 
 {"id":"c0ae98d9-e313-4111-90d6-fc0de2e2f08f","lat":35.33978320,"long":134.85234830,"status":"not_yet","name":"masked","address":"久世田","city":"朝来市","number":"79"}, 
 {"id":"c0afe0d0-b6ed-4e31-b1bd-49d0ac40910b","lat":34.66305760,"long":135.03658800,"status":"not_yet","name":"寒風池西ガードレール","address":"垂水区神陵台7丁目13番","city":"神戸市","number":"130"}, 
 {"id":"c0afeece-32a5-4d2d-912b-5f1d8d8c2abb","lat":34.85752880,"long":134.72034670,"status":"not_yet","name":"保城西公園南側フェンス","address":"保城686","city":"姫路市","number":"164"}, 
 {"id":"c0b8cda0-f973-4d3d-b627-9d3e24d620a4","lat":34.74913410,"long":135.40107630,"status":"done","name":"masked","address":"masked","city":"尼崎市","number":"304"}, 
 {"id":"c0c29d16-6636-4693-a4c3-eb85f208e64e","lat":34.74892170,"long":135.33856050,"status":"done","name":"神垣南公園東","address":"神垣町 5番","city":"西宮市","number":"160"}, 
 {"id":"c0da54b7-8e5e-4510-bee8-6abfa529cf2a","lat":35.55098770,"long":134.56614310,"status":"not_yet","name":"masked","address":"村岡区原410-7","city":"香美町","number":"121"}, 
 {"id":"c0df74e9-53dd-4740-a3f5-092c0958a301","lat":34.65441420,"long":135.14016870,"status":"done","name":"「NA日吉パーキング」前のガードレール","address":"長田区日吉町4丁目7番","city":"神戸市","number":"178"}, 
 {"id":"c0e39897-a3da-4944-af4d-a8e577afbbff","lat":35.08806890,"long":135.09422220,"status":"done","name":"下滝駅前広場（県道篠山山南線沿）","address":"篠山山南線","city":"丹波市","number":"管理番号222山南4"}, 
 {"id":"c0e5ec87-5ad2-42dd-9927-4602ae48250e","lat":34.99416350,"long":135.15178950,"status":"not_yet","name":"masked","address":"草野","city":"丹波篠山市","number":"48-7"}, 
 {"id":"c0e72277-569a-4111-ab8e-6e82ef088a6b","lat":35.49932740,"long":134.84997960,"status":"not_yet","name":"県道歩道ガードフェンス（作業場北隣）","address":"出石町安良148-7地先県道歩道ガ-ドフェンス(作業場北隣)","city":"豊岡市","number":"388"}, 
 {"id":"c0f46752-650c-4d18-a10d-71fd7234edd6","lat":34.71565900,"long":135.25511650,"status":"done","name":"御影クラッセ西側ガードレール","address":"東灘区御影中町3丁目2番1号","city":"神戸市","number":"227"}, 
 {"id":"c0fb35b4-aad6-4299-95d1-9e55f23a7c31","lat":35.38463880,"long":134.71338790,"status":"done","name":"上八木構造改善センター階段（玄関手すり）","address":"八鹿町八木2857","city":"養父市","number":"63"}, 
 {"id":"c102f1cb-5fe9-4640-b01f-1cccba5c9865","lat":35.65791340,"long":134.71768020,"status":"not_yet","name":"民宿ぬまた駐車場","address":"香住区相谷143-1","city":"香美町","number":"77"}, 
 {"id":"c107cddf-d63a-466a-8d70-bc3863ccba5d","lat":34.90080000,"long":135.22856000,"status":"not_yet","name":"三輪　城山公園入口左側（後川上線看板横）フェンス","address":"三輪 城山公園入口左側(後川上線看板横)フェンス","city":"三田市","number":"20"}, 
 {"id":"c10f32f4-d5d4-4673-a7de-5669998e0885","lat":34.66357030,"long":134.97252530,"status":"done","name":"市道(サンライフ西明石2号棟北側)","address":"西明石町2丁目6","city":"明石市","number":"176"}, 
 {"id":"c112003b-e341-4c2b-bb06-ad00962a90f2","lat":34.73273240,"long":134.85171890,"status":"not_yet","name":"県道姫路・明石自転車道新幹線高架下フェンス","address":"別府町別府","city":"加古川市","number":"306"}, 
 {"id":"c11650a7-43c9-4f77-b203-672fb4a0ea38","lat":34.80786460,"long":135.36124370,"status":"done","name":"宝楽橋南西ガードフェンス","address":"宝塚市向月町18","city":"宝塚市","number":"35-05"}, 
 {"id":"c12a0b16-e122-4436-b2d3-16bfaee52eb3","lat":34.81152830,"long":134.46713800,"status":"done","name":"いきがい交流センターフェンス","address":"那波本町","city":"相生市","number":"63"}, 
 {"id":"c130eb9b-fef1-42d9-8241-cc988ebf1d7e","lat":34.39921660,"long":134.88468030,"status":"not_yet","name":"里会館フェンス","address":"里210","city":"淡路市","number":"1"}, 
 {"id":"c131347b-120a-4d2b-823e-9d86f64c71aa","lat":34.72282250,"long":134.93700980,"status":"not_yet","name":"寺講市民公園付近","address":"西区岩岡町野中1435番地","city":"神戸市","number":"346"}, 
 {"id":"c1345940-7037-4c35-ba8a-ca257d0d8120","lat":34.80567070,"long":135.39980860,"status":"done","name":"大野なでしこ児童遊園地南側フェンス","address":"大野1丁目","city":"伊丹市","number":"305"}, 
 {"id":"c1353b9b-d589-4117-8c53-66d3ebdfc0f5","lat":34.88319600,"long":134.84878500,"status":"not_yet","name":"東野田町公民館西側ガードレール","address":"東野田町","city":"加西市","number":"78"}, 
 {"id":"c13b7184-cb98-4a31-94d2-9f0394f0d82f","lat":35.48421520,"long":134.61570830,"status":"not_yet","name":"村岡地域局裏駐車場法面 国道482号沿い","address":"村岡区村岡400-1（川上）","city":"香美町","number":"151"}, 
 {"id":"c13bfe4d-4e07-4053-b349-174bc2b9405a","lat":34.78999960,"long":134.82438530,"status":"not_yet","name":"休ヶ坪南緑地北側植込","address":"東神吉町神吉823-63","city":"加古川市","number":"392"}, 
 {"id":"c13df4a5-d661-47a4-81c9-31eda764760c","lat":35.06529660,"long":135.22728630,"status":"done","name":"教職員住宅西川口良弘氏所有畑地","address":"北","city":"丹波篠山市","number":"43-1"}, 
 {"id":"c145203c-10d1-4b46-84f0-3f3cbc56c72e","lat":34.80221290,"long":135.39892670,"status":"done","name":"東野福祉会館　南側","address":"東野5丁目73番地","city":"伊丹市","number":"169"}, 
 {"id":"c1474707-3739-45d6-bdc6-34e73a5d1926","lat":34.71930730,"long":134.86984180,"status":"not_yet","name":"播磨中学校テニスコート西側フェンス","address":"南大中1丁目21-1","city":"播磨町","number":"18"}, 
 {"id":"c1476520-f1cb-4334-ac3f-8921f01e5f8f","lat":34.68411160,"long":135.09977450,"status":"done","name":"殿津谷公園南西入口柵","address":"須磨区東落合2丁目16番","city":"神戸市","number":"229"}, 
 {"id":"c14ca0dc-7499-437b-8ed2-ca937f6b222e","lat":34.82249910,"long":135.40967340,"status":"done","name":"川西市前川雨水ポンプ場金網","address":"栄根2丁目17番6号川西市前川雨水ポンプ場金網","city":"川西市","number":"89"}, 
 {"id":"c14eb7a1-a75c-4642-bec3-393989879d92","lat":35.12543400,"long":134.79027050,"status":"not_yet","name":"猪篠バス停北側　国道沿いフェンス","address":"猪篠","city":"神河町","number":"47"}, 
 {"id":"c14f674a-15f6-4f79-a49c-01e3f8b89a2b","lat":34.86623000,"long":134.71881100,"status":"done","name":"市営住宅西側フェンス","address":"砥堀428","city":"姫路市","number":"178"}, 
 {"id":"c153dd44-58c7-4ea2-802b-663906d8d48b","lat":34.73462570,"long":135.34377150,"status":"done","name":"与古道公園内南部分土手","address":"与古道町 4番","city":"西宮市","number":"8"}, 
 {"id":"c1562761-4347-4c0e-995a-8493f2f2efef","lat":34.74782600,"long":134.87707500,"status":"done","name":"県立農業高校西側フェンス","address":"平岡町新在家","city":"加古川市","number":"137"}, 
 {"id":"c15764b9-018b-4262-8c62-814dcd28d54e","lat":34.85177920,"long":135.40379640,"status":"done","name":"川西湯山台簡易郵便局前","address":"湯山台2丁目2番地の15川西湯山台簡易郵便局前","city":"川西市","number":"181"}, 
 {"id":"c15a1926-efa1-4f10-9916-3c878007bbaf","lat":34.80125030,"long":134.97376460,"status":"not_yet","name":"藤原産業（株）駐車場金柵（ユニクロ向側）","address":"末広３丁目","city":"三木市","number":"162"}, 
 {"id":"c15bfb9e-62ad-4ef6-b2f8-ec6edb04b92f","lat":35.28842120,"long":134.85729600,"status":"not_yet","name":"迫間区公民館前（電柱前）","address":"迫間","city":"朝来市","number":"227"}, 
 {"id":"c15c0b66-c5cf-4d48-9246-43b74bc30db6","lat":35.14218040,"long":135.15618140,"status":"done","name":"中山公民館付近　ガードレール","address":"春日町中山","city":"丹波市","number":"管理番号191春日32"}, 
 {"id":"c15f9348-4bf2-4508-ad60-a18f9815bd5e","lat":34.72389340,"long":135.30849840,"status":"done","name":"浜芦屋児童遊園(東側)","address":"浜芦屋町9-6地先","city":"芦屋市","number":"117"}, 
 {"id":"c1762339-412f-4655-a9c0-9bb1fdb7cdc1","lat":34.67100930,"long":135.21206000,"status":"done","name":"ポートビレッジ1号棟北側歩道橋柵","address":"中央区港島中町3丁目","city":"神戸市","number":"145"}, 
 {"id":"c1768601-f342-435e-8314-e72085ca6028","lat":34.91877050,"long":135.18415180,"status":"not_yet","name":"ゆりのき台６丁目　ゆりのき台下内神公園鉄柵","address":"ゆりのき台6丁目 ゆりのき台下内神公園鉄柵","city":"三田市","number":"95"}, 
 {"id":"c17ba6da-a180-4fc8-bf8e-a96328197f9b","lat":34.86115710,"long":135.38002640,"status":"error_wrong_place","name":"けやき坂公民館(敷地内玄関前)鉄柵","address":"けやき坂2丁目63番地の1けやき坂公民館(敷地内玄関前)鉄柵","city":"川西市","number":"232"}, 
 {"id":"c17da8cc-8343-4563-81e5-0e39728ad64c","lat":34.88491390,"long":135.20800480,"status":"not_yet","name":"武庫が丘４丁目　武庫小学校裏口フェンス付近","address":"武庫が丘4丁目 武庫小学校裏口フェンス付近","city":"三田市","number":"161"}, 
 {"id":"c182d169-4136-4629-b63b-ac01d5e5e60e","lat":34.78803520,"long":134.88254550,"status":"not_yet","name":"西条バス停横市道ガードレール","address":"神野町西条1077地先(0026 西条福留線)","city":"加古川市","number":"90"}, 
 {"id":"c18500ba-4787-4504-bd08-6d66f4676283","lat":34.78951670,"long":135.34810220,"status":"done","name":"千種3丁目22付近　宝塚ゴルフ場フェンス","address":"宝塚市千種3","city":"宝塚市","number":"47-01"}, 
 {"id":"c1886527-4716-40f2-b8af-c9f828695c09","lat":34.95373450,"long":134.74253940,"status":"not_yet","name":"セブンイレブン福崎高橋店（国道西ガードパイプ）","address":"西治620-7","city":"福崎町","number":"88"}, 
 {"id":"c1893458-8cab-4010-9bbd-7c9f0045c630","lat":34.89186410,"long":134.53724410,"status":"not_yet","name":"亀山会館広場東側植込(野立)","address":"新宮町下野田","city":"たつの市","number":"53"}, 
 {"id":"c18d367f-7fb6-4949-87b4-16765a293eea","lat":34.93231700,"long":134.83082500,"status":"done","name":"北条12区区長会管理駐車場フェンス","address":"北条町本町","city":"加西市","number":"5"}, 
 {"id":"c18ec609-1dcb-4411-a2d0-9587d36aca47","lat":34.85541130,"long":134.92767050,"status":"not_yet","name":"王子町交差点　市道201号線防護柵","address":"王子町103地先","city":"小野市","number":"21-143"}, 
 {"id":"c192be83-5fe2-4bf4-b7c8-7a098c3e8b99","lat":34.81396370,"long":135.35720550,"status":"error_wrong_place","name":"売布橋西詰めガードフェンス","address":"宝塚市売布3-20","city":"宝塚市","number":"50-01"}, 
 {"id":"c196f3a2-1583-4024-90a2-d32ca09f3437","lat":34.65881780,"long":135.13505360,"status":"done","name":"地下鉄板宿駅南4号出口前鉄柵","address":"須磨区戎町3丁目5番","city":"神戸市","number":"89"}, 
 {"id":"c19a6154-821f-40da-aba2-d66b786c922b","lat":35.14235660,"long":135.33224930,"status":"not_yet","name":"藤坂公民館前植栽","address":"藤坂","city":"丹波篠山市","number":"25-3"}, 
 {"id":"c1ae848f-16d6-46cf-a4eb-12b9e312304c","lat":34.73127900,"long":135.36470410,"status":"done","name":"春風小学校西門南側","address":"上甲子園3丁目 8番39号","city":"西宮市","number":"300"}, 
 {"id":"c1b17df1-1fe6-43da-99ee-dd5de7fd5294","lat":34.81434530,"long":134.56502320,"status":"not_yet","name":"岩見構下公会堂広場","address":"岩見構341","city":"太子町","number":"27"}, 
 {"id":"c1c1169d-f1e7-4653-8490-e0be25f3dc9d","lat":34.78083090,"long":134.83595560,"status":"done","name":"益気神社西側玉垣前","address":"東神吉町出河原525-1地先","city":"加古川市","number":"402"}, 
 {"id":"c1c216ba-d777-4e82-a000-526e140af426","lat":34.45771160,"long":134.92520310,"status":"not_yet","name":"喫茶ブーケ前国道バイパス（上）五田池付近","address":"生穂","city":"淡路市","number":"69"}, 
 {"id":"c1c77b03-fbe6-47e2-b259-fc865ca9fbac","lat":null,"long":null,"status":"not_yet","name":"古宮公園鉄柵","address":"丸山台2丁目5番地121","city":"加西市","number":"321"}, 
 {"id":"c1d0141d-8488-4c3b-bc9f-04f8702b3e80","lat":35.30820400,"long":134.82162800,"status":"not_yet","name":"masked","address":"殿","city":"朝来市","number":"180"}, 
 {"id":"c1dcae4c-5d15-4281-a766-a815002b24f5","lat":35.09761500,"long":135.29658800,"status":"not_yet","name":"県守中コミバス停横県道路肩","address":"県守中","city":"丹波篠山市","number":"17-3"}, 
 {"id":"c1eb6c62-e129-4ff5-b0b5-69d92c5c4e34","lat":35.01631400,"long":134.38511710,"status":"not_yet","name":"口金近クラブ前 フェンス","address":"口金近５３２","city":"佐用町","number":"26"}, 
 {"id":"c1f8d88c-a6be-4bc2-ac59-40618d53df46","lat":34.76299370,"long":135.41009790,"status":"done","name":"若葉児童遊園地 南側柵","address":"安堂寺町2丁目46番地","city":"伊丹市","number":"106"}, 
 {"id":"c1fab5c4-8675-457e-a37a-361c67bc9a7c","lat":34.79415495,"long":134.78404470,"status":"not_yet","name":"生花店の東側（ｶﾞｰﾄﾞﾚｰﾙ）","address":"高砂市阿弥陀町北池243－１地先","city":"高砂市","number":"21-6"}, 
 {"id":"c1fbbc3a-b09b-4e15-8f1c-0bfc8a2fb9c4","lat":35.07537250,"long":134.58679660,"status":"not_yet","name":"嶋田消防詰所北　ブロック塀","address":"一宮町嶋田123","city":"宍粟市","number":"141"}, 
 {"id":"c20d6bf9-f9e9-41f6-938c-f7779a867551","lat":35.06816530,"long":135.13541890,"status":"done","name":"やすらぎ園入口付近県道フェンス","address":"味間奥","city":"丹波篠山市","number":"41-7"}, 
 {"id":"c2164628-34b0-4afd-98cc-796c80e98971","lat":34.98551150,"long":134.43698830,"status":"not_yet","name":"佐用町役場三日月支所前","address":"三日月１１１０−１","city":"佐用町","number":"124"}, 
 {"id":"c217981c-bcd4-474b-bbda-b1e3bae3822b","lat":34.75506340,"long":135.34883630,"status":"done","name":"県営愛宕山鉄筋５号棟南公園東側フェンス","address":"愛宕山14番","city":"西宮市","number":"364"}, 
 {"id":"c21ce8cf-f657-4163-9bd8-c1dc90e43b9b","lat":34.91916480,"long":134.55254750,"status":"not_yet","name":"南尾花橋北側市道端(野立)","address":"新宮町上筋原","city":"たつの市","number":"10"}, 
 {"id":"c22275c1-32d4-4f78-ba8b-9c74a362f0a4","lat":34.88867000,"long":135.19010550,"status":"not_yet","name":"富士が丘３丁目　富士中学校グラウンド金網（南側）","address":"富士が丘3丁目 富士中学校グラウンド金網(南側)","city":"三田市","number":"199"}, 
 {"id":"c2298f0c-bf48-4ab9-92ae-38b88b98bed6","lat":35.37435660,"long":134.76712110,"status":"done","name":"ライフステージ21 市道十二所線側","address":"十二所268-37","city":"養父市","number":"97"}, 
 {"id":"c22bd9d6-620e-46ea-9eee-2a3cc21087d2","lat":34.87288180,"long":135.38825790,"status":"done","name":"清和台中央公園(西側)金網","address":"清和台東3丁目1番地の3清和台中央公園(西側)金網","city":"川西市","number":"243"}, 
 {"id":"c22cbd54-6336-4d22-95ba-2df72aaf3c51","lat":35.48755980,"long":134.69535520,"status":"not_yet","name":"清滝地区コミュニティセンター自転車庫東側植栽","address":"日高町山宮1337-1清滝地区コミュニティセンタ-自転車庫東側植栽","city":"豊岡市","number":"322"}, 
 {"id":"c22e39c4-e384-4175-9a29-cde767d07b7d","lat":34.66876380,"long":135.16728850,"status":"done","name":"masked","address":"兵庫区浜崎通5番","city":"神戸市","number":"239"}, 
 {"id":"c231491d-f939-418e-a405-e13950e1a146","lat":34.73371870,"long":135.30393290,"status":"done","name":"松ノ内緑地内(北側)","address":"松ノ内町1番","city":"芦屋市","number":"48"}, 
 {"id":"c23cf832-be33-4f9b-adb6-5dba7b739d63","lat":34.81609960,"long":135.32278410,"status":"done","name":"高雄台北公園内","address":"生瀬高台6番","city":"西宮市","number":"493"}, 
 {"id":"c23e2c22-29ad-45f6-9214-1a361558b874","lat":34.77563660,"long":134.98717570,"status":"not_yet","name":"ローレルハイツ北神戸西側入口付近","address":"別所町小林","city":"三木市","number":"100"}, 
 {"id":"c23e3821-f152-4010-8a5a-900fc4dfda17","lat":35.54172620,"long":134.82206900,"status":"not_yet","name":"豊岡小学校西側ハヤカワ向いフェンス","address":"中央町16-5豊岡小学校西側ハヤカワ向いフェンス","city":"豊岡市","number":"3"}, 
 {"id":"c240149f-a07a-46f5-ad11-a3525f49fac5","lat":34.65078710,"long":135.03104690,"status":"done","name":"神戸光生園西側道路鉄柵","address":"垂水区南多聞台8丁目23番","city":"神戸市","number":"162"}, 
 {"id":"c256dff7-4d59-4d7d-9fc0-e4fea46c7b93","lat":34.71568390,"long":135.24391830,"status":"done","name":"大和公園西入口南側柵","address":"灘区中郷町5丁目1番","city":"神戸市","number":"46"}, 
 {"id":"c25cad6f-1148-4fb1-9ed3-1e6aa750c8ac","lat":34.72207860,"long":135.13340500,"status":"not_yet","name":"南五葉小学校北東角歩道橋下ガードレール","address":"北区南五葉3丁目1番1号","city":"神戸市","number":"134"}, 
 {"id":"c2606cd6-cb6b-4f8e-8787-7590e936d260","lat":35.32910440,"long":134.90671570,"status":"done","name":"野間集落センター前畑","address":"野間","city":"朝来市","number":"210"}, 
 {"id":"c261ee6d-b7bf-4b49-84ce-caa88d58a5f1","lat":34.94452300,"long":134.67837500,"status":"not_yet","name":"古知之庄バス停フェンス","address":"夢前町古知之庄364番地 地先","city":"姫路市","number":"701"}, 
 {"id":"c2624ba7-ec50-4554-9391-32c887d8e656","lat":34.72327830,"long":135.23929520,"status":"done","name":"高羽小学校東門横金網","address":"灘区高羽町3丁目11番","city":"神戸市","number":"12"}, 
 {"id":"c263d4a7-434a-41d3-9840-ad7703f32e99","lat":34.87985750,"long":135.09743810,"status":"not_yet","name":"渡瀬橋南詰東側歩道柵","address":"吉川町渡瀬","city":"三木市","number":"290"}, 
 {"id":"c2682e05-773b-4d64-a1f7-af453b3cdc47","lat":35.05021590,"long":134.92342480,"status":"done","name":"箕荷公会堂前花壇 (位置情報が見つかりませんでした)","address":"箕荷549-1","city":"多可町","number":"47"}, 
 {"id":"c26ae281-51c7-4586-98a1-fd5ea3845ee2","lat":34.67185380,"long":134.98162950,"status":"done","name":"サイクルベースアサヒ玉津店東側付近","address":"西区持子3丁目19番地の1","city":"神戸市","number":"48"}, 
 {"id":"c26b8867-bee1-4a92-8356-78143c998b35","lat":34.98861680,"long":134.98017910,"status":"done","name":"リヴェール・ティ・タウン西側市道柵","address":"上野","city":"西脇市","number":"5"}, 
 {"id":"c270dbfb-3e17-493e-bdcd-eb7738d2ecad","lat":34.92501010,"long":135.06515900,"status":"not_yet","name":"黒谷地区ゲートボール場フェンス","address":"黒谷1206番地30","city":"加東市","number":"127"}, 
 {"id":"c2775fad-cbce-4522-b8a9-0f8e11759e1d","lat":34.72230590,"long":135.23153300,"status":"done","name":"向橋南東側ガードパイプ","address":"灘区篠原北町1丁目1番","city":"神戸市","number":"186"}, 
 {"id":"c27d9b65-ee77-46ac-8d33-fa579c3d9ca8","lat":34.89280410,"long":135.30026620,"status":"not_yet","name":"西谷の森公園東の谷バス停向かいガードフェンス","address":"宝塚市境野字保与谷","city":"宝塚市","number":"23-02"}, 
 {"id":"c27e8a5d-7158-407a-b21e-c4565afb0a31","lat":34.74113260,"long":134.40875980,"status":"done","name":"御崎小学校西面柵","address":"御崎小学校西面柵","city":"赤穂市","number":"72"}, 
 {"id":"c280aea6-1428-43a8-b33b-fffc5c49ea4e","lat":34.71386700,"long":135.23935300,"status":"done","name":"JR六甲道駅南ロータリー西側転落防止柵","address":"灘区深田町4丁目1番","city":"神戸市","number":"51"}, 
 {"id":"c286c5fa-8f60-444b-b190-6fb109858524","lat":34.88044590,"long":135.39831980,"status":"not_yet","name":"水明台第7公園鉄柵","address":"水明台4丁目5番地の41水明台第7公園鉄柵","city":"川西市","number":"218"}, 
 {"id":"c28fd324-0398-4c98-b5d7-34b6bbe4fd7e","lat":34.72637160,"long":135.37901630,"status":"done","name":"市営小松北町１丁目住宅 南側","address":"小松北町１丁目 3番","city":"西宮市","number":"264"}, 
 {"id":"c294757c-1883-488e-b7d3-49da02357b13","lat":35.12375810,"long":135.29703970,"status":"not_yet","name":"上筱見ゲートボール場横空き地","address":"上筱見","city":"丹波篠山市","number":"30-2"}, 
 {"id":"c29b2c14-8536-4f5e-9d3b-03de464a6004","lat":34.74945830,"long":135.30787750,"status":"done","name":"市立芦屋病院北側バス停付近","address":"朝日ケ丘町39-1","city":"芦屋市","number":"16"}, 
 {"id":"c29bacc7-3849-4bdd-97f0-65a1f23c82c6","lat":35.43436450,"long":134.59933770,"status":"not_yet","name":"宿区集会所 斜め前 ガードレール","address":"村岡区宿241","city":"香美町","number":"180"}, 
 {"id":"c29bcdda-e1ee-4e43-9c31-75c64e4a1b72","lat":34.82433320,"long":135.22260070,"status":"done","name":"西岡場霊園南歩道鉄柵","address":"北区藤原台北町1丁目3番","city":"神戸市","number":"288"}, 
 {"id":"c2a0f88f-6326-4afb-85e5-dfea25bb17c4","lat":35.60486920,"long":134.80852280,"status":"not_yet","name":"市道永長線ガードパイプ（市営結1号住宅前）","address":"城崎町結152-5市道永長線ガ-ドパイプ(市営結1号住宅前)","city":"豊岡市","number":"181"}, 
 {"id":"c2a34808-bc65-402f-808a-9f059f96bd8a","lat":34.72306690,"long":135.29036760,"status":"done","name":"白鴎橋東側金網","address":"東灘区深江北町4丁目5番","city":"神戸市","number":"29"}, 
 {"id":"c2a5f872-23e2-43d7-9f3c-1b2df2c5b4b4","lat":34.87154390,"long":135.41056890,"status":"done","name":"緑台公民館","address":"向陽台1丁目6番地の38緑台公民館","city":"川西市","number":"206"}, 
 {"id":"c2a69dca-d84d-4259-a377-bc940e38306b","lat":34.66132410,"long":134.99894490,"status":"error_wrong_place","name":"井出北公園付近","address":"西区伊川谷町潤和1800番地","city":"神戸市","number":"130"}, 
 {"id":"c2ae5d73-6686-4dd4-952b-58c95dfb9feb","lat":34.65347220,"long":135.04849490,"status":"done","name":"「本多聞中学校前」バス停横ガードレール","address":"垂水区本多聞5丁目1番","city":"神戸市","number":"220"}, 
 {"id":"c2af6d19-60f2-4ae9-9213-cbadf7a69185","lat":34.82288190,"long":134.68653210,"status":"done","name":"東延末公園西側","address":"東延末二丁目167","city":"姫路市","number":"373"}, 
 {"id":"c2b1cc55-66d5-4cf8-ae20-24a71094c567","lat":34.73371830,"long":135.31889590,"status":"done","name":"春日公園(東側)","address":"春日町13番","city":"芦屋市","number":"61"}, 
 {"id":"c2b75773-ffc2-4214-91a8-1d69b63cf974","lat":34.65301940,"long":135.17082860,"status":"done","name":"吉田町東公園南側柵","address":"兵庫区吉田町1丁目2番","city":"神戸市","number":"217"}, 
 {"id":"c2bccfdd-2541-4a47-ae71-6c68682df168","lat":35.00266430,"long":134.81162110,"status":"not_yet","name":"masked","address":"下牛尾882の1先","city":"市川町","number":"46"}, 
 {"id":"c2bd8e0c-9cf3-4a33-8296-85318975b784","lat":34.79875410,"long":134.62936590,"status":"done","name":"(株)吉田組駐車場西側","address":"広畑区正門通三丁目8","city":"姫路市","number":"520"}, 
 {"id":"c2bffd36-8d24-4e8b-b56b-988d91fad9ea","lat":34.79774140,"long":134.67208010,"status":"done","name":"飾磨小学校北東側","address":"飾磨区恵美酒22","city":"姫路市","number":"436"}, 
 {"id":"c2c126d0-4097-49ec-883f-30349df2eb34","lat":34.71228960,"long":135.29749960,"status":"done","name":"東部市場花キ部北西金網","address":"東灘区深江浜町2番地","city":"神戸市","number":"6"}, 
 {"id":"c2c6c955-56dd-448c-8c84-1cf89069e592","lat":34.72467770,"long":135.28472270,"status":"error_wrong_place","name":"中野南公園北側鉄柵","address":"東灘区本山南町7丁目1番","city":"神戸市","number":"284"}, 
 {"id":"c2cc241f-3eac-498c-8cec-e3d7672f0c30","lat":34.90153900,"long":134.70980800,"status":"not_yet","name":"奥須加院防災無線付近","address":"香寺町須加院1269番地1　地先","city":"姫路市","number":"787"}, 
 {"id":"c2cd59b7-272c-416b-b166-c31e01c92cd6","lat":34.90054600,"long":135.19122190,"status":"done","name":"すずかけ台２丁目　すずかけ台ハイツ２号棟入口金網","address":"すずかけ台2丁目 すずかけ台ハイツ2号棟入口金網","city":"三田市","number":"188"}, 
 {"id":"c2d20ff9-045b-48bf-8b04-6521a2d61089","lat":null,"long":null,"status":"not_yet","name":"市営加茂桃源団地1号棟前","address":"加茂4丁目8番1号","city":"加西市","number":"106"}, 
 {"id":"c2d8ca37-f9e4-494e-b179-d91761b4620c","lat":34.65063480,"long":135.13249620,"status":"done","name":"妙法寺川左岸公園西側ガードレール","address":"須磨区大池町5丁目1番","city":"神戸市","number":"88"}, 
 {"id":"c2d91763-ca45-4de3-a8c9-e3a89972fa2f","lat":34.83032520,"long":135.28502950,"status":"done","name":"名塩平成台東公園","address":"名塩平成台43番","city":"西宮市","number":"515"}, 
 {"id":"c2db2be7-a167-4652-88a1-c503a38384b2","lat":34.88700870,"long":135.42485490,"status":"done","name":"大和第3公園(北側)鉄柵","address":"大和東1丁目56番地大和第3公園(北側)鉄柵","city":"川西市","number":"277"}, 
 {"id":"c2dc05fa-d262-4158-9fae-e03255837bcd","lat":35.63173750,"long":134.81681200,"status":"not_yet","name":"旭町市有地(関電前)","address":"城崎町桃島1291-1旭町市有地(関電前)","city":"豊岡市","number":"167"}, 
 {"id":"c2e187ec-80a4-4c61-a518-800c0c8326e7","lat":34.62516210,"long":135.05021090,"status":"done","name":"三井アウトレットパークマリンピア神戸北側フェンス 西側","address":"垂水区海岸通12番","city":"神戸市","number":"77"}, 
 {"id":"c2e7a4de-40ac-4b85-8c5c-19b03d170966","lat":34.89567500,"long":134.83577700,"status":"not_yet","name":"ポンプ庫南側","address":"大村町","city":"加西市","number":"86"}, 
 {"id":"c2ebfa1b-8035-43ab-9cf1-613cdb5b7538","lat":34.92186910,"long":134.97434770,"status":"done","name":"木梨運動公園フェンス","address":"木梨800番地","city":"加東市","number":"64"}, 
 {"id":"c2f0724f-aafd-4f39-a102-242a273ca702","lat":34.77051380,"long":135.40715790,"status":"done","name":"南菱公園 南側柵","address":"南鈴原3丁目42番地","city":"伊丹市","number":"48"}, 
 {"id":"c2f214be-f3e1-413f-aa5d-6a1323ab00b1","lat":34.82811120,"long":135.22626130,"status":"done","name":"けちばかすが公園北側自治会掲示板横鉄柵","address":"北区有野中町3丁目1番","city":"神戸市","number":"298"}, 
 {"id":"c2f2f325-13c1-4ef8-a929-9851240f1711","lat":34.78558860,"long":135.39877190,"status":"done","name":"千僧浄水場　東側水路鉄柵","address":"広畑6丁目1番地1地先","city":"伊丹市","number":"241"}, 
 {"id":"c2f39e15-b5cb-4b3e-a617-8463a696b324","lat":35.56638600,"long":134.78514900,"status":"not_yet","name":"新堂会館駐車場西側東向きに","address":"新堂290新堂会館駐車場西側東向きに","city":"豊岡市","number":"94"}, 
 {"id":"c2fc109b-32d6-4e2b-8747-42e3c3ef65de","lat":35.00522420,"long":135.14711160,"status":"not_yet","name":"masked","address":"油井","city":"丹波篠山市","number":"48-3"}, 
 {"id":"c2fd551b-7ffe-4045-9916-05d20453dc43","lat":34.79716770,"long":135.38602410,"status":"done","name":"市営鴻池南住宅 南側金網","address":"鴻池3丁目9番3号","city":"伊丹市","number":"184"}, 
 {"id":"c2fdb112-9647-4691-857a-84fbf762ed1c","lat":34.74194840,"long":135.37145110,"status":"done","name":"メゾン甲子園西前水路フェンス","address":"二見町14番","city":"西宮市","number":"329"}, 
 {"id":"c300b260-311c-44a5-b463-9536906d10e3","lat":35.56595330,"long":134.68872970,"status":"not_yet","name":"小林優子氏所有地（畑）","address":"竹野町大森291小林優子氏所有地(畑)","city":"豊岡市","number":"197"}, 
 {"id":"c300ed2b-9ea6-4d79-b57c-d3c3e4becb49","lat":34.72857820,"long":134.88912610,"status":"not_yet","name":"緑が丘団地進入路附近加古川バイパス側道","address":"平岡町土山","city":"加古川市","number":"203"}, 
 {"id":"c30852e1-6ca8-45db-ae40-59eb0d17549c","lat":35.65096430,"long":134.64480500,"status":"not_yet","name":"旧香住高校若潮寮フェンス 消防器具箱横","address":"香住区境455-3","city":"香美町","number":"2"}, 
 {"id":"c30b7e29-39d3-49b7-9b72-e221caac669e","lat":null,"long":null,"status":"not_yet","name":"西多田大橋下ガードレール","address":"錦松台25番","city":"加西市","number":"187"}, 
 {"id":"c30d734c-f747-4f10-9319-73b6fcfd310e","lat":35.45359000,"long":134.72670390,"status":"done","name":"篠垣堂","address":"日高町篠垣106篠垣堂","city":"豊岡市","number":"300"}, 
 {"id":"c3160277-82b4-4364-a258-76d3a6e3210d","lat":34.71770810,"long":135.27387470,"status":"done","name":"横屋会館鉄柵","address":"東灘区魚崎北町2丁目7番","city":"神戸市","number":"148"}, 
 {"id":"c3167767-df16-4261-b737-813b7b9b5376","lat":34.93090100,"long":134.68644700,"status":"not_yet","name":"置塩サービスセンター東側 ガードフェンス","address":"夢前町糸田609番地1 地先","city":"姫路市","number":"700"}, 
 {"id":"c31ab424-e878-4c4a-9131-5db46a9b0877","lat":34.33141830,"long":134.86138800,"status":"not_yet","name":"masked","address":"宇原130番地33付近","city":"洲本市","number":"141"}, 
 {"id":"c31e2a83-c789-479d-80e2-df9de6723eab","lat":34.73311920,"long":135.23036140,"status":"done","name":"コミュニティ篠原台前道路ガードレール","address":"灘区篠原台5番","city":"神戸市","number":"136"}, 
 {"id":"c32b25db-8d6e-476a-96ec-98ce5fb3025d","lat":34.73652240,"long":135.31084530,"status":"done","name":"阪急バス上宮川橋バス停付近","address":"親王塚町8-8地先","city":"芦屋市","number":"42"}, 
 {"id":"c332dcb3-d8f4-48bb-a9e8-ebb76da5bf5d","lat":34.74607770,"long":135.40414950,"status":"done","name":"南武庫之荘ゴルフセンター・ゴルフ場　北側水路鉄柵","address":"上ノ島町1-14-3 地先南武庫之荘ゴルフセンタ-・ゴルフ場 北側水路鉄柵","city":"尼崎市","number":"308"}, 
 {"id":"c342e1e8-ea4d-4005-9692-ec211596f842","lat":34.84401440,"long":134.69958720,"status":"done","name":"野里の花園フェンス","address":"河間町42-3","city":"姫路市","number":"18"}, 
 {"id":"c3516f99-916e-40e5-bcd9-20a1fc82c865","lat":34.80249390,"long":135.34590010,"status":"done","name":"南口1-8-26　宝塚ﾒﾃﾞｨｶﾙｽｸｴｱ向かいフェンス","address":"宝塚市南口1-7","city":"宝塚市","number":"17-02"}, 
 {"id":"c3551507-99f8-4174-8ad5-538a32f047fb","lat":34.29259920,"long":134.75416200,"status":"not_yet","name":"新公会堂前ブロック塀","address":"市新340","city":"南あわじ市","number":"3-37"}, 
 {"id":"c3555088-d334-4ce8-9710-971e0214ba62","lat":35.49801590,"long":134.96500110,"status":"not_yet","name":"木村公民館","address":"但東町木村470木村公民館","city":"豊岡市","number":"425"}, 
 {"id":"c35d9191-142f-4d58-acb3-3c2ee03abcbf","lat":34.55291510,"long":135.00347750,"status":"done","name":"婦人の家横公園フェンス","address":"大磯１６号線","city":"淡路市","number":"237"}, 
 {"id":"c35ea314-199f-4c40-9201-26ff0fc983da","lat":34.92884100,"long":134.65707400,"status":"not_yet","name":"チェリーランド入口南 ガードフェンス","address":"夢前町寺1332番地1 地先","city":"姫路市","number":"747"}, 
 {"id":"c36225bc-6680-4a4c-bd1d-6de11fbec360","lat":34.78360690,"long":135.42950680,"status":"done","name":"県営伊丹西桑津住宅　西側金網","address":"桑津1丁目2番街区","city":"伊丹市","number":"302"}, 
 {"id":"c369c50d-7991-48d4-bd31-f0539e3d6876","lat":null,"long":null,"status":"not_yet","name":"鴬の森第2公園（西側）金網","address":"鴬台1丁目202","city":"加西市","number":"60"}, 
 {"id":"c36c8986-af95-47be-bfe9-610e5e75a98c","lat":34.71894810,"long":135.35305460,"status":"done","name":"南甲子園小学校東側","address":"南甲子園３丁目 9番16号","city":"西宮市","number":"200"}, 
 {"id":"c36e1019-16f1-4cad-b388-420fe21e5cac","lat":34.99687070,"long":135.26654640,"status":"not_yet","name":"小柿バス停バス方転地向側法面野立て","address":"小柿バス停バス方転地向側法面野立て","city":"三田市","number":"103"}, 
 {"id":"c372214f-7a9f-498f-ab3a-d39972e680a5","lat":34.67349420,"long":135.08381460,"status":"done","name":"市バス菅の台1丁目バス停南向鉄柵","address":"須磨区菅の台4丁目6番地","city":"神戸市","number":"268"}, 
 {"id":"c37552a5-73c0-40ac-9cb1-2b8d18c60a9f","lat":34.65176260,"long":135.07729170,"status":"done","name":"桃山台南口バス転回場東鉄柵","address":"垂水区桃山台2丁目12番","city":"神戸市","number":"249"}, 
 {"id":"c381c524-4283-4f68-bf8c-eee4952a3746","lat":35.26082920,"long":134.78735450,"status":"not_yet","name":"上八代寺の下広場フェンス","address":"上八代","city":"朝来市","number":"126"}, 
 {"id":"c388cedb-64c8-474d-aca3-cdbce2c0a4f8","lat":34.82694930,"long":135.39995560,"status":"error_wrong_place","name":"もみじ橋欄干","address":"宝塚市雲雀丘2-4","city":"宝塚市","number":"25-03"}, 
 {"id":"c392aec4-4ef0-44a2-a801-bd5f8bc6818b","lat":34.72886500,"long":135.43236800,"status":"done","name":"清和小学校 南側","address":"長洲本通1-8-1清和小学校 南側","city":"尼崎市","number":"136"}, 
 {"id":"c3955e24-e142-4c86-b6f8-65ce1c50f058","lat":34.74226220,"long":134.98867990,"status":"not_yet","name":"JA兵庫六甲神出支店前付近","address":"西区神出町田井459番地の1","city":"神戸市","number":"317"}, 
 {"id":"c39814a7-5c0d-4680-8f39-4696f6f38017","lat":34.69070010,"long":134.90241590,"status":"done","name":"住吉2丁目中公園(東南側フェンス)","address":"魚住町住吉2丁目16","city":"明石市","number":"430"}, 
 {"id":"c398449c-432a-4d15-a44d-b5994bef0855","lat":34.69438990,"long":135.19354420,"status":"done","name":"阪急高架下鉄柵","address":"中央区加納町4丁目2番","city":"神戸市","number":"130"}, 
 {"id":"c3a144c8-2a85-4f94-b7b5-6522b37b36a7","lat":34.89663390,"long":134.39372070,"status":"not_yet","name":"町道（バス停横、本村橋 東）","address":"野桑592-1付近","city":"上郡町","number":"47"}, 
 {"id":"c3a4f00a-3a29-49bc-85f8-7002c601a191","lat":34.78093764,"long":134.80402550,"status":"not_yet","name":"米田西小学校正門付近（ﾌｪﾝｽ）","address":"高砂市米田町塩市17－1","city":"高砂市","number":"19-3"}, 
 {"id":"c3a5df8a-9f01-429e-95cb-b1b7152c066b","lat":35.24250400,"long":134.82033560,"status":"not_yet","name":"大才防火水槽フェンス","address":"多々良木","city":"朝来市","number":"109"}, 
 {"id":"c3b40f01-9c90-4430-8387-c2c372598b20","lat":34.69607700,"long":135.20488780,"status":"error_wrong_place","name":"新生田川住宅21号棟東側フェンス","address":"中央区南本町通5丁目1番","city":"神戸市","number":"82"}, 
 {"id":"c3b5a2f6-f6d4-4363-8708-7fc1b4848088","lat":34.74429450,"long":134.84353210,"status":"not_yet","name":"鶴児童公園東側ブロック塀","address":"野口町長砂1320","city":"加古川市","number":"142"}, 
 {"id":"c3bf1b06-62eb-41b0-a902-f51d51633973","lat":34.75095350,"long":135.42493870,"status":"done","name":"ＪＲ塚口駅 東側フェンス","address":"上坂部1-1 地先JR塚口駅 東側フェンス","city":"尼崎市","number":"508"}, 
 {"id":"c3c2e9ca-1ac3-455e-997d-1bef2e41e915","lat":34.66057020,"long":135.09322350,"status":"done","name":"多井畑自治会館南金網","address":"須磨区多井畑字東所30番","city":"神戸市","number":"42"}, 
 {"id":"c3c55be7-dcb6-459e-bfee-be6106a30fbf","lat":35.40018220,"long":134.75875980,"status":"done","name":"masked","address":"八鹿町八鹿1379-2","city":"養父市","number":"38"}, 
 {"id":"c3cca585-ba85-4259-b596-8f4b69e6fa99","lat":34.57635510,"long":135.02431180,"status":"done","name":"岩屋中学校校門前","address":"国道28号","city":"淡路市","number":"101"}, 
 {"id":"c3ce2388-1701-4b21-af56-768bcab90723","lat":34.72731460,"long":135.30567710,"status":"done","name":"精道町8-25","address":"精道小学校東側フェンス","city":"芦屋市","number":"86"}, 
 {"id":"c3ce7b7f-a79e-4174-a5d6-a436cdd4ceda","lat":34.70584320,"long":134.90876080,"status":"not_yet","name":"市道（牛舎前フェンス）","address":"魚住町清水462-7","city":"明石市","number":"464"}, 
 {"id":"c3ced952-2812-4d6f-bc65-06817f67d4a3","lat":35.06219500,"long":135.24075990,"status":"done","name":"西八上(旧)チビッコ広場フェンス","address":"西八上","city":"丹波篠山市","number":"6-1"}, 
 {"id":"c3d2771b-9749-4015-8fe3-4796ac2abf42","lat":34.75102600,"long":134.85626200,"status":"done","name":"駅の池第二公園南側フェンス","address":"野口町野口119-22","city":"加古川市","number":"133"}, 
 {"id":"c3d348db-2b8f-44bf-a514-efdcb9ac8877","lat":34.73521910,"long":135.30657300,"status":"done","name":"ラボルテ(ペディストリアンデッキ中央鉄柵)","address":"船戸町4","city":"芦屋市","number":"46"}, 
 {"id":"c3dec923-8fd4-43c3-9324-1a8159c68dcd","lat":35.35036270,"long":134.86651510,"status":"not_yet","name":"弥生が丘１区集会所横","address":"弥生が丘1区","city":"朝来市","number":"75"}, 
 {"id":"c3df7482-b654-4aa5-82e6-5669f94b4b7a","lat":34.74633950,"long":135.38193520,"status":"done","name":"守部公園 東側","address":"南武庫之荘8-21-1守部公園 東側","city":"尼崎市","number":"437"}, 
 {"id":"c3e9f503-1fe5-4c55-b8bd-f08490a033fd","lat":34.75821040,"long":135.06299020,"status":"not_yet","name":"バス停栄駅西 協和病院東側付近","address":"西区押部谷栄184番地","city":"神戸市","number":"278"}, 
 {"id":"c3ed2950-b32f-4c48-9ef0-efe1432565f6","lat":34.67994950,"long":135.17576210,"status":"done","name":"チサンホテル北側ガードレール","address":"中央区中町通2丁目3番","city":"神戸市","number":"203"}, 
 {"id":"c3ef24fb-8692-41c6-97cb-9efe4f81bcbe","lat":34.76221840,"long":135.39965240,"status":"done","name":"車塚公園 北側柵","address":"車塚2丁目86番地","city":"伊丹市","number":"329"}, 
 {"id":"c3f4a418-b9bf-4b98-bb59-3cf84e81cc15","lat":34.82199940,"long":135.38430540,"status":"done","name":"松尾神社西側ガードフェンス","address":"宝塚市山本中1-13","city":"宝塚市","number":"18-05"}, 
 {"id":"c3f522cd-8c1a-420b-88e9-27d0fe11ecd1","lat":35.19302080,"long":135.03592990,"status":"done","name":"南田井公民館敷地内フェンス","address":"氷上町賀茂","city":"丹波市","number":"管理番号93氷上58"}, 
 {"id":"c3f78cbd-1638-4c58-9ca2-d8b183896bbf","lat":34.98164900,"long":134.37231400,"status":"not_yet","name":"那手公民館前（歩道柵）","address":"中島898","city":"佐用町","number":"99"}, 
 {"id":"c405e7d1-62ec-4105-b936-0c84ecb60fd7","lat":34.68426910,"long":135.11554810,"status":"done","name":"市バス大曲りバス停北鉄柵","address":"須磨区車字口中ノ尾","city":"神戸市","number":"179"}, 
 {"id":"c4060614-3a97-4780-a36b-1430ec3cc5e2","lat":34.69121870,"long":135.18564540,"status":"done","name":"元町北公園東側鉄柵","address":"中央区下山手通4丁目3番","city":"神戸市","number":"166"}, 
 {"id":"c417d011-e6e1-4b0d-86d8-48d341f5d9da","lat":34.75721610,"long":134.87042630,"status":"not_yet","name":"ローズヴィラ東加古川北側市道ガードレール","address":"野口町北野(0558 北野岸ノ下線)","city":"加古川市","number":"128"}, 
 {"id":"c41af093-dbae-4622-8425-424bb6472bd2","lat":34.93458000,"long":135.23490000,"status":"not_yet","name":"尼寺　尼寺北口バス停左側法面野立て","address":"尼寺 尼寺北口バス停左側法面野立て","city":"三田市","number":"33"}, 
 {"id":"c4200e5b-ab65-42b1-908e-f1040373f300","lat":34.25783500,"long":134.69897500,"status":"done","name":"仁尾バス停北側ガードレール","address":"福良丙795付近","city":"南あわじ市","number":"4-33"}, 
 {"id":"c4242bd5-5708-4d7e-8d4e-c6970be3792e","lat":34.77204512,"long":134.80604440,"status":"done","name":"美保里こども園の東側（ﾌｪﾝｽ）","address":"高砂市美保里13－1","city":"高砂市","number":"8-2"}, 
 {"id":"c42f0011-e371-4b6f-b888-974bda570b44","lat":34.71535100,"long":135.35757260,"status":"done","name":"南甲子園１丁目２２番広場南ガードパイプ","address":"南甲子園１丁目 22番","city":"西宮市","number":"241"}, 
 {"id":"c43744e6-4011-4fee-9259-c18e70023eaf","lat":34.74830140,"long":135.07118020,"status":"done","name":"神戸電鉄木幡駅前付近","address":"西区押部谷木津54番地の2","city":"神戸市","number":"260"}, 
 {"id":"c437b03c-52a5-41a7-9620-7bed599c9084","lat":35.62332510,"long":134.44645480,"status":"not_yet","name":"居組地区公民館（体育館）横　ガードレール","address":"向町","city":"新温泉町","number":"82"}, 
 {"id":"c43b063e-1405-4a5d-b520-3953ede127d6","lat":34.69460060,"long":135.10571490,"status":"done","name":"白川高尾公園南鉄柵","address":"須磨区東白川台4丁目11番地の1","city":"神戸市","number":"186"}, 
 {"id":"c447b35c-1575-4340-a4b0-d5d54908b74c","lat":34.77428040,"long":134.93941500,"status":"not_yet","name":"masked","address":"下草谷 401-154","city":"稲美町","number":"70"}, 
 {"id":"c449897c-498a-4ec0-976b-0ac623b8299d","lat":34.66066660,"long":135.05190240,"status":"done","name":"市営本多聞第4住宅22号棟横駐車場フェンス","address":"垂水区本多聞3丁目1番","city":"神戸市","number":"261"}, 
 {"id":"c44e6c3e-bf00-40c0-96c2-ade3d4e8f040","lat":34.71532330,"long":135.13556510,"status":"not_yet","name":"神鉄バス君影小前バス停南側鉄柵","address":"北区君影町1丁目2番7号","city":"神戸市","number":"153"}, 
 {"id":"c4506b8b-266b-4b02-a165-d6fc007879d9","lat":34.98671560,"long":134.99696400,"status":"not_yet","name":"県道黒田庄多井田線歩道柵（鹿野東交差点西側）","address":"鹿野町","city":"西脇市","number":"129"}, 
 {"id":"c45cb2d5-3a8a-4c6c-ad41-ada5d99c269d","lat":34.74589380,"long":135.33621200,"status":"done","name":"大社小学校西側北端","address":"桜谷町9番","city":"西宮市","number":"154"}, 
 {"id":"c4609ee0-79ad-4012-a902-76ece76cf4ab","lat":35.13237000,"long":134.92360000,"status":"done","name":"大袋公会堂前花壇","address":"大袋53-1","city":"多可町","number":"45"}, 
 {"id":"c4641414-d485-4fdb-95ce-9519d9054f85","lat":34.78874695,"long":134.79113650,"status":"not_yet","name":"姫路ﾊﾞｲﾊﾟｽ下（ﾌｪﾝｽ）","address":"高砂市阿弥陀町魚橋880－3","city":"高砂市","number":"24-5"}, 
 {"id":"c464a8f5-3d7a-4e98-918b-6433146b7b67","lat":35.57249800,"long":134.52100380,"status":"not_yet","name":"栃谷口バス停横　ガードレール","address":"熊谷","city":"新温泉町","number":"120"}, 
 {"id":"c46d533e-c01c-4ca8-841f-20308838601b","lat":34.91265490,"long":135.10970540,"status":"not_yet","name":"前田橋交差点南側","address":"吉川町前田","city":"三木市","number":"304"}, 
 {"id":"c46f92d1-0d46-4a60-a23f-63fc62ff5121","lat":34.79140210,"long":134.94167870,"status":"done","name":"石野バス停(加古川方面)横ガードレール","address":"別所町石野","city":"三木市","number":"134"}, 
 {"id":"c4710318-5ea8-4928-90a4-04e43c86175b","lat":34.76501046,"long":134.80074310,"status":"done","name":"緑丘集会所の南側","address":"高砂市緑丘1丁目1－20","city":"高砂市","number":"6-5"}, 
 {"id":"c472de9e-ea09-4970-9003-0da9fa4da650","lat":34.68113310,"long":135.17438940,"status":"done","name":"総合福祉センター東側ガードレール","address":"中央区橘通3丁目4番1号","city":"神戸市","number":"198"}, 
 {"id":"c4741a41-edd8-4a6e-861a-c97f7ab0d8c5","lat":34.82425750,"long":134.89029460,"status":"done","name":"上池東側三叉路","address":"平荘町磐831-7地先(08-3008 磐8号線)","city":"加古川市","number":"362"}, 
 {"id":"c4746d9c-a257-45c4-b040-6cf55b478da6","lat":35.45508140,"long":134.54944560,"status":"not_yet","name":"masked","address":"小代区猪之谷619番地先","city":"香美町","number":"231"}, 
 {"id":"c476b33d-d4a3-45e0-8da1-4a05fc3988a0","lat":34.30515170,"long":134.79710630,"status":"not_yet","name":"県道から技術センターへの市道沿いガードレール","address":"八木養宜中353付近","city":"南あわじ市","number":"3-24"}, 
 {"id":"c478aecc-e850-4392-9ccd-c4dda3d32c03","lat":34.96683100,"long":134.59307900,"status":"not_yet","name":"植木野公民館前　ガードレール","address":"安富町植木野360番地1　地先","city":"姫路市","number":"801"}, 
 {"id":"c484972b-9ff9-4bdd-bfd3-c46530192639","lat":34.79477430,"long":135.37174490,"status":"done","name":"市営鳥島団地集会所前","address":"宝塚市安倉西3-9","city":"宝塚市","number":"51-04"}, 
 {"id":"c489c69b-b733-49cd-a7e8-3faa77f63a05","lat":34.83672690,"long":135.39172570,"status":"done","name":"阪急バス満願寺バス停南ガードレール","address":"満願寺町10番阪急バス満願寺バス停南ガ-ドレ-ル","city":"川西市","number":"79"}, 
 {"id":"c495848f-75dd-4e3b-98c9-140890232c44","lat":35.55487650,"long":134.48858480,"status":"not_yet","name":"masked","address":"清水本町","city":"新温泉町","number":"19"}, 
 {"id":"c4966bfc-bd1a-4a82-9ed1-6ed42bdaab71","lat":35.07417180,"long":135.21791570,"status":"done","name":"篠山城跡西堀の北西角防護柵","address":"北新町","city":"丹波篠山市","number":"2-3"}, 
 {"id":"c4991da8-6905-4618-8927-5f1deddc79b7","lat":35.01628000,"long":134.50544420,"status":"not_yet","name":"高下加圧ポンプ場　フェンス","address":"山崎町高下1640-1","city":"宍粟市","number":"34"}, 
 {"id":"c49d7237-c5d3-4ab6-bd1e-e39db861c34a","lat":34.36701600,"long":134.75575300,"status":"not_yet","name":"masked","address":"五色町鳥飼浦２８３番地","city":"洲本市","number":"194"}, 
 {"id":"c4a3c59d-0b53-4835-8e6c-d87024345d35","lat":34.83695550,"long":135.37394830,"status":"done","name":"阪急バス宝塚山手台4丁目バス停フェンス","address":"宝塚市山手台西4","city":"宝塚市","number":"58-09"}, 
 {"id":"c4a57fc8-8e87-4aa7-ab78-76b07483642a","lat":35.58079570,"long":134.60667820,"status":"done","name":"八原区公園フェンス","address":"香住区八原480","city":"香美町","number":"98"}, 
 {"id":"c4a634a7-0a07-4753-bbd2-b7ee8db41f99","lat":34.90533090,"long":135.18513340,"status":"done","name":"あかしあ台４丁目　ｾﾝﾁｭﾘｰ大橋左側照明制御盤右側野立","address":"あかしあ台4丁目 センチュリ-大橋左側照明制御盤右側野立","city":"三田市","number":"208"}, 
 {"id":"c4a73230-596e-4568-9baf-a89d15337935","lat":null,"long":null,"status":"not_yet","name":"旧川西市役所分庁舎前","address":"出在家町1番11号","city":"加西市","number":"40"}, 
 {"id":"c4a88d6e-ecca-4df1-8a23-cd05ede83361","lat":34.67371790,"long":135.16275530,"status":"done","name":"中道公園南側 フェンス","address":"兵庫区中道通6丁目1番","city":"神戸市","number":"115"}, 
 {"id":"c4a9b6be-6f62-4ede-a975-8cff08379591","lat":34.32743800,"long":134.75044300,"status":"not_yet","name":"産宮神社東側 空き地","address":"松帆樽田103-1付近","city":"南あわじ市","number":"2-7"}, 
 {"id":"c4aa20e7-a84c-4605-aa20-85d69f96dd82","lat":34.66546060,"long":135.03498580,"status":"not_yet","name":"ネオコーポ明舞駐車場前付近","address":"西区伊川谷町有瀬64番地","city":"神戸市","number":"105"}, 
 {"id":"c4b069d2-1487-45eb-b9af-aafc8019332d","lat":35.19710440,"long":134.65272290,"status":"not_yet","name":"センター繁盛前　県道壁面","address":"一宮町上岸田86-2","city":"宍粟市","number":"171"}, 
 {"id":"c4ba1adb-2fe3-435b-8ead-4e3655120211","lat":34.98872460,"long":134.75806830,"status":"not_yet","name":"甘地駅前公園","address":"甘地","city":"市川町","number":"63"}, 
 {"id":"c4bb6a5d-1946-4718-b442-6b8bbf42274f","lat":34.93907400,"long":134.54783930,"status":"not_yet","name":"ローソン新宮吉島店南側法面(野立)","address":"新宮町吉島","city":"たつの市","number":"26"}, 
 {"id":"c4c568f3-03f8-4c59-b888-53009fc147d2","lat":34.71103990,"long":134.91961940,"status":"not_yet","name":"masked","address":"西区岩岡町古郷1033番地の5","city":"神戸市","number":"256"}, 
 {"id":"c4c56a8d-4eae-4fae-b0fc-52414fe6d8a6","lat":34.65163360,"long":135.01377170,"status":"done","name":"市道(朝霧分署向側鉄柵)","address":"朝霧町3丁目10","city":"明石市","number":"34"}, 
 {"id":"c4c844d5-147d-4d2c-85e2-9dc5fee17cdd","lat":34.81125090,"long":134.55977440,"status":"not_yet","name":"吉福水源地東側フェンス","address":"吉福295-6(太子ニュータウン)","city":"太子町","number":"29"}, 
 {"id":"c4cc9f1b-a053-491e-bb62-ef71cfe7f3a0","lat":34.97751360,"long":134.53643100,"status":"not_yet","name":"下比地バス停北側市道　ガードパイプ","address":"山崎町下比地132付近","city":"宍粟市","number":"58"}, 
 {"id":"c4d17897-e06a-4ac4-8179-9950254ca6fd","lat":34.71953890,"long":135.41321910,"status":"done","name":"神田公園　戎神社鳥居北東側　翼モータープール前","address":"神田中通3-83神田公園 戎神社鳥居北東側 翼モ-タ-プ-ル前","city":"尼崎市","number":"23"}, 
 {"id":"c4d4e4d3-ea6e-4c4d-a69d-a488efcabf8f","lat":35.50281480,"long":134.85595520,"status":"not_yet","name":"masked","address":"masked","city":"豊岡市","number":"160"}, 
 {"id":"c4d559bf-76de-4f75-818a-ca705d70be58","lat":35.65840530,"long":134.73597350,"status":"not_yet","name":"濱須井海岸駐車場","address":"竹野町濱須井900-1濱須井海岸駐車場","city":"豊岡市","number":"245"}, 
 {"id":"c4dd7201-cddd-4ee4-944a-d1d79dad95a4","lat":34.83007390,"long":134.51486870,"status":"done","name":"グリーンハイツ公園東側フェンス","address":"揖保川町片島","city":"たつの市","number":"196"}, 
 {"id":"c4de0b40-48c5-4163-963f-9bce75f714d5","lat":35.10429050,"long":135.32403130,"status":"not_yet","name":"小田中公民館植栽","address":"小田中","city":"丹波篠山市","number":"29-4"}, 
 {"id":"c4df399d-7a70-4436-a08c-383abb469a0e","lat":35.11742060,"long":135.34751500,"status":"not_yet","name":"神姫バス福住車庫東側フェンス","address":"福住中","city":"丹波篠山市","number":"20-2"}, 
 {"id":"c4e3c99c-82a4-4db7-8317-c80c54f135aa","lat":34.85024990,"long":134.58425950,"status":"not_yet","name":"masked","address":"松尾409東","city":"太子町","number":"61"}, 
 {"id":"c4e80121-0cdc-4755-8d77-e64668c1c9e8","lat":35.05917230,"long":134.92510310,"status":"done","name":"町民グラウンド日赤病院側向い境内横スペース","address":"岸上281-112","city":"多可町","number":"11"}, 
 {"id":"c4fe812c-be54-4868-9f5b-ea4aa1727d87","lat":null,"long":null,"status":"not_yet","name":"西日本高速道路㈱関西支社阪神改築事務所金網","address":"中央町10番20号","city":"加西市","number":"2"}, 
 {"id":"c508e1c8-ce05-4088-ac02-7e03507aeb1b","lat":null,"long":null,"status":"not_yet","name":"能勢電鉄高架下能勢電北駐輪センター金網","address":"小戸1丁目1番","city":"加西市","number":"27"}, 
 {"id":"c514931a-68b6-4d53-b66a-5a83774b221c","lat":34.85045830,"long":134.69440790,"status":"done","name":"クリーニング店北側ガードレール","address":"城北本町3－13","city":"姫路市","number":"128"}, 
 {"id":"c517cb8b-5215-4eef-81de-329068a0a772","lat":34.63776720,"long":135.06153120,"status":"done","name":"高丸小学校正門北側金網","address":"垂水区大町2丁目6番","city":"神戸市","number":"56"}, 
 {"id":"c51bb63e-e17b-4387-8e37-21d439af96fd","lat":34.65756240,"long":135.04110880,"status":"done","name":"多聞台南公園西側鉄柵","address":"垂水区多聞台2丁目2番","city":"神戸市","number":"156"}, 
 {"id":"c51cafa4-a6c3-4c41-8bec-b1589e91f69f","lat":35.31127580,"long":134.69826720,"status":"not_yet","name":"西谷公民館の横","address":"大屋町筱416-5","city":"養父市","number":"163"}, 
 {"id":"c51d945d-24d4-4950-a4aa-e8e3e9c741a8","lat":34.84671000,"long":134.74330100,"status":"not_yet","name":"老人憩の家西側フェンス","address":"飾東町豊国449－1","city":"姫路市","number":"233"}, 
 {"id":"c523dc40-0ea0-4882-9499-177cc128e4cf","lat":34.71189200,"long":134.87743960,"status":"not_yet","name":"東部コミュニティセンター南側植込み","address":"二子418-1","city":"播磨町","number":"30"}, 
 {"id":"c526be57-cab4-4312-8021-6f7189f8160d","lat":34.72812520,"long":135.30921340,"status":"done","name":"県立芦屋高校運動場北側フェンス","address":"精道町13-1","city":"芦屋市","number":"87"}, 
 {"id":"c526fde8-b521-48ee-815c-0835edd064b9","lat":34.73796300,"long":135.45426220,"status":"done","name":"市営戸ノ内改良住宅２号棟　南側","address":"戸ノ内町6-3市営戸ノ内改良住宅2号棟 南側","city":"尼崎市","number":"576"}, 
 {"id":"c52750c8-6a91-4329-b45d-8ddee77c78e1","lat":null,"long":null,"status":"not_yet","name":"市立鶴寿会館前鉄柵","address":"小戸2丁目13番12号","city":"加西市","number":"25"}, 
 {"id":"c52759fc-1c9a-440f-9fee-95b0a59eeefa","lat":34.78400580,"long":135.35993560,"status":"done","name":"市営大吹住宅2号棟西側フェンス","address":"宝塚市大吹町12-17","city":"宝塚市","number":"10-03"}, 
 {"id":"c528efa3-5011-46b9-a10e-b7f0d2d5fd31","lat":35.16925870,"long":135.23841640,"status":"not_yet","name":"桑原フレッシュランド駐車場前県道路肩","address":"桑原","city":"丹波篠山市","number":"35-8"}, 
 {"id":"c52dd20b-d7ac-40bc-8471-98a3998c256b","lat":34.91395750,"long":135.23023870,"status":"not_yet","name":"虫尾　桜が丘北バス停（虫尾側）後方左側道路ガードレール","address":"虫尾 桜が丘北バス停(虫尾側)後方左側道路ガ-ドレ-ル","city":"三田市","number":"32"}, 
 {"id":"c5348af9-cf93-4134-a6b0-e32bf3e0d949","lat":34.75339300,"long":135.41965430,"status":"done","name":"本町１丁目阪急神戸線　北側","address":"塚口本町1丁目27 地先本町1丁目阪急神戸線 北側","city":"尼崎市","number":"294"}, 
 {"id":"c53bab6a-5432-4fda-bd9e-34073813d921","lat":35.43829220,"long":134.77713260,"status":"not_yet","name":"川東公民館前ふれあいクラブ角溝川","address":"八鹿町宿南1183-7","city":"養父市","number":"6"}, 
 {"id":"c54f6d11-7ce4-4427-8d32-7d3cabc498cc","lat":35.36339060,"long":134.81667740,"status":"not_yet","name":"宮内区こども広場フェンス","address":"宮内","city":"朝来市","number":"113"}, 
 {"id":"c55493d4-8b0a-41f9-847b-db6da24cc33a","lat":34.69539690,"long":135.20342420,"status":"done","name":"新生田川住宅17号棟東側鉄柵(松村酒店北側鉄柵)","address":"中央区南本町通6丁目3番","city":"神戸市","number":"84"}, 
 {"id":"c5589dc4-8956-4d7d-aad2-70542a40726a","lat":35.20441270,"long":134.51788440,"status":"not_yet","name":"市道原中垣内線　目隠しフェンス","address":"波賀町原278地先","city":"宍粟市","number":"204"}, 
 {"id":"c56ca780-0032-432a-9757-4a9cb8e6ea91","lat":34.98719500,"long":135.33195580,"status":"not_yet","name":"杉生自治会館前","address":"杉生字森ノ本","city":"猪名川町","number":"8_53"}, 
 {"id":"c56d2ae6-c561-41ff-8730-0352124d895c","lat":35.43807620,"long":134.53128090,"status":"not_yet","name":"集会所前","address":"小代区貫田228番1地先","city":"香美町","number":"215"}, 
 {"id":"c571ecb0-1517-4634-b786-dfdd0b2bc6fc","lat":34.81029910,"long":135.40589850,"status":"done","name":"上水道久代浄水場鉄柵","address":"久代3丁目2番1号上水道久代浄水場鉄柵","city":"川西市","number":"123"}, 
 {"id":"c57227cf-0a2d-4ce4-80ad-5d6bd5d1148c","lat":34.35665500,"long":134.79995700,"status":"not_yet","name":"マイショップ 長尾横","address":"五色町上堺１９８５番地１","city":"洲本市","number":"199"}, 
 {"id":"c5742fff-f1ac-475a-ba0b-5461e9b882d8","lat":34.63283760,"long":135.06245250,"status":"done","name":"masked","address":"垂水区山手3丁目8番17号","city":"神戸市","number":"96"}, 
 {"id":"c57a2af5-4c9e-4b2c-a1c4-f446d8b6d83e","lat":34.75954950,"long":135.34355130,"status":"done","name":"市営上ケ原八番町住宅16号棟 ふれあい公園西側フェンス","address":"上ケ原八番町 6番","city":"西宮市","number":"469"}, 
 {"id":"c57d13e8-7e62-477e-9c97-c6b88307ba59","lat":34.69739570,"long":135.06065570,"status":"not_yet","name":"室谷橋付近","address":"西区伊川谷町前開1249番地","city":"神戸市","number":"65"}, 
 {"id":"c57e6a8e-8323-45e1-bc76-d4d3b9ddbe7e","lat":35.13628460,"long":134.55721440,"status":"not_yet","name":"masked","address":"波賀町小野34","city":"宍粟市","number":"185"}, 
 {"id":"c58615a7-38ae-4d9a-bb60-72be1f056fbd","lat":34.69134130,"long":134.98118120,"status":"not_yet","name":"バス停菅野(西神中央行)付近","address":"西区樫谷町菅野296番地先","city":"神戸市","number":"148"}, 
 {"id":"c58ce8c2-6ef5-4cc1-80c5-eb57054df2d6","lat":34.85000020,"long":135.27303190,"status":"done","name":"（生野高原住宅）㈲兼子総組資材置き場北側ガードレール","address":"北区道場町生野1172番地の751東向","city":"神戸市","number":"336"}, 
 {"id":"c59bf9e4-fd48-43b0-8ee1-29e7b7064298","lat":35.63922140,"long":134.62910660,"status":"not_yet","name":"空の駅公園前ガードパイプ 浜一西線、町民バス バス停横","address":"香住区余部1710-2(浜)","city":"香美町","number":"103"}, 
 {"id":"c5a1eb12-a2ca-42b3-bb38-15f5d97f349f","lat":34.84731700,"long":135.13541890,"status":"not_yet","name":"豊岡バス停北側三叉路歩道柵","address":"吉川町水上","city":"三木市","number":"264"}, 
 {"id":"c5a415f6-606a-4d66-ad84-400445afebe9","lat":34.31989410,"long":134.84327260,"status":"not_yet","name":"集田池堤の下（県道広田洲本線沿）擁壁","address":"広田中筋444","city":"南あわじ市","number":"1-8"}, 
 {"id":"c5a42356-7adf-4788-8dff-41f55d3fdebf","lat":34.79577660,"long":134.98309440,"status":"not_yet","name":"川久駐車場金柵","address":"本町３丁目","city":"三木市","number":"182"}, 
 {"id":"c5a4aa8f-970b-4587-899a-250dfc564271","lat":34.71898130,"long":135.30862660,"status":"done","name":"緑公園(東側)","address":"緑町5番","city":"芦屋市","number":"136"}, 
 {"id":"c5a70e16-4247-4cfa-a20a-cd01bb6374a1","lat":34.91174550,"long":135.19245960,"status":"done","name":"けやき台３丁目　けやき台小学校グラウンド入口向かって右側鉄柵","address":"けやき台3丁目 けやき台小学校グラウンド入口向かって右側鉄柵","city":"三田市","number":"241"}, 
 {"id":"c5bb7968-b8d4-46e5-9e47-85b5210b4ba7","lat":34.74495980,"long":134.85873510,"status":"not_yet","name":"数池西側市道ガードレール","address":"野口町二屋(03-1408 二屋8号線)","city":"加古川市","number":"228"}, 
 {"id":"c5d0fbb4-a11f-43de-9773-83dfbff1539e","lat":34.75904530,"long":134.38778610,"status":"done","name":"宮前町さくら公園北面","address":"宮前町さくら公園北面","city":"赤穂市","number":"148"}, 
 {"id":"c5d18294-f4b4-4804-99f6-e65f02d1bfb0","lat":34.79294230,"long":135.35999550,"status":"done","name":"福井町26-22付近　御所下水路ガードパイプ","address":"宝塚市福井町26","city":"宝塚市","number":"14-06"}, 
 {"id":"c5d4d320-d459-4249-bc6b-4b2b39087f0b","lat":34.72566730,"long":135.37336590,"status":"done","name":"鳴尾北小学校西側","address":"学文殿町2丁目 2番7号","city":"西宮市","number":"273"}, 
 {"id":"c5d5345a-d282-4103-af18-a86c0c028263","lat":34.66104600,"long":134.97245240,"status":"not_yet","name":"市道(和坂2丁目3番28号付近)","address":"和坂2丁目3","city":"明石市","number":"175"}, 
 {"id":"c5d91227-a0d9-482b-9a18-31d970ff8a99","lat":34.81549810,"long":135.36381370,"status":"done","name":"芦田歯科前ガードパイプ","address":"宝塚市売布東の町5","city":"宝塚市","number":"33-06"}, 
 {"id":"c5ec08e5-e21a-4431-a5e6-32acc7314460","lat":34.80205460,"long":135.41539050,"status":"done","name":"JR北伊丹駅北側駐輪場鉄柵","address":"久代6丁目1番JR北伊丹駅北側駐輪場鉄柵","city":"川西市","number":"139"}, 
 {"id":"c5ee66de-b9cd-4043-b5e8-df33ffd048b5","lat":34.75265050,"long":134.81976550,"status":"not_yet","name":"番目公園北側フェンス","address":"尾上町養田183-23","city":"加古川市","number":"287"}, 
 {"id":"c5eed228-d37b-4284-882a-15b94a4ddbff","lat":34.77851200,"long":135.37686940,"status":"done","name":"市営宮ノ北住宅A棟　北側","address":"西昆陽3-41市営宮ノ北住宅A棟 北側","city":"尼崎市","number":"396"}, 
 {"id":"c5f01ddc-ef69-4880-9ece-3820f9d4e6f9","lat":34.23750430,"long":134.74907950,"status":"not_yet","name":"ダントー㈱駐車場ブロック塀","address":"北阿万伊賀野1290","city":"南あわじ市","number":"4-43"}, 
 {"id":"c5f1a96b-8c40-4ae1-bbf0-f19f5671eacd","lat":34.74797410,"long":134.33172380,"status":"done","name":"福浦寺東入口前防護柵","address":"福浦寺東入口前防護柵","city":"赤穂市","number":"145"}, 
 {"id":"c5f2011d-a6bb-4be7-b176-03257ed21bae","lat":35.18354760,"long":135.07351590,"status":"done","name":"牛河内防火用水池横","address":"春日町牛河内","city":"丹波市","number":"管理番号218春日59"}, 
 {"id":"c5f76521-1f72-41f7-8ff6-39d56b3655de","lat":34.82041130,"long":135.34090900,"status":"done","name":"すみれガ丘1丁目バス停横ガードフェンス","address":"宝塚市すみれガ丘1-4","city":"宝塚市","number":"54-02"}, 
 {"id":"c5fecaf0-64c7-4a27-90a9-4cca8eb27be8","lat":34.76935110,"long":134.95101510,"status":"not_yet","name":"荒内集会所前","address":"草谷 721","city":"稲美町","number":"75"}, 
 {"id":"c5ff645f-2ca6-49da-adb3-6e7348defb90","lat":34.74945830,"long":135.30787750,"status":"done","name":"市立芦屋病院南側バス停付近","address":"朝日ケ丘町39-1","city":"芦屋市","number":"15"}, 
 {"id":"c600d4bf-3019-46ef-bb5c-36810b45511e","lat":35.09130520,"long":135.17840420,"status":"done","name":"河内台ふれあい館広場フェンス","address":"河内台","city":"丹波篠山市","number":"32-5"}, 
 {"id":"c6016d94-f2f0-4662-b466-4f0727be7edf","lat":34.67257550,"long":134.95704100,"status":"done","name":"中谷山住宅内広場(南側フェンス)","address":"藤江891-66","city":"明石市","number":"240"}, 
 {"id":"c604b0c8-9e68-4238-b04e-5aebe5f289be","lat":34.81630570,"long":135.39297480,"status":"done","name":"共同利用施設長尾南会館北側フェンス","address":"宝塚市山本丸橋2-1","city":"宝塚市","number":"20-01"}, 
 {"id":"c60a7efb-a40e-4b7f-81da-23e2b2c4f664","lat":35.11154770,"long":134.60489960,"status":"not_yet","name":"県道加美実栗線（上野田282付近）歩道ガードパイプ","address":"一宮町上野田282","city":"宍粟市","number":"144"}, 
 {"id":"c610d3b2-4360-4ffd-82e9-7ec2b29567b4","lat":34.79031060,"long":134.85639650,"status":"done","name":"池尻本村バス停付近防護柵","address":"平荘町池尻268地先","city":"加古川市","number":"348"}, 
 {"id":"c6174523-81c8-45b2-b430-9ab61f16d9fc","lat":35.42972340,"long":134.98127760,"status":"not_yet","name":"西敏成氏所有農機具倉庫前","address":"但東町佐々木西敏成氏所有農機具倉庫前","city":"豊岡市","number":"451"}, 
 {"id":"c6199e56-8053-49d1-ac56-ab1ce037bc3b","lat":34.80596200,"long":135.21516800,"status":"done","name":"神鉄五社駅南西清滝橋北側欄干","address":"北区有野町有野798番地","city":"神戸市","number":"257"}, 
 {"id":"c62094d0-4623-45c5-9ac5-d3fbc32895f8","lat":35.05021590,"long":134.92342480,"status":"done","name":"中三原団地前歩道フェンス","address":"大和968-6","city":"多可町","number":"89"}, 
 {"id":"c6294925-8681-4dcd-b8ee-d341ca894b8a","lat":35.48421520,"long":134.61570830,"status":"not_yet","name":"masked","address":"村岡区祖岡1534-1","city":"香美町","number":"142"}, 
 {"id":"c6296eb1-10b3-477d-ba1f-663008f04eb3","lat":34.71704490,"long":134.89571930,"status":"not_yet","name":"市道（ガードレール）","address":"二見町福里585-1","city":"明石市","number":"486"}, 
 {"id":"c62b1188-71d6-46cb-963f-e1a807d84c5b","lat":34.89860500,"long":135.35690300,"status":"done","name":"町道白金４４号線 \n白金２丁目バス停付近ガードパイプ","address":"白金２丁目","city":"猪名川町","number":"13_92"}, 
 {"id":"c62bcc0d-f778-48d2-9c25-939fdef4a682","lat":35.62332510,"long":134.44645480,"status":"not_yet","name":"小井津町遊園地前　擁壁","address":"小井津町","city":"新温泉町","number":"21"}, 
 {"id":"c62e5360-b0b9-4f10-a4bd-aeadd9c69e02","lat":34.83965980,"long":135.41862500,"status":"done","name":"川西北こども園フェンス","address":"丸の内町7番1号川西北こども園フェンス","city":"川西市","number":"42"}, 
 {"id":"c62eeba9-30bc-4b15-a616-96bb9de38747","lat":34.82767710,"long":135.41310020,"status":"done","name":"川西能勢口駅高架下県道川西篠山線沿（西側）金網","address":"栄町20番川西能勢口駅高架下県道川西篠山線沿(西側)金網","city":"川西市","number":"17"}, 
 {"id":"c63ca509-a812-4256-b9f4-3f96950f837e","lat":34.79573910,"long":134.97609720,"status":"not_yet","name":"masked","address":"福井２丁目","city":"三木市","number":"187"}, 
 {"id":"c6411ae6-0f4d-426e-a4ef-2e586dc4a3d5","lat":null,"long":null,"status":"not_yet","name":"大和第3公園（北側）鉄柵","address":"大和東1丁目56番地","city":"加西市","number":"277"}, 
 {"id":"c6427065-fd84-4334-9d4c-9587da03c713","lat":34.70286410,"long":135.02856820,"status":"done","name":"西神南池谷公園付近","address":"西区井吹台北町1丁目11番地","city":"神戸市","number":"198"}, 
 {"id":"c6594433-70fa-4b38-9719-f75cacb95439","lat":35.44431910,"long":134.71233140,"status":"done","name":"観音寺区コミュニティセンター","address":"日高町観音寺679観音寺区コミュニティセンタ-","city":"豊岡市","number":"305"}, 
 {"id":"c65bcfdc-885b-4294-ab67-3ccee593c2a1","lat":35.47590850,"long":134.81658220,"status":"not_yet","name":"市谷営農センター前","address":"中郷131市谷営農センタ-前","city":"豊岡市","number":"109"}, 
 {"id":"c6610130-3000-4d96-8338-e0256bec69df","lat":34.96104930,"long":134.74828990,"status":"not_yet","name":"県道田口福田線 ガードレール","address":"福田502-2","city":"福崎町","number":"62"}, 
 {"id":"c6641066-f2bf-403b-bf68-14825664f1b0","lat":34.71332800,"long":135.27548710,"status":"done","name":"新堀公園北側鉄柵","address":"東灘区魚崎南町7丁目2番","city":"神戸市","number":"141"}, 
 {"id":"c66509df-023b-4180-a245-90ff1efbb68f","lat":35.55865900,"long":134.72195030,"status":"not_yet","name":"二連原交流館","address":"竹野町二連原17-4二連原交流館","city":"豊岡市","number":"189"}, 
 {"id":"c666a94d-906a-42c3-92fa-44592701a3fd","lat":34.88006800,"long":135.20012900,"status":"not_yet","name":"狭間が丘４丁目　狭間が丘４丁目児童公園西側金網","address":"狭間が丘4丁目 狭間が丘4丁目児童公園西側金網","city":"三田市","number":"171"}, 
 {"id":"c6681bbc-9f57-4509-8d98-531ec69c50f2","lat":34.80949980,"long":135.37221620,"status":"done","name":"上ノ池公園北東側植え込み","address":"宝塚市安倉北4-3","city":"宝塚市","number":"56-02"}, 
 {"id":"c66ad326-6871-41d4-bc3c-839f06e0026d","lat":34.47066810,"long":134.90439350,"status":"not_yet","name":"摩耶中池（前）ガードレール","address":"野田尾","city":"淡路市","number":"47"}, 
 {"id":"c66b1df7-4a6c-4da7-92a9-295e701e4c5d","lat":35.33978320,"long":134.85234830,"status":"not_yet","name":"高瀬区公民館横フェンス","address":"高瀬","city":"朝来市","number":"104"}, 
 {"id":"c66cbc42-4eb8-4ff0-8c2b-9b80dcd448af","lat":34.51241840,"long":134.98510330,"status":"not_yet","name":"南の町会館横ガードレール","address":"津田大北線","city":"淡路市","number":"269"}, 
 {"id":"c6718935-f794-4ede-bcbb-af4348221fa5","lat":35.25203920,"long":134.79672220,"status":"not_yet","name":"虹の街入り口ガードパイプ（三叉路付近市道）","address":"立脇","city":"朝来市","number":"270"}, 
 {"id":"c67590ce-5bd1-455a-883e-3b58d5394d6b","lat":34.66510720,"long":135.16567990,"status":"done","name":"明親小学校通用門横金網","address":"兵庫区須佐野通4丁目1番","city":"神戸市","number":"189"}, 
 {"id":"c67821b0-1010-42da-899d-85d0c7fb15ba","lat":34.82179660,"long":135.34090900,"status":"done","name":"ラ・ビスタサウステラス2番館西側フェンス","address":"宝塚市すみれガ丘1-7","city":"宝塚市","number":"54-06"}, 
 {"id":"c6782798-3236-43fb-9933-ab8ea70e6f78","lat":34.76937800,"long":134.83988900,"status":"done","name":"市道溝之口3号線北側ガードパイプ","address":"加古川町篠原町109-1地先(01-1026 加古川駅北区画道路8号線)","city":"加古川市","number":"70"}, 
 {"id":"c67d270f-e774-4451-af99-2497f284e3f2","lat":34.83163100,"long":135.31602500,"status":"done","name":"南北道路西側歩道の植込","address":"東山台３丁目1番","city":"西宮市","number":"506"}, 
 {"id":"c6811552-a320-4466-acf5-7750f619a032","lat":35.47380540,"long":134.78116410,"status":"not_yet","name":"市営鶴岡住宅来客駐車場","address":"日高町鶴岡371-3市営鶴岡住宅来客駐車場","city":"豊岡市","number":"295"}, 
 {"id":"c681ef7c-32fc-4278-b8a6-80f42525eff6","lat":34.26491900,"long":134.74679600,"status":"not_yet","name":"賀集支所購買店舗サプライ・倉庫 フェンス","address":"賀集1151-1","city":"南あわじ市","number":"4-1"}, 
 {"id":"c6820e1e-6e9a-4ac3-a9e1-aa4c17ff99bf","lat":34.93508400,"long":135.38188120,"status":"not_yet","name":"町道阿古谷線 \n上阿古谷バス停（ふれあいバス）付近","address":"上阿古谷字畑ヶ芝","city":"猪名川町","number":"1_3"}, 
 {"id":"c6868fae-657d-4770-b371-2df40d8b2740","lat":34.67625520,"long":134.92300020,"status":"not_yet","name":"市道(赤根川緑地南側駐車場前植込)","address":"大久保町江井島1068-4","city":"明石市","number":"382"}, 
 {"id":"c6893dbb-daf7-4cba-a69c-325c6d8199ef","lat":35.04879580,"long":134.73110870,"status":"not_yet","name":"美佐公民館フェンス","address":"美佐","city":"市川町","number":"88"}, 
 {"id":"c68aa469-e7ac-4a13-9e86-863c98113126","lat":34.67138970,"long":135.09860620,"status":"done","name":"北須磨団地入口交差点西ガードレール","address":"須磨区友が丘7丁目4番地","city":"神戸市","number":"283"}, 
 {"id":"c68e1bbd-b318-4ac2-b44e-32c9bacc601a","lat":34.29243100,"long":134.66095000,"status":"done","name":"南あわじ漁業組合事務所横空地","address":"阿那賀1463-6","city":"南あわじ市","number":"2-39"}, 
 {"id":"c69457ea-3bdc-4505-8fd5-65c9e63581af","lat":34.73678070,"long":135.39933760,"status":"done","name":"ＪＲ立花駅南　東側金網","address":"七松町1-2-16JR立花駅南 東側金網","city":"尼崎市","number":"318"}, 
 {"id":"c6959dc9-e7d8-4eb2-abed-3c95e6dc4350","lat":35.00431470,"long":134.35584230,"status":"not_yet","name":"日高浄水場","address":"日高１７２","city":"佐用町","number":"72"}, 
 {"id":"c695eb56-76e5-4a02-be65-6d5503c30460","lat":34.71608000,"long":135.26229650,"status":"done","name":"住吉公園グラウンド南側ガードレール","address":"東灘区住吉宮町3丁目3番","city":"神戸市","number":"178"}, 
 {"id":"c6a9384b-8e8e-4d82-a5de-32e45e4c125e","lat":35.15587910,"long":135.06510890,"status":"done","name":"アパート「クラヴィエ颯士」横","address":"石生停車場線","city":"丹波市","number":"管理番号98氷上63"}, 
 {"id":"c6aca2f7-fd1b-4277-b8d4-3c4ec7d2533e","lat":35.33978320,"long":134.85234830,"status":"not_yet","name":"山東公民館駐車場前","address":"川原町","city":"朝来市","number":"98"}, 
 {"id":"c6adf76f-6696-44ea-8cc6-9a16c69771e3","lat":34.88827390,"long":135.21615890,"status":"done","name":"天神１丁目　総合文化センター前バス停後方鉄柵","address":"天神1丁目 総合文化センタ-前バス停後方鉄柵","city":"三田市","number":"140"}, 
 {"id":"c6b4e99b-0f0b-4837-ac92-e96e928fb87f","lat":34.87758590,"long":135.20152160,"status":"not_yet","name":"狭間が丘３丁目　給食センター前バス停西行き鉄柵","address":"狭間が丘3丁目 給食センタ-前バス停西行き鉄柵","city":"三田市","number":"168"}, 
 {"id":"c6b6a1da-e2c0-4cc1-81f0-b53689cf2783","lat":34.82243070,"long":135.21950150,"status":"done","name":"北神区民センター駐車場北西側フェンス","address":"北区藤原台中町1丁目3番1号","city":"神戸市","number":"286"}, 
 {"id":"c6bb6da0-c32d-488c-814c-ad0c8f884157","lat":34.76606500,"long":135.37104720,"status":"done","name":"甲武体育館西駐車場南側","address":"上大市5丁目 15番25号","city":"西宮市","number":"438"}, 
 {"id":"c6cd4264-861f-454b-a1e0-82b3331a329a","lat":34.77669100,"long":134.57530200,"status":"done","name":"北沢網干レジャーランド東側","address":"網干区浜田816","city":"姫路市","number":"584"}, 
 {"id":"c6d90f9d-ef8a-4285-b612-3009934a3850","lat":null,"long":null,"status":"not_yet","name":"出在家公園(東側)金網","address":"出在家町3番","city":"加西市","number":"41"}, 
 {"id":"c6dabca6-899b-4a72-804b-311f48dc4d62","lat":35.21619930,"long":134.76833130,"status":"not_yet","name":"中田路区公民館前","address":"中田路","city":"朝来市","number":"133"}, 
 {"id":"c6dfbbbc-d2c2-4e72-82df-59bb3a62a051","lat":35.62777630,"long":134.46396850,"status":"not_yet","name":"masked","address":"清富","city":"新温泉町","number":"24"}, 
 {"id":"c6e529d4-69fd-4ab5-8517-12863b92564e","lat":35.09169150,"long":134.77860880,"status":"not_yet","name":"大黒茶屋国道三叉路付近（町道側）","address":"杉","city":"神河町","number":"41"}, 
 {"id":"c6eaa465-ef9c-47c5-982b-b77af9545754","lat":34.75359287,"long":134.79950640,"status":"done","name":"のじぎく児童公園の北側","address":"高砂市高砂町浜田町1丁目10","city":"高砂市","number":"3-6"}, 
 {"id":"c6ec1c6b-c031-4c34-a78d-10d03c483727","lat":35.17764800,"long":134.99660900,"status":"done","name":"大谷グラウンド前　フェンス","address":"氷上町大谷","city":"丹波市","number":"管理番号65氷上30"}, 
 {"id":"c6f1ac26-aa75-485a-9b2d-653cd4effae9","lat":34.66738860,"long":134.95976620,"status":"done","name":"市道(新幹線駅下歩道ガードレール)","address":"小久保2丁目13","city":"明石市","number":"236"}, 
 {"id":"c6f6dc15-1f2b-4853-94ea-18c36b3997b4","lat":34.78898859,"long":134.77615910,"status":"done","name":"中筋小学校の東側（ﾌｪﾝｽ）","address":"高砂市中筋1丁目2－1","city":"高砂市","number":"25-5"}, 
 {"id":"c6faf330-bfe2-44a7-ad7d-2a33df7bcce9","lat":34.73445160,"long":134.38629230,"status":"not_yet","name":"ちどり公園西面","address":"ちどり公園西面","city":"赤穂市","number":"30"}, 
 {"id":"c6fcbfba-4fad-4ac6-895d-906cb63b5010","lat":null,"long":null,"status":"not_yet","name":"大和第1公園（北側）鉄柵","address":"大和東1丁目113番地","city":"加西市","number":"278"}, 
 {"id":"c703adc1-4dd4-4d15-bfbc-3c90b8ab7dbe","lat":35.02761550,"long":134.93700980,"status":"done","name":"桑村繊維(株)北側防火水槽フェンス","address":"曽我井305-2","city":"多可町","number":"28"}, 
 {"id":"c70cfd56-4d81-4ccd-ad80-7ec6590a9569","lat":34.77493250,"long":134.91914210,"status":"done","name":"北新田鉄工団地入り口フェンス","address":"加古1004","city":"稲美町","number":"63"}, 
 {"id":"c70d539a-93ab-4703-8516-744c0faf6ea7","lat":34.64235550,"long":135.06320910,"status":"done","name":"山陽千鳥が丘下バス停道路柵","address":"垂水区向陽1丁目1番","city":"神戸市","number":"233"}, 
 {"id":"c70f9fd4-acd1-49d0-80d6-861e0256d450","lat":34.81041260,"long":134.68037050,"status":"done","name":"道ノ下公園南側","address":"masked","city":"姫路市","number":"386"}, 
 {"id":"c71c8e2d-930d-4805-bfe8-178ceec79877","lat":34.75371180,"long":134.84470170,"status":"not_yet","name":"良野新橋東詰ガードレール","address":"野口町良野(0071 旧県道二見加古川1号線)","city":"加古川市","number":"159"}, 
 {"id":"c7203223-8ab7-4fe4-8a15-baf18ff5a5ff","lat":34.86443060,"long":135.37828300,"status":"not_yet","name":"マンサク公園","address":"けやき坂4丁目4番地マンサク公園","city":"川西市","number":"236"}, 
 {"id":"c720870c-ea5b-4cd3-bccb-a4771c3c4748","lat":35.29905460,"long":134.83564690,"status":"not_yet","name":"JR竹田駅前","address":"竹田中町","city":"朝来市","number":"84"}, 
 {"id":"c7222915-027c-43d2-aa94-b7d59f73662e","lat":34.92026960,"long":135.17884510,"status":"done","name":"ゆりのき台６丁目　クリの木公園南側に野立て（ジャングルジム寄り）","address":"ゆりのき台6丁目 クリの木公園南側に野立て(ジャングルジム寄り)","city":"三田市","number":"260"}, 
 {"id":"c72662e1-e84d-4a25-bb82-fece8bce0dea","lat":34.88017260,"long":135.02382180,"status":"not_yet","name":"masked","address":"大畑428番地","city":"加東市","number":"147"}, 
 {"id":"c727452f-b42d-4f09-95fa-f5e833530e54","lat":35.16626400,"long":135.11178360,"status":"done","name":"国道175号線歩道　転落防止柵（下野村交差点付近）","address":"国道175号","city":"丹波市","number":"管理番号171春日12"}, 
 {"id":"c727b152-caeb-42f2-abe1-ddd30e76bcf4","lat":34.72773450,"long":134.90312780,"status":"not_yet","name":"防火水槽横空地","address":"六分一1178-94","city":"稲美町","number":"118"}, 
 {"id":"c73d014f-005d-4c4d-a118-68c7317c43b2","lat":34.70399800,"long":135.19764350,"status":"done","name":"生田川公園北西鉄柵","address":"中央区熊内橋通7丁目2番","city":"神戸市","number":"59"}, 
 {"id":"c741ce23-da1f-4952-8ded-89b4f040035b","lat":34.87707860,"long":134.55725520,"status":"not_yet","name":"島田公園フェンス","address":"龍野町島田","city":"たつの市","number":"77"}, 
 {"id":"c750615d-c95b-4822-b074-7f1ce7ffdf6b","lat":34.66578990,"long":135.06080160,"status":"done","name":"小束山小学校南西道路柵","address":"垂水区小束山本町2丁目16番","city":"神戸市","number":"179"}, 
 {"id":"c756ffa0-3be7-4fa4-a283-8fc01d447f85","lat":35.55132600,"long":134.59945520,"status":"not_yet","name":"masked","address":"村岡区山田1663-1","city":"香美町","number":"117"}, 
 {"id":"c757f6e7-5710-493c-9454-15a406a86603","lat":34.72841350,"long":135.36212490,"status":"done","name":"RANOAS甲子園東側鉄柵","address":"甲子園浜田町 11番","city":"西宮市","number":"305"}, 
 {"id":"c75969ba-871a-4347-aa82-be67c56c2de5","lat":34.87251450,"long":135.40083590,"status":"not_yet","name":"水明台第1公園（東側）金網","address":"水明台1丁目1番地の169水明台第1公園(東側)金網","city":"川西市","number":"204"}, 
 {"id":"c75b0031-bbf6-40fe-99af-ae57831611d8","lat":34.71936470,"long":134.89799380,"status":"done","name":"市道（清水新田公民館東側ガードレール）","address":"魚住町清水2473","city":"明石市","number":"472"}, 
 {"id":"c7631c1d-7f36-4dc8-9260-c690efc451fb","lat":35.53664490,"long":134.46509530,"status":"not_yet","name":"masked","address":"飯野","city":"新温泉町","number":"143"}, 
 {"id":"c765a162-409e-4683-a049-61ee94d66c19","lat":35.64841480,"long":134.82829290,"status":"not_yet","name":"元港西小学校体育館フェンス","address":"瀬戸57元港西小学校体育館フェンス","city":"豊岡市","number":"138"}, 
 {"id":"c768397a-40b6-470a-8a5f-07a81c71fa0e","lat":35.55650840,"long":134.44607290,"status":"not_yet","name":"山村製材所下　石垣","address":"千原","city":"新温泉町","number":"149"}, 
 {"id":"c768f4c5-c5fb-41df-9d30-583c3a54e72a","lat":34.68914990,"long":134.90027760,"status":"done","name":"錦浦小学校(東門南側フェンス)","address":"魚住町西岡東角1349","city":"明石市","number":"438"}, 
 {"id":"c769c15c-6819-42bc-b087-c705b85b498d","lat":null,"long":null,"status":"not_yet","name":"市立多田東小学校前鉄柵","address":"東多田3丁目22番7号","city":"加西市","number":"163"}, 
 {"id":"c76ba435-2225-43e0-8d3b-b77d9d983278","lat":35.14624120,"long":135.12440360,"status":"done","name":"貝市会館　記念碑前","address":"春日栗柄線","city":"丹波市","number":"管理番号202春日43"}, 
 {"id":"c76cf19b-4809-4733-a0e8-7c246a832c0c","lat":34.73966750,"long":135.40434890,"status":"done","name":"若松公園　東側","address":"立花町2丁目19若松公園 東側","city":"尼崎市","number":"283"}, 
 {"id":"c774bd9d-6070-492c-9367-b3dacabdf1aa","lat":35.10100620,"long":134.99554650,"status":"done","name":"県道福知山山南線歩道　転落防止柵(理容藤原付近)","address":"福知山山南線","city":"丹波市","number":"管理番号276山南58"}, 
 {"id":"c775f8e4-fd08-4827-b315-25ef103ceaec","lat":35.17834470,"long":135.12644620,"status":"done","name":"丹波ひかみ農協春日支店春日部店前　雑種地","address":"春日町多利","city":"丹波市","number":"管理番号180春日21"}, 
 {"id":"c7771395-82f5-4652-bc59-505697d1c7f2","lat":34.69956760,"long":135.20569280,"status":"done","name":"日暮公園鉄柵・ガードレール","address":"中央区日暮通3丁目1番","city":"神戸市","number":"78"}, 
 {"id":"c783febc-9001-4a15-a914-af295389ac7c","lat":34.69438080,"long":135.10162000,"status":"done","name":"千原公園西鉄柵","address":"須磨区白川台6丁目11番地の2","city":"神戸市","number":"191"}, 
 {"id":"c78b6474-8cec-41fb-a3b3-7b158685e29b","lat":34.90793000,"long":135.23112920,"status":"not_yet","name":"大原　中央病院北口バス停後方コンクリート塀","address":"大原 中央病院北口バス停後方コンクリ-ト塀","city":"三田市","number":"147"}, 
 {"id":"c78c41e5-47d1-4ce8-8f7f-0880c148884a","lat":null,"long":null,"status":"not_yet","name":"ラプルミエ花屋敷前ガードレール","address":"栄根2丁目7番","city":"加西市","number":"86"}, 
 {"id":"c78ca6b5-1ad2-4468-a143-756d784d1a18","lat":35.63401910,"long":134.62722040,"status":"not_yet","name":"旧正垣医院専用駐車場フェンス 一中登校路","address":"香住区香住853","city":"香美町","number":"31"}, 
 {"id":"c78ebbcf-a8e6-4c15-9720-2941c7396f24","lat":34.75982498,"long":134.79519050,"status":"done","name":"荒井地域交流センターの西側（植栽）","address":"高砂市荒井町扇町2－24","city":"高砂市","number":"4-5"}, 
 {"id":"c791c061-2669-4e70-a040-7855f6d83785","lat":34.82374220,"long":135.30002790,"status":"done","name":"名塩南台中央公園南西","address":"名塩南台３丁目13番の1","city":"西宮市","number":"510"}, 
 {"id":"c79adafb-e44b-4002-9aa5-fea629e1ca47","lat":34.77525730,"long":134.36667100,"status":"not_yet","name":"大津中央集会所入口左神社前柵","address":"大津中央集会所入口左神社前柵","city":"赤穂市","number":"49"}, 
 {"id":"c79b3074-958e-4b0e-9d14-9d8b0300e029","lat":35.15388950,"long":134.52269950,"status":"not_yet","name":"国道429号高橋バス停東約100m　待避所先車庫","address":"波賀町斉木1700","city":"宍粟市","number":"193"}, 
 {"id":"c7a0627a-e803-4e50-8932-3dda57a0954e","lat":34.72622630,"long":135.24482470,"status":"done","name":"御影山手中公園北側ガードレール","address":"東灘区御影山手4丁目15番","city":"神戸市","number":"252"}, 
 {"id":"c7a2923b-21ed-4ef8-9f75-ed4a12a4ef82","lat":34.67166920,"long":135.08316040,"status":"done","name":"菅の台小学校東金網","address":"須磨区菅の台4丁目3番地の2","city":"神戸市","number":"270"}, 
 {"id":"c7a3f305-a081-4dd1-8e4a-27b3a9e0b2d6","lat":34.45691620,"long":134.92891360,"status":"not_yet","name":"masked","address":"佐野新島","city":"淡路市","number":"71"}, 
 {"id":"c7a6067a-655d-4e09-bce3-8f686f3ab3d9","lat":35.23775230,"long":134.79464000,"status":"not_yet","name":"旧羽渕製材所フェンス","address":"新井２区","city":"朝来市","number":"120"}, 
 {"id":"c7a74751-9d4b-4d43-9643-5182b394794b","lat":34.44926980,"long":134.92114740,"status":"not_yet","name":"西造船所付近ガードレール","address":"生穂","city":"淡路市","number":"48"}, 
 {"id":"c7b11e6a-4710-430a-9e3a-d7c6e45d9c49","lat":34.80162740,"long":135.35749910,"status":"error_wrong_place","name":"末広自転車返還所南側植え込み","address":"宝塚市末広町3","city":"宝塚市","number":"46-01"}, 
 {"id":"c7be19ed-fa57-4e69-95ba-bd91fb7d2270","lat":34.71110750,"long":135.27391130,"status":"error_wrong_place","name":"魚崎八幡宮西側ガードレール(南寄り)","address":"東灘区魚崎南町3丁目19番","city":"神戸市","number":"135"}, 
 {"id":"c7c9d446-2598-464c-8ff8-3358b1287248","lat":34.91396720,"long":134.58330470,"status":"not_yet","name":"林田小学校北側フェンス","address":"林田町六九谷523","city":"姫路市","number":"304"}, 
 {"id":"c7cd0d50-9c09-4598-89c5-50b672297d16","lat":35.33042990,"long":134.90969250,"status":"done","name":"田ノ口集落センター向かい側","address":"田ノ口","city":"朝来市","number":"99"}, 
 {"id":"c7d67293-ffa0-4e47-9290-4581430fa795","lat":34.67751130,"long":134.98167320,"status":"not_yet","name":"バス停出合橋(明石行)付近","address":"西区玉津町出合103番地","city":"神戸市","number":"46"}, 
 {"id":"c7db876c-1049-4126-a016-2128229c63ec","lat":34.79644000,"long":135.36021580,"status":"done","name":"福井町2　水路ガードパイプ","address":"宝塚市福井町2","city":"宝塚市","number":"14-01"}, 
 {"id":"c7dc750e-3976-424a-bca8-041989c99628","lat":34.71864400,"long":135.23050790,"status":"done","name":"メゾンフレール北東側ガードパイプ","address":"灘区篠原中町2丁目1番","city":"神戸市","number":"158"}, 
 {"id":"c7e14117-f714-43d6-9f72-031a7ed925ff","lat":34.83739790,"long":135.11178800,"status":"not_yet","name":"北僧尾消防車庫北三叉路ガードレール","address":"北区淡河町北僧尾1102番地北","city":"神戸市","number":"403"}, 
 {"id":"c7e5945c-8734-4598-bd30-457fe9d0223c","lat":34.66169290,"long":134.95259350,"status":"done","name":"市道(レオパレスウィステリア西側植込)","address":"藤江765-1","city":"明石市","number":"199"}, 
 {"id":"c7e8ff63-7100-4751-b28f-934eae9bc0a9","lat":34.67458250,"long":135.01801900,"status":"done","name":"岩本接骨院付近","address":"西区北別府2丁目2番地の3","city":"神戸市","number":"118"}, 
 {"id":"c7e9b036-fc27-4305-83dd-3cd6f0c5f011","lat":35.65903760,"long":134.76313610,"status":"not_yet","name":"masked","address":"masked","city":"豊岡市","number":"235"}, 
 {"id":"c7eae878-c623-4d04-b0e2-17c192d498f9","lat":35.47133660,"long":134.59137250,"status":"done","name":"西本町団地（第1種）横 フェンス","address":"村岡区村岡323（西本町）","city":"香美町","number":"150"}, 
 {"id":"c7ef7efc-722f-45f0-a852-0264a8335f6e","lat":34.67880040,"long":135.16772720,"status":"done","name":"湊川トンネル南側 鉄柵","address":"兵庫区新開地1丁目4番","city":"神戸市","number":"127"}, 
 {"id":"c7f2ccf4-b36a-48a2-947a-26db9e525769","lat":34.69806510,"long":134.91025290,"status":"done","name":"鴨谷池東公園(西側フェンス)","address":"魚住町西岡367-4","city":"明石市","number":"420"}, 
 {"id":"c7fc45ac-dfb0-43d6-b76f-a840bba2d7bb","lat":34.83583430,"long":135.36359350,"status":"done","name":"中山桜台4丁目17-14付近　ガードパイプ","address":"宝塚市中山桜台4-17","city":"宝塚市","number":"52-01"}, 
 {"id":"c7fe4989-45b2-46a4-af21-f25f1f4f08c4","lat":35.03368970,"long":135.19859470,"status":"done","name":"宮の谷バス停前（国道372号沿い）","address":"真南条中","city":"丹波篠山市","number":"45-5"}, 
 {"id":"c8013154-a9c1-4404-871b-6a2f9fd355bc","lat":34.81450420,"long":135.36645730,"status":"done","name":"星の荘公園北側植え込み","address":"宝塚市星の荘13","city":"宝塚市","number":"41-04"}, 
 {"id":"c8056157-f019-4783-91d9-fa4f239b32d2","lat":34.72790790,"long":135.27226230,"status":"done","name":"岡本信愛幼稚園前(北側)ガードレール","address":"東灘区岡本2丁目11番","city":"神戸市","number":"106"}, 
 {"id":"c806b549-2e0b-4922-a880-2a6d3af3e698","lat":35.47909460,"long":134.95300070,"status":"not_yet","name":"高齢者生活支援センター「みはら」前市有地","address":"但東町三原523-3高齢者生活支援センタ-「みはら」前市有地","city":"豊岡市","number":"457"}, 
 {"id":"c80de3da-fbc5-4c5d-8603-fee7f62b5b59","lat":35.18911590,"long":134.65764130,"status":"not_yet","name":"草木公民館前","address":"一宮町草木180-3","city":"宍粟市","number":"173"}, 
 {"id":"c810b9c3-7a42-4fcb-ae9d-060f01d78981","lat":34.80645020,"long":135.34096610,"status":"done","name":"武庫山2丁目公園フェンス","address":"宝塚市武庫山2-4","city":"宝塚市","number":"07-01"}, 
 {"id":"c811e0ff-7590-41e3-b5fc-d2664acad7cb","lat":34.82737200,"long":134.95218200,"status":"not_yet","name":"池尻町下グラウンド入口　広島川沿い","address":"池尻町2338","city":"小野市","number":"16-109"}, 
 {"id":"c8229dc7-3a9a-4945-8560-cb11f25fa4a0","lat":34.70043360,"long":134.89964140,"status":"not_yet","name":"山川下池(北側ガードレール)","address":"魚住町西岡2290-10","city":"明石市","number":"454"}, 
 {"id":"c8354896-8457-410e-b2e0-b34b67deadf4","lat":34.69134130,"long":134.98118120,"status":"not_yet","name":"中之池東側付近","address":"西区神出町東","city":"神戸市","number":"314"}, 
 {"id":"c83af535-50c9-4e49-a71f-e76d69ae3311","lat":35.55700240,"long":134.82535270,"status":"done","name":"山本区公園斜面","address":"山本109付近山本区公園斜面","city":"豊岡市","number":"62"}, 
 {"id":"c8427cbd-8235-4f1c-a6b6-900c1df37bea","lat":34.65678480,"long":135.05306940,"status":"done","name":"UR新多聞団地421号棟東側鉄柵","address":"垂水区学が丘2丁目1番","city":"神戸市","number":"206"}, 
 {"id":"c84ff632-e9be-452e-8493-76b88bf683d8","lat":34.98671560,"long":134.99696400,"status":"not_yet","name":"県道黒田庄多井田線歩道柵（高嶋橋北側）","address":"鹿野町351","city":"西脇市","number":"135"}, 
 {"id":"c854f91e-e58a-4f37-9512-6d1a064a5e11","lat":34.76272350,"long":135.31104700,"status":"done","name":"西宮北高校北向","address":"苦楽園三番町 15番","city":"西宮市","number":"100"}, 
 {"id":"c856324f-f0e5-4bed-a49e-611a3cd31ce1","lat":34.72156600,"long":134.89446620,"status":"not_yet","name":"鳥池（南側フェンス）","address":"魚住町清水2254-6","city":"明石市","number":"475"}, 
 {"id":"c856ff67-51e1-4a24-9818-0cea80e74e1f","lat":34.76559510,"long":135.17752160,"status":"done","name":"神鉄花山駅南側花山神鉄駐車場金網","address":"北区山田町上谷上字古々谷2番地の5","city":"神戸市","number":"218"}, 
 {"id":"c86217cc-3358-49e6-a7f2-363de9ae0df9","lat":null,"long":null,"status":"not_yet","name":"masked","address":"東多田2丁目27番","city":"加西市","number":"168"}, 
 {"id":"c8631575-b5f4-45b3-ac28-963121b899b9","lat":null,"long":null,"status":"not_yet","name":"大和第4公園（西側）金網","address":"大和東2丁目28番地の7","city":"加西市","number":"282"}, 
 {"id":"c866f220-5b78-450e-8fff-a351f0766351","lat":34.69117900,"long":135.17056080,"status":"done","name":"平野会館北側","address":"兵庫区神田町11番10号","city":"神戸市","number":"13"}, 
 {"id":"c870016b-c0e0-4db0-8a17-6edd15a201be","lat":35.09327380,"long":135.20327780,"status":"done","name":"土地改良記念碑横市道路肩","address":"西浜谷","city":"丹波篠山市","number":"11-5"}, 
 {"id":"c87030a3-6787-4e47-ab38-bb4e054eb60e","lat":35.43671240,"long":134.60106490,"status":"not_yet","name":"masked","address":"村岡区日影690","city":"香美町","number":"176"}, 
 {"id":"c889c5c9-60b1-478d-b9da-603754abfa96","lat":34.89435930,"long":135.07511270,"status":"done","name":"県道平木南山線 道の駅とうじょう壁面","address":"南山1丁目5番地1","city":"加東市","number":"162"}, 
 {"id":"c88e89d1-9740-4186-a048-201f6d49f5a3","lat":34.76542550,"long":135.41656670,"status":"done","name":"阪急稲野駅南 西側金網","address":"稲野町1丁目76番地5","city":"伊丹市","number":"94"}, 
 {"id":"c88ee759-0004-473c-bfef-f97ad09adbff","lat":35.62332510,"long":134.44645480,"status":"not_yet","name":"京屋橋　防火水槽奥","address":"京屋","city":"新温泉町","number":"79"}, 
 {"id":"c88f627d-e17b-497d-b979-a9d56ceb07af","lat":34.83711940,"long":135.21440220,"status":"done","name":"堀井歯科前歩道鉄柵","address":"北区京地2丁目26番地","city":"神戸市","number":"310"}, 
 {"id":"c8950fe1-fa04-4008-a2de-a10919912212","lat":34.77719030,"long":135.37244450,"status":"done","name":"市営田近野町住宅3号棟西側 バス停横フェンス","address":"田近野町 7番","city":"西宮市","number":"445"}, 
 {"id":"c8969458-e2ff-4641-866f-f616bf683e64","lat":34.71450660,"long":135.35423660,"status":"done","name":"浜甲子園２丁目１４番西角植え込み","address":"浜甲子園２丁目 １４番２５号","city":"西宮市","number":"202"}, 
 {"id":"c896ffde-180f-44e4-855f-13703386665c","lat":34.34024100,"long":134.90226990,"status":"done","name":"神戸地方検察庁洲本支局前花壇","address":"山手一丁目1番","city":"洲本市","number":"8"}, 
 {"id":"c897313e-91b4-4732-98c2-ca8c3bcac463","lat":34.21723600,"long":134.82017500,"status":"not_yet","name":"吉野会館横ガードパイプ","address":"灘吉野511付近","city":"南あわじ市","number":"4-75"}, 
 {"id":"c8a2875d-a071-4795-8328-cd565b8f8fed","lat":34.68438310,"long":135.06240660,"status":"done","name":"太山寺中学校南側付近","address":"西区学園東町2丁目2番地","city":"神戸市","number":"72"}, 
 {"id":"c8b16596-455e-455c-a472-07a257e15d07","lat":35.11434700,"long":134.44177990,"status":"not_yet","name":"阿踏橋バス停付近三叉路 県道若桜下三河線歩道柵","address":"千種町下河野18-8地先","city":"宍粟市","number":"227"}, 
 {"id":"c8b59340-f12c-47f8-88c7-16f49538a87c","lat":34.81260940,"long":135.19859470,"status":"done","name":"阪神高速五社入口案内板たもと鉄柵","address":"北区八多町柳谷82番地の1付近","city":"神戸市","number":"344"}, 
 {"id":"c8b824bf-83b9-49f8-b7f7-cf9cfbb8e3c9","lat":34.66738860,"long":134.95976620,"status":"done","name":"市道(JR西明石駅北ガードレール)","address":"小久保2丁目6","city":"明石市","number":"210"}, 
 {"id":"c8b992e8-b178-487b-811c-9abecd2772e2","lat":34.65821120,"long":135.08459010,"status":"error_wrong_place","name":"茶の木山公園鉄柵","address":"垂水区桃山台5丁目7番","city":"神戸市","number":"251"}, 
 {"id":"c8bd9692-8361-4860-b5e1-9f4ebf7be67a","lat":34.34340710,"long":134.88736000,"status":"done","name":"洲本市リサイクルセンター北側","address":"栄町四丁目３番２８号","city":"洲本市","number":"17"}, 
 {"id":"c8c0a9cd-346c-4506-b1b2-949a5c012207","lat":34.71409810,"long":134.99192560,"status":"not_yet","name":"バス停大畑（明石行）付近","address":"西区平野町大畑146番地の1","city":"神戸市","number":"177"}, 
 {"id":"c8c48cd8-eefc-4eb9-adc9-d66b5992e415","lat":34.76142930,"long":135.23138650,"status":"not_yet","name":"高山植物園入口前駐車場西北ガードレール","address":"灘区六甲山町北六甲","city":"神戸市","number":"6"}, 
 {"id":"c8dfd60e-f6fe-4c4c-be07-564307e6bce9","lat":34.76077730,"long":135.39765020,"status":"done","name":"富松北公園 西側","address":"武庫之荘本町3-17 地先富松北公園 西側","city":"尼崎市","number":"464"}, 
 {"id":"c8e47cd4-663f-419f-82bb-93ef995d7309","lat":34.43854680,"long":134.90018840,"status":"done","name":"北欧村（前）フェンス","address":"志筑","city":"淡路市","number":"31"}, 
 {"id":"c8f58c9e-10f0-4e23-8a7b-7ab3884b9a4e","lat":34.87709440,"long":134.36084930,"status":"done","name":"上郡小学校（正門 横）","address":"上郡305","city":"上郡町","number":"3"}, 
 {"id":"c8f6c8f7-bbd0-423b-af33-298ee6dd3bec","lat":34.75136550,"long":135.41526030,"status":"done","name":"ロイヤルホームセンター塚口店 北西側","address":"南塚口町4-5ロイヤルホ-ムセンタ-塚口店 北西側","city":"尼崎市","number":"521"}, 
 {"id":"c90850fd-618a-41c0-b8fa-a444806a06fe","lat":34.67462550,"long":135.08068020,"status":"done","name":"山陽バス奥畑(北行)バス停前鉄柵","address":"垂水区名谷町(奥畑)","city":"神戸市","number":"49"}, 
 {"id":"c90b8360-726e-4d1b-9e1c-fbc117c2878d","lat":34.76895700,"long":135.36403400,"status":"done","name":"段上西公園北側フェンス","address":"段上町2丁目 3番","city":"西宮市","number":"432"}, 
 {"id":"c910bae3-c023-420a-a325-fb29a158c3f7","lat":34.89066320,"long":135.42335150,"status":"done","name":"大和第5公園(北側)金網","address":"大和東3丁目19番地の5大和第5公園(北側)金網","city":"川西市","number":"290"}, 
 {"id":"c912db01-315c-4f18-bc2f-4975891732a2","lat":34.79924000,"long":134.68594560,"status":"done","name":"高浜小学校南側","address":"飾磨区阿成鹿古671","city":"姫路市","number":"410"}, 
 {"id":"c9164295-6373-477a-bf51-553025f8a0e3","lat":34.67035690,"long":134.93330530,"status":"done","name":"八木会館(東側フェンス)","address":"大久保町八木206","city":"明石市","number":"301"}, 
 {"id":"c918a4fb-70cc-4758-920c-237760e7bf9b","lat":34.96480330,"long":135.12365450,"status":"not_yet","name":"釜屋集会センター向い市道路肩","address":"今田町釜屋","city":"丹波篠山市","number":"52-2"}, 
 {"id":"c922edc1-0db2-4652-ba5e-ae1646ce0925","lat":34.73446350,"long":135.42654500,"status":"done","name":"潮江緑遊公園 南側","address":"潮江5-5潮江緑遊公園 南側","city":"尼崎市","number":"115"}, 
 {"id":"c923a2cb-3b38-48e2-8450-e94c99b076b7","lat":34.80647340,"long":134.62081470,"status":"done","name":"小坂市営住宅南側","address":"広畑区小坂128－2","city":"姫路市","number":"523"}, 
 {"id":"c92b2c16-2323-430a-9553-fc5f225254cb","lat":34.90153900,"long":134.70980800,"status":"not_yet","name":"香呂南小学校入口　ガードパイプ","address":"香寺町須加院157番地1　地先","city":"姫路市","number":"783"}, 
 {"id":"c92c01d3-084e-4380-bebb-e242a51b38af","lat":35.63736210,"long":134.62020250,"status":"done","name":"クボタ営業所前歩道柵 国道178号沿い","address":"香住区七日市234","city":"香美町","number":"22"}, 
 {"id":"c934226f-0302-4ff7-b93c-aa66c54bd113","lat":34.99818660,"long":134.96774660,"status":"not_yet","name":"masked","address":"郷瀬町508-10","city":"西脇市","number":"32"}, 
 {"id":"c9354a24-cf14-4143-b14b-69dd5e6d9f74","lat":34.68106550,"long":135.14462670,"status":"done","name":"「大日寺前」バス停の鉄柵","address":"長田区明泉寺町2丁目1番","city":"神戸市","number":"49"}, 
 {"id":"c936f5e5-f8ae-46f9-b303-576b703b1afa","lat":34.75072500,"long":134.82501200,"status":"not_yet","name":"masked","address":"尾上町今福346-2外","city":"加古川市","number":"290"}, 
 {"id":"c940429b-ed09-4130-8943-fc3ff407266f","lat":34.75170750,"long":135.39327810,"status":"done","name":"阪急武庫之荘駅 北側西（バス停後）","address":"武庫之荘1丁目1阪急武庫之荘駅 北側西(バス停後)","city":"尼崎市","number":"423"}, 
 {"id":"c940528d-9b9b-434f-9501-694eb8fd5661","lat":35.48421520,"long":134.61570830,"status":"not_yet","name":"masked","address":"村岡区大棟318","city":"香美町","number":"157"}, 
 {"id":"c9413597-a4d7-463b-9da5-67e892f70030","lat":34.89135710,"long":135.20971790,"status":"not_yet","name":"下深田　ルーラーガーデン公園横フェンス","address":"下深田 ル-ラ-ガ-デン公園横フェンス","city":"三田市","number":"165"}, 
 {"id":"c94835b0-c99b-41f1-bb2f-aee2a2e40612","lat":34.74961090,"long":135.38202810,"status":"done","name":"阪急守部踏切 南東側","address":"南武庫之荘6丁目9 地先阪急守部踏切 南東側","city":"尼崎市","number":"435"}, 
 {"id":"c948ba02-98c0-4673-93a8-26ddae91ce0d","lat":34.81006160,"long":135.38544570,"status":"reserved","name":"荒牧デイサービスセンター前植込み","address":"荒牧5丁目16番27号","city":"伊丹市","number":"182"}, 
 {"id":"c959f5d4-5434-46f1-ba9b-63c51a7aabae","lat":34.68239350,"long":134.94355220,"status":"done","name":"市道(兵庫県職人の会西側ガードレール)","address":"大久保町大窪602-1","city":"明石市","number":"368"}, 
 {"id":"c974003b-7a83-49e5-b912-ad52fa75ede1","lat":35.01178700,"long":134.98717570,"status":"not_yet","name":"アルミック徳原蒲江スクラップセンター向い市道柵（交差点付近）","address":"蒲江","city":"西脇市","number":"22"}, 
 {"id":"c979d13f-3ecf-4a4a-aa30-cabfe80daa0e","lat":34.96700600,"long":134.83194200,"status":"not_yet","name":"下若井町公民館前花壇","address":"下若井町","city":"加西市","number":"203"}, 
 {"id":"c979ed1e-c488-4109-965e-c05449083f6f","lat":34.71687410,"long":135.38721910,"status":"done","name":"南川端こども広場北側","address":"大庄西町1-4-25南川端こども広場北側","city":"尼崎市","number":"194"}, 
 {"id":"c97d5459-95f7-4ebc-bd75-12718615fd48","lat":34.68627420,"long":134.94836580,"status":"done","name":"おおくぼ中之番公園(東側フェンス)","address":"大久保町大窪3348","city":"明石市","number":"338"}, 
 {"id":"c97f65c0-3733-4cbe-823b-4b1b001ad2d4","lat":34.75638990,"long":135.43322100,"status":"done","name":"丸橋公園 南西側","address":"口田中1-22丸橋公園 南西側","city":"尼崎市","number":"501"}, 
 {"id":"c985619c-b19b-4fad-8c9e-f1b1047b136f","lat":34.71935910,"long":135.12314480,"status":"done","name":"「星和台3」交差点南西側擁壁","address":"北区星和台4丁目12番地","city":"神戸市","number":"146"}, 
 {"id":"c985a5c2-aeb1-463e-b11d-566acc3aa308","lat":34.95824660,"long":135.03265080,"status":"done","name":"馬瀬公民館フェンス","address":"馬瀬340番地1","city":"加東市","number":"67"}, 
 {"id":"c98a5f86-929f-4b3d-b1c0-31eadc793d6c","lat":35.05681280,"long":134.76639100,"status":"not_yet","name":"加納バス停横　ガードフェンス","address":"加納","city":"神河町","number":"32"}, 
 {"id":"c98d1d50-8293-4a6f-be4a-47bf208010f7","lat":34.72566730,"long":135.37336590,"status":"done","name":"鳴尾北小学校東側","address":"学文殿町2丁目 2番7号","city":"西宮市","number":"274"}, 
 {"id":"c992a909-31bc-4cbd-9960-d3413cddf6fb","lat":34.71928960,"long":135.41456420,"status":"done","name":"阪神電鉄高架下フェンス（竹谷連協会館横）","address":"竹谷町3-182 地先阪神電鉄高架下フェンス(竹谷連協会館横)","city":"尼崎市","number":"17"}, 
 {"id":"c992d383-a93e-4522-a7cb-d267df641c5a","lat":34.94839920,"long":135.23841640,"status":"not_yet","name":"小野1563番地　農道ガードレール","address":"小野1563番地 農道ガ-ドレ-ル","city":"三田市","number":"108"}, 
 {"id":"c9a08901-6bab-4bde-8d3b-6e64d1e57130","lat":34.74627200,"long":135.32385020,"status":"done","name":"夙川小学校北側正門入口東","address":"久出ケ谷町 8番4号","city":"西宮市","number":"76"}, 
 {"id":"c9a3738d-694f-4229-b7f8-cdb9f65fbabc","lat":35.48845190,"long":134.57348860,"status":"not_yet","name":"和佐父公会堂付近 ガードレール","address":"村岡区入江468-2","city":"香美町","number":"130"}, 
 {"id":"c9a4df68-aadc-4446-9f4c-84171bdc12e6","lat":34.67279210,"long":134.98038370,"status":"done","name":"日新信用金庫玉津支店前付近","address":"西区王塚台7丁目40番地","city":"神戸市","number":"32"}, 
 {"id":"c9abbe16-ce72-483e-b17b-4cea79e2f0bb","lat":35.62332510,"long":134.44645480,"status":"not_yet","name":"漁協諸寄支所鉄鋼部建物前　ガードレール","address":"山根町","city":"新温泉町","number":"75"}, 
 {"id":"c9acf398-63b8-417b-899c-729540e17bf0","lat":35.00922530,"long":134.76861350,"status":"not_yet","name":"masked","address":"浅野302","city":"市川町","number":"9"}, 
 {"id":"c9adce13-0cf4-4bbb-80e2-78031e71d236","lat":34.77443620,"long":134.80959370,"status":"done","name":"米田多目的広場西側","address":"高砂市米田町米田927-7","city":"高砂市","number":"16-11"}, 
 {"id":"c9b39f2a-c2fd-4384-af83-6d630133fcc6","lat":35.50802960,"long":134.50296060,"status":"not_yet","name":"masked","address":"切畑","city":"新温泉町","number":"131"}, 
 {"id":"c9b64688-05f9-4bab-abba-2a603abc31a0","lat":35.00353740,"long":134.53901020,"status":"not_yet","name":"宍粟総合病院南側 外来専用駐車場フェンス（山崎西中学校正門前）","address":"山崎町鹿沢126","city":"宍粟市","number":"2"}, 
 {"id":"c9b6ee2d-7e02-4453-abbb-b4a8db9e60d0","lat":35.54630650,"long":134.61515660,"status":"not_yet","name":"山田口橋山田側 県道山田日高線","address":"村岡区山田","city":"香美町","number":"113"}, 
 {"id":"c9b8d560-de36-4d6f-b231-64fd832b66f4","lat":34.78816890,"long":135.37394830,"status":"done","name":"西野東川原公園 西側金網","address":"西野5丁目258番地","city":"伊丹市","number":"322"}, 
 {"id":"c9c22cca-3234-4c53-a9f2-295ad78970fe","lat":34.80783520,"long":134.70062290,"status":"not_yet","name":"旧兼田郵便局西空地","address":"兼田187-4","city":"姫路市","number":"649"}, 
 {"id":"c9c84eeb-56ae-44c2-aedc-fa6ca8838069","lat":34.80378690,"long":134.78281110,"status":"not_yet","name":"公園墓地の南側（中央分離帯の植栽）","address":"高砂市阿弥陀町阿弥陀745－2地先","city":"高砂市","number":"21-4"}, 
 {"id":"c9c97c1b-7bfe-4d72-bbfe-0106bc4d96a7","lat":34.25113710,"long":134.73424260,"status":"done","name":"南淡中学校フェンス","address":"潮美台3-1","city":"南あわじ市","number":"4-48"}, 
 {"id":"c9ccffec-113c-4f50-8e05-3f3b58e5b2c1","lat":35.08787280,"long":135.08407930,"status":"done","name":"ふるさと文化財の森センター　フェンス","address":"山南町篠場","city":"丹波市","number":"管理番号224山南6"},