[{"id":"000fe297-7963-43dd-98dd-c5be1241cf4e","lat":35.85831778,"long":139.93386220,"status":"done","name":"第16投票所 長崎小学校体育館","address":"野々下２丁目","city":"流山市","number":"7"}, 
 {"id":"00116441-08cb-44a8-8310-b19ccd354b15","lat":35.65288000,"long":140.11057000,"status":"done","name":"グリーンベルト（5棟前）","address":"稲毛区柏台1-5","city":"千葉市","number":"124"}, 
 {"id":"001660c4-1c8a-45a7-a219-38cad2dfeacf","lat":35.16665300,"long":139.82240050,"status":"done","name":"金谷第3区公民館前","address":"金谷2221-2","city":"富津市","number":"21-5"}, 
 {"id":"001cc83d-377b-497a-955a-08866cb7fd28","lat":35.71702360,"long":139.91447300,"status":"done","name":"大和田4丁目17大和田4丁目公園","address":"大和田4丁目17大和田4丁目公園","city":"市川市","number":"352"}, 
 {"id":"00220bc8-ebe3-4bee-bc21-01fab34755fb","lat":35.72082530,"long":139.95138040,"status":"done","name":"masked","address":"masked","city":"市川市","number":"190"}, 
 {"id":"0027c934-da0d-425e-ab1a-c0aece054f09","lat":35.32903950,"long":139.93176420,"status":"other","name":"日本製鉄八重原寮横","address":"八重原172","city":"君津市","number":"1-6"}, 
 {"id":"0028ff88-aac2-429b-9ced-7ed24540012a","lat":35.68164070,"long":140.02719410,"status":"error_wrong_place","name":"屋敷１丁目市営住宅屋敷団地４号側","address":"屋敷1丁目17番4号","city":"習志野市","number":"20-7"}, 
 {"id":"002b7182-7f92-4d34-afb5-5e1c1662b4c6","lat":35.74372490,"long":139.90772550,"status":"done","name":"国府台1丁目6-4スポーツセンター/入口","address":"国府台1丁目6-4スポーツセンター/入口","city":"市川市","number":"130"}, 
 {"id":"002e7a57-32f1-488c-a130-2f4743f8e98a","lat":35.84104400,"long":140.22925420,"status":"done","name":"本宮建設前","address":"布鎌酒直145","city":"栄町","number":"5-2"}, 
 {"id":"003ecd1c-66df-40d8-a0a8-ce0181c140d7","lat":35.76083800,"long":140.29005400,"status":"done","name":"公津の杜公園前","address":"公津の杜6丁目 9番地","city":"成田市","number":"39-6"}, 
 {"id":"003eddad-3bd6-4d30-ad95-79ea70b62cf8","lat":35.25878100,"long":140.29332000,"status":"not_yet","name":"旧すだれや向かい南側","address":"大野2133番地2","city":"いすみ市","number":"3-6"}, 
 {"id":"003fd17d-93ef-49d0-848b-7cd4f354491c","lat":35.39065450,"long":139.95463430,"status":"done","name":"小櫃堰公園前","address":"祇園358番地","city":"木更津市","number":"86"}, 
 {"id":"00489d6d-7d87-47c9-9b34-1f9d0da88f61","lat":35.46423800,"long":140.24303000,"status":"reserved","name":"masked","address":"船木425番地1","city":"長柄町","number":"1-6"}, 
 {"id":"004c88a9-adc6-4844-9307-104c4660973c","lat":35.13257660,"long":140.00953300,"status":"done","name":"尾沢橋前","address":"松尾寺454-2","city":"鴨川市","number":"6-7"}, 
 {"id":"0051985d-0384-4a9d-b29c-3fbe1b54442c","lat":35.64361040,"long":140.50053820,"status":"not_yet","name":"ビッグハウス横芝店（サンドラッグ）前","address":"栗山4750地先","city":"横芝光町","number":"3-1"}, 
 {"id":"0052829c-d549-4d3a-9f4e-c3a47f8bfd0b","lat":35.80320460,"long":140.10633400,"status":"done","name":"柳堤公園","address":"桜台3－10","city":"白井市","number":"3-10"}, 
 {"id":"0052ca85-fce4-4d0b-b3af-b34d7503dbf8","lat":35.49965300,"long":140.41273500,"status":"done","name":"諏訪神社前","address":"北今泉2076番地付近","city":"大網白里市","number":"10-2"}, 
 {"id":"0052effb-e067-4f7f-a3c1-f8ce4fc512b3","lat":35.72167210,"long":140.04823670,"status":"done","name":"北習志野近隣公園　５－２２棟前土手","address":"習志野台３丁目４－１北習志野近隣公園　５－２２棟前土手","city":"船橋市","number":"537"}, 
 {"id":"0053789a-4f22-4eaa-8c27-a596f56459d7","lat":35.64050600,"long":139.89817560,"status":"done","name":"弁天中央街区公園","address":"弁天2-19","city":"浦安市","number":"24_2"}, 
 {"id":"005e9fcb-6c79-4534-95a6-700fb9852bc3","lat":34.98681600,"long":139.86404590,"status":"done","name":"(株)間宮電気工業駐車場ブロック塀","address":"北条2649-1","city":"館山市","number":"7-6"}, 
 {"id":"00671cd1-0ee3-46a2-bcda-8640c279c756","lat":35.93858290,"long":139.86565520,"status":"reserved","name":"新下町バス停前","address":"野田7番地の2","city":"野田市","number":"31-6"}, 
 {"id":"0069a75c-45b2-4f3c-b980-f4a7760d77cf","lat":35.62554000,"long":140.17160100,"status":"done","name":"柳沢公園","address":"千葉市若葉区小倉台2-9","city":"千葉市","number":"12-4"}, 
 {"id":"007968ec-1949-4983-8312-f3366752d0bb","lat":35.73202190,"long":140.34905230,"status":"not_yet","name":"大天交差点先(根木名方向)","address":"根木名754","city":"富里市","number":"3-5"}, 
 {"id":"007d58be-8bbf-452a-8b1c-fcd4ed53459e","lat":35.72731900,"long":139.97072900,"status":"done","name":"法典西小学校　正門右側","address":"上山町１丁目１１１－５法典西小学校　正門右側","city":"船橋市","number":"182"}, 
 {"id":"007f6214-27b4-41a8-80e2-f2423ab03644","lat":35.70889140,"long":140.10696660,"status":"done","name":"柏井小学校(正門脇)","address":"花見川区柏井4-48-1","city":"千葉市","number":"22-1"}, 
 {"id":"00827774-914a-4fc5-be6c-1ff55ad862db","lat":35.71139020,"long":140.15643100,"status":"done","name":"中志津16号公園","address":"中志津3丁目3－4付近","city":"佐倉市","number":"17-4"}, 
 {"id":"00902b09-7103-41da-9849-c8067d61f0b2","lat":35.82758944,"long":139.95848530,"status":"done","name":"第１３投票区光ケ丘団地１２号棟前","address":"光ケ丘団地５番","city":"柏市","number":"13"}, 
 {"id":"009292f7-f850-4159-9d37-5d5a54ad08f5","lat":35.25214450,"long":140.39705950,"status":"not_yet","name":"旧第三保育所前","address":"大原9948番地","city":"いすみ市","number":"5-3"}, 
 {"id":"009970e3-722d-4758-878d-75bc1d2d7af3","lat":35.29447010,"long":140.12290290,"status":"done","name":"雨待野県水道置野加圧場前","address":"菅野33地先","city":"市原市","number":"87-5"}, 
 {"id":"009e3426-5a62-4f56-8c9c-a165bdecc309","lat":35.78626300,"long":140.31922900,"status":"done","name":"成田山弘恵会土屋駐車場前","address":"成田 445番地","city":"成田市","number":"1-5"}, 
 {"id":"009f4a28-2d4f-42fc-9a79-e030a0874af6","lat":35.81008800,"long":140.10936200,"status":"done","name":"浦幡新田公園北側","address":"印西市木刈1-4-6","city":"印西市","number":"9-2"}, 
 {"id":"00a3dcca-2709-4fb7-95b1-b5a32af91cc1","lat":36.01230630,"long":139.84540840,"status":"not_yet","name":"木間ケ瀬5894番地1ごみ集積場脇","address":"木間ケ瀬5894番地1","city":"野田市","number":"43-5"}, 
 {"id":"00a52f91-3d39-42a5-b3a5-4220855c844f","lat":35.67267000,"long":140.04207890,"status":"done","name":"幕張本郷駅前広場植樹枡","address":"花見川区幕張本郷1-1-3","city":"千葉市","number":"6-7"}, 
 {"id":"00a6aeea-3924-41b5-9131-ca23e6e024e0","lat":35.67257010,"long":139.90155690,"status":"done","name":"相之川4丁目7地下鉄南行徳駅/ロータリー","address":"相之川4丁目7地下鉄南行徳駅/ロータリー","city":"市川市","number":"528"}, 
 {"id":"00ba36a2-f9ad-4b77-8e0d-6cf32fce8117","lat":35.72100860,"long":140.12029500,"status":"done","name":"辺田前4号公園","address":"村上南5-7-6","city":"八千代市","number":"28-6-201"}, 
 {"id":"00be5792-a9e9-4c02-a64a-3807b5c7ee6e","lat":35.87291900,"long":140.49578000,"status":"done","name":"大根２－１橋本屋商店裏","address":"大根2-1付近大根2-1橋本屋商店裏","city":"香取市","number":"4-1"}, 
 {"id":"00c0902f-d512-44d0-bb1f-c3fea6554826","lat":35.67914440,"long":140.62886770,"status":"not_yet","name":"masked","address":"駒込905-193","city":"旭市","number":"7_9"}, 
 {"id":"00c5a6ba-023f-49f7-9d34-44574f30df6b","lat":35.49126100,"long":140.42038000,"status":"done","name":"masked","address":"南今泉4757番地付近","city":"大網白里市","number":"11-1"}, 
 {"id":"00d8d56d-37e8-460b-904a-f42d5a95c717","lat":35.50237700,"long":140.40942400,"status":"done","name":"masked","address":"北今泉1320番地付近","city":"大網白里市","number":"10-1"}, 
 {"id":"00ea68ec-5eaf-4856-8bbf-60a4cdf92390","lat":35.84073500,"long":139.95000330,"status":"done","name":"第9投票所 向小金小学校体育館","address":"向小金３丁目","city":"流山市","number":"6"}, 
 {"id":"00eae90a-15e0-4421-b4ce-2bc088a1fba1","lat":35.73730580,"long":140.01388300,"status":"done","name":"金杉台小学校　入口左側","address":"金杉台２丁目１－７金杉台小学校　入口左側","city":"船橋市","number":"285"}, 
 {"id":"00ef4b31-f3aa-4ef8-9f58-61cff22aa3bc","lat":35.84366240,"long":140.24743650,"status":"done","name":"ふれあいプラザさかえ正門脇","address":"安食938-1","city":"栄町","number":"6-6"}, 
 {"id":"00f51b7f-1661-49d0-b67a-99258ab19dc1","lat":35.58646480,"long":140.14947630,"status":"done","name":"前藤公園","address":"中央区松ヶ丘町373地先前藤公園","city":"千葉市","number":"170"}, 
 {"id":"01072b01-9482-480f-8cc8-748f1054cecb","lat":35.13866000,"long":140.26420900,"status":"done","name":"旧日本工機興津工場三叉路","address":"守谷９７","city":"勝浦市","number":"5-8"}, 
 {"id":"010d1a5d-9b9c-4bfe-b394-5c56fb3a74a6","lat":35.93790880,"long":139.88530340,"status":"done","name":"masked","address":"花井190番地","city":"野田市","number":"29-1"}, 
 {"id":"01164a21-bdf2-4f24-ad0d-97a76ade9f3b","lat":35.71332900,"long":140.56776400,"status":"not_yet","name":"椿海分団第1部消防機庫南側","address":"椿1705-11地先","city":"匝瑳市","number":"12-4"}, 
 {"id":"0117c725-c681-4a32-96de-49b7a4eed01f","lat":35.70100200,"long":140.73832320,"status":"done","name":"masked","address":"八木2442","city":"旭市","number":"14_1"}, 
 {"id":"011a2efe-89bd-4668-b9de-6325abe38c8f","lat":35.70428620,"long":139.96924620,"status":"done","name":"海神西広場　東側","address":"海神６丁目１９－３海神西広場　東側","city":"船橋市","number":"129"}, 
 {"id":"0126f2a8-fad9-4ac6-acf6-af8202e4852b","lat":35.29641840,"long":139.95078460,"status":"done","name":"masked","address":"白駒37","city":"君津市","number":"17-3"}, 
 {"id":"012cff88-1919-48e4-abc5-c9bb114e2515","lat":35.78594920,"long":140.02618880,"status":"done","name":"中木戸公園前","address":"大山口1－26番地先","city":"白井市","number":"7-5"}, 
 {"id":"0130811a-607c-4e20-bd2d-0a358cc253e1","lat":35.88543300,"long":140.37767000,"status":"done","name":"高塩田踏切T字路","address":"高 342番地1","city":"成田市","number":"32-6"}, 
 {"id":"01309710-d823-4a37-a0f5-7043558f1f64","lat":35.69185330,"long":140.18614700,"status":"done","name":"千代田近隣公園","address":"千代田五丁目28番","city":"四街道市","number":"9-5"}, 
 {"id":"0136fd3b-59e8-4e9a-a3f7-4ae2892995f1","lat":35.32536000,"long":139.91762600,"status":"done","name":"南子安公園","address":"南子安5-8","city":"君津市","number":"4-5"}, 
 {"id":"014e02a0-518d-4039-bed9-3819a0224311","lat":35.50174220,"long":140.23492620,"status":"done","name":"新屋三叉路","address":"金剛地1567-3地先","city":"市原市","number":"54-1"}, 
 {"id":"016ab00d-3703-4b2d-ac58-8cd763e43765","lat":35.85299500,"long":139.97777530,"status":"done","name":"masked","address":"千代田三丁目６番","city":"柏市","number":"21"}, 
 {"id":"0170f7d2-cf6c-4dec-ae65-f28ae0cb7597","lat":35.87349660,"long":140.58948340,"status":"done","name":"ホソネ理容店前","address":"富田992-4付近ホソネ理容店前","city":"香取市","number":"30-6"}, 
 {"id":"01766053-57ea-4ebf-b8ab-70a1c6cb89ff","lat":35.84283889,"long":139.97135470,"status":"done","name":"第２９投票区永楽台近隣公園北側","address":"永楽台二丁目１１番","city":"柏市","number":"29"}, 
 {"id":"017af039-c08d-4c49-b849-580b0d89208a","lat":35.62711040,"long":140.19457210,"status":"done","name":"御成台1丁目公園","address":"若葉区御成台1-9","city":"千葉市","number":"14-5"}, 
 {"id":"018c4d0d-0558-49b8-924c-df48c3ed76fa","lat":35.72664350,"long":140.02373830,"status":"done","name":"高根中学校　テニスコート西側","address":"新高根６丁目４５高根中学校　テニスコート西側","city":"船橋市","number":"469"}, 
 {"id":"01ab7ff5-1f32-43e7-8054-dc9452029b81","lat":35.49387900,"long":140.10938100,"status":"done","name":"国分寺台神門公園","address":"惣社5-8-1","city":"市原市","number":"44-4"}, 
 {"id":"01adc74f-79f8-4969-b561-2c8e7c33b1f2","lat":35.67936780,"long":139.91346830,"status":"done","name":"湊新田2丁目4駅前公園／南側","address":"湊新田2丁目4駅前公園／南側","city":"市川市","number":"482"}, 
 {"id":"01af79bb-d9dc-4113-8963-c70be79105a5","lat":35.65317390,"long":140.07749250,"status":"done","name":"花園1丁目東側グリーンベルト","address":"花見川区花園5-1-3","city":"千葉市","number":"1-8"}, 
 {"id":"01b8972d-1546-4df8-b944-48e3eaac72db","lat":35.84426020,"long":140.29697730,"status":"done","name":"NTT南羽鳥電話交換センター前","address":"南羽鳥 1823番地3","city":"成田市","number":"10-2"}, 
 {"id":"01bdd271-5ea4-40f0-8a7d-73cc7f69e4b0","lat":35.54201210,"long":140.40934070,"status":"done","name":"オートランドさくらい付近","address":"薄島１５５−１０","city":"東金市","number":"23-6"}, 
 {"id":"01c40070-fe76-4dc6-9a27-0e4e24f4e183","lat":35.81744778,"long":139.95451110,"status":"done","name":"第４１投票区柏市立酒井根西小学校こどもルーム側","address":"酒井根６６２番地の１","city":"柏市","number":"41"}, 
 {"id":"01ca7049-0bb8-4254-949c-a2716ff6db80","lat":35.63588000,"long":140.12080000,"status":"done","name":"千草台団地25棟横","address":"稲毛区千草台2-2-25地先","city":"千葉市","number":"18"}, 
 {"id":"01cae47e-e1c7-4056-b082-b3b81384529b","lat":35.65912430,"long":139.89657470,"status":"done","name":"江川児童公園","address":"堀江2-1","city":"浦安市","number":"2_1"}, 
 {"id":"01d71d02-c34b-4307-9246-5e136b7c1347","lat":35.79138392,"long":139.89654740,"status":"done","name":"つつみ公園(東側)","address":"樋野口563","city":"松戸市","number":"23-1"}, 
 {"id":"01da2595-7614-43be-b377-3a6ad8f56f61","lat":35.44498060,"long":140.10315360,"status":"done","name":"3丁目寺松公園","address":"光風台3-706","city":"市原市","number":"53-3"}, 
 {"id":"01de055f-6579-4ab2-a9a8-20ae4e3ec024","lat":35.01519680,"long":139.96415110,"status":"done","name":"古川山車小屋前","address":"安馬谷2216","city":"南房総市","number":"23-1"}, 
 {"id":"01e16eec-b9ca-4830-a242-93ae5d2dc641","lat":35.86241167,"long":139.96109890,"status":"done","name":"第１７投票区オーベルグランディオ柏駐車場前植樹帯","address":"豊四季台二丁目１番","city":"柏市","number":"17"}, 
 {"id":"01e65693-4bc6-4d3f-9021-968e6cc8ccd8","lat":35.39446290,"long":140.09702110,"status":"done","name":"医矢寺中","address":"栢橋775","city":"市原市","number":"78-6"}, 
 {"id":"01ea0565-a227-4b7f-b42a-c9520dc18c27","lat":35.86367528,"long":139.90551690,"status":"done","name":"第38投票所 三輪会館","address":"三輪野山１丁目","city":"流山市","number":"4"}, 
 {"id":"01ee528b-e227-4468-8d97-90b21e4747a5","lat":35.74983770,"long":140.04064760,"status":"done","name":"大穴第２号公園　西側入口左","address":"三咲８丁目２０－１大穴第２号公園　西側入口左","city":"船橋市","number":"630"}, 
 {"id":"01f7e85c-e901-40df-ad73-d814f7e8f9b8","lat":35.77312220,"long":140.10774490,"status":"done","name":"大学町5-964-102他","address":"佐山第2緑地","city":"八千代市","number":"37-3-267"}, 
 {"id":"01f966ef-a8eb-453e-96b6-77148640eaf8","lat":35.61788580,"long":140.09489240,"status":"done","name":"旧幸町第2小学校","address":"美浜区幸町2-9-4","city":"千葉市","number":"20-1"}, 
 {"id":"01fb2b59-c5c7-441f-92ff-c5fc6f1c1a70","lat":35.18977800,"long":140.26680500,"status":"not_yet","name":"向小羽戸入口三叉路","address":"大楠1810","city":"勝浦市","number":"11-9"}, 
 {"id":"02004bb5-59eb-4f4c-8f4e-c6eebd0c498e","lat":35.74055510,"long":139.91562810,"status":"done","name":"東国分2丁目4-1国分小学校/南側","address":"東国分2丁目4-1国分小学校/南側","city":"市川市","number":"81"}, 
 {"id":"0206ea64-18e5-4eea-a6a2-6a5d1e50748e","lat":35.69117880,"long":140.09388370,"status":"done","name":"花見川3-8棟前","address":"花見川区花見川3-8","city":"千葉市","number":"21-7"}, 
 {"id":"020d2f17-704a-44aa-a7e8-8901e1dfe64a","lat":35.63319000,"long":140.15597700,"status":"done","name":"若葉保健福祉センター駐車場","address":"千葉市若葉区桜木6-14-1地先","city":"千葉市","number":"1-3"}, 
 {"id":"0215fae2-7ece-4bc4-9490-690adadcf299","lat":35.65122872,"long":140.33221006,"status":"done","name":"masked","address":"大木688番地2","city":"山武市","number":"20-2"}, 
 {"id":"021f1727-256f-418d-812a-d860c047ae46","lat":35.62835300,"long":140.53369100,"status":"not_yet","name":"長深 旧消防機庫東側","address":"木戸10459-2地先","city":"横芝光町","number":"16-1"}, 
 {"id":"0220e6df-bc7f-4545-b674-bfb26ca98686","lat":35.37914170,"long":139.94197660,"status":"reserved","name":"masked","address":"太田2丁目15番地先","city":"木更津市","number":"69"}, 
 {"id":"02272b15-1244-4ea0-b5b5-a61456784c90","lat":35.40611430,"long":140.26616530,"status":"done","name":"中善寺番場神社前","address":"中善寺４６７","city":"茂原市","number":"14-7"}, 
 {"id":"0227c6b2-44fc-4987-bf81-db3f052e54e1","lat":35.47102080,"long":140.13063650,"status":"done","name":"西面小学校正面","address":"海士有木1130番地","city":"市原市","number":"46-9"}, 
 {"id":"0228985f-7c47-48d6-890a-5eb57bedd479","lat":35.44872370,"long":140.26204810,"status":"done","name":"二宮福祉センター入口","address":"国府関１７１４－９","city":"茂原市","number":"15-5"}, 
 {"id":"022babd6-17a1-432e-9c0c-371cd27d952a","lat":35.25365600,"long":140.38501400,"status":"done","name":"市役所大原庁舎","address":"大原7400番地1","city":"いすみ市","number":"4-1"}, 
 {"id":"022c1765-8c21-4323-a3dc-f29af95c3c51","lat":35.44441340,"long":140.36312990,"status":"done","name":"関南区農村協同館前","address":"関６８００","city":"白子町","number":"3-3-5"}, 
 {"id":"022f5b7e-b7fe-4adc-be10-0f5769ee01c6","lat":35.76053340,"long":139.90763450,"status":"done","name":"北国分3丁目9いなりざく公園","address":"北国分3丁目9いなりざく公園","city":"市川市","number":"116"}, 
 {"id":"022fea2a-7ffc-44a7-8cc9-19146235a2a6","lat":35.72324590,"long":139.91312800,"status":"done","name":"新田3丁目14新田南公園/西側","address":"新田3丁目14新田南公園/西側","city":"市川市","number":"335"}, 
 {"id":"023bc490-2694-423c-9194-ad778963a393","lat":35.71133330,"long":140.09861310,"status":"done","name":"八千代台北15丁目第2児童遊園","address":"八千代台北15-1587-44","city":"八千代市","number":"7-4-47"}, 
 {"id":"023cab2b-5908-4bea-be56-f973356ebc11","lat":35.82727678,"long":139.90303960,"status":"done","name":"あじさい公園（東側）","address":"新松戸7丁目79","city":"松戸市","number":"91-2"}, 
 {"id":"023e7bdb-185a-4779-acef-fe8ef43a4e84","lat":35.72565860,"long":140.09447210,"status":"done","name":"調整池（萱田町542-16）","address":"萱田町542-16","city":"八千代市","number":"19-5-134"}, 
 {"id":"023edbe1-f4f5-428e-a9b4-e15b5e863628","lat":35.53098520,"long":140.13389100,"status":"done","name":"高田橋公園前","address":"若宮7-5","city":"市原市","number":"16-1"}, 
 {"id":"02438c6d-09ea-458b-abed-17105aea04ba","lat":35.34726720,"long":140.03159970,"status":"reserved","name":"湯名貯水池前","address":"下郡1086番地1","city":"木更津市","number":"233"}, 
 {"id":"02499123-866a-4646-ac12-9525a5732d8c","lat":35.80171396,"long":139.96415740,"status":"done","name":"田中月原有料駐車場（京成住宅バス停後ろ）","address":"金ケ作301-8","city":"松戸市","number":"55-2"}, 
 {"id":"024dde2c-913b-4888-b4a3-edd615def275","lat":35.47663580,"long":140.35404040,"status":"done","name":"豊岡福祉センター前","address":"粟生野2675","city":"茂原市","number":"21-6"}, 
 {"id":"024e396e-6c14-40bf-b156-6ef3ec75fe9a","lat":35.74009300,"long":140.45564300,"status":"done","name":"染井ふれあい館前","address":"染井341-3","city":"多古町","number":"2-6"}, 
 {"id":"0250dd64-51f6-4bcb-a1fc-e58ac5e03fa2","lat":35.67337680,"long":140.17198250,"status":"done","name":"栗山半台児童遊園","address":"栗山1074番地","city":"四街道市","number":"14-2"}, 
 {"id":"02515d50-5d7e-4c5c-9cde-192b6ecf895b","lat":35.32762000,"long":140.17020000,"status":"not_yet","name":"湯原観音前三叉路","address":"古敷谷1911地先","city":"市原市","number":"85-4"}, 
 {"id":"02539a2f-086a-4fdd-99b9-92dd2b98c3f3","lat":35.79933324,"long":139.96052410,"status":"done","name":"常盤平第二小学校東側駐車場","address":"常盤平4丁目15","city":"松戸市","number":"46-2"}, 
 {"id":"0253edcd-f41d-4c4e-9ee8-72d4e9fb7c62","lat":35.55368800,"long":140.30558800,"status":"done","name":"むぎわら公園前","address":"季美の森南四丁目7番地1","city":"大網白里市","number":"18-6"}, 
 {"id":"025a66d1-e81a-4930-bf84-b17a9cc0912e","lat":35.67675620,"long":140.10900790,"status":"done","name":"渡辺電設付近歩道","address":"緑区高田町1354-4","city":"千葉市","number":"9-7"}, 
 {"id":"025ddf35-8376-40d1-8a35-3502abd7fa42","lat":35.72660130,"long":139.91250550,"status":"done","name":"新田2丁目29地先JR高架下鉄柵","address":"新田2丁目29地先JR高架下鉄柵","city":"市川市","number":"322"}, 
 {"id":"02682efc-ef24-4621-adb7-4c661c9f9650","lat":35.82300101,"long":139.94569470,"status":"done","name":"根木内小学校(南側)","address":"小金原2丁目3","city":"松戸市","number":"74-7"}, 
 {"id":"026c9e49-2475-4e52-978f-ea3238aa5c18","lat":35.63474000,"long":140.12014000,"status":"done","name":"千草台団地27棟横","address":"稲毛区千草台2-2-27地先","city":"千葉市","number":"20"}, 
 {"id":"0270ee52-e5fc-4729-832a-4290b391aa8a","lat":35.84898722,"long":139.90704890,"status":"done","name":"第42投票所 西平井自治会館","address":"西平井一丁目","city":"流山市","number":"1"}, 
 {"id":"0277166e-c880-41e6-abe8-336015acc13f","lat":35.62218480,"long":140.10751880,"status":"done","name":"メゾン西千葉前","address":"中央区松波2-22-11地先メゾン西千葉前","city":"千葉市","number":"44"}, 
 {"id":"027d4a8a-c812-4aed-af35-a95478d0633b","lat":35.72837830,"long":140.84847150,"status":"done","name":"masked","address":"masked","city":"銚子市","number":"4-3"}, 
 {"id":"0281b807-b40f-4b2c-bad6-b68d7236a294","lat":35.72058540,"long":139.94899730,"status":"done","name":"中山2丁目11法華経寺駐車場","address":"中山2丁目11法華経寺駐車場","city":"市川市","number":"187"}, 
 {"id":"028425e7-42b9-4665-aee8-ba9621a2b117","lat":35.36305050,"long":139.94758410,"status":"done","name":"遠見公園南側","address":"請西東7丁目6番地","city":"木更津市","number":"36"}, 
 {"id":"0285763d-d2fa-460c-b11b-8541eeb42907","lat":35.46542000,"long":140.04885000,"status":"done","name":"みどりケ丘南公園","address":"青葉台7丁目24","city":"市原市","number":"3-2"}, 
 {"id":"02890881-e1b4-4a07-a22f-dbf85e465a0c","lat":35.38361430,"long":139.95888090,"status":"done","name":"池際公園内","address":"清見台東2丁目21番","city":"木更津市","number":"251"}, 
 {"id":"029a1afc-1cf9-4b13-968b-db55e2caf099","lat":35.71441860,"long":140.12930610,"status":"done","name":"勝田台第7公園","address":"勝田台7-16-1","city":"八千代市","number":"33-5-239"}, 
 {"id":"02a5f96a-38db-4e20-b88a-96d07750998d","lat":35.74859450,"long":139.95775910,"status":"done","name":"NTT大野電話交換センタ（大野町3丁目2073）","address":"NTT大野電話交換センタ（大野町3丁目2073）","city":"市川市","number":"19"}, 
 {"id":"02a710f2-afd9-48d2-8805-6e269b879eda","lat":35.94775710,"long":139.89719880,"status":"not_yet","name":"上鹿野公園前","address":"木野崎1901番地の4","city":"野田市","number":"25-2"}, 
 {"id":"02adbb96-ef77-4e68-bc2a-153697b7cc74","lat":35.71881290,"long":140.04398630,"status":"done","name":"習志野台緑地　緑地内","address":"習志野台３丁目２０習志野台緑地　緑地内","city":"船橋市","number":"538"}, 
 {"id":"02d27b4a-8170-4e68-9f1a-15ae935df508","lat":35.42866410,"long":139.94064620,"status":"done","name":"真言宗照光寺ブロック塀","address":"中野43番地1","city":"木更津市","number":"177"}, 
 {"id":"02d4d434-6df6-4d20-a09b-13bbe4bd8d8e","lat":35.68989020,"long":140.10166480,"status":"done","name":"柏井市民の森（花見川6-17棟向い）","address":"花見川区柏井町884","city":"千葉市","number":"20-5"}, 
 {"id":"02dc54bd-4f18-42d5-b4ea-2650b194f1ba","lat":35.81703753,"long":139.91532820,"status":"done","name":"岩崎子供の遊び場（西側）","address":"西馬橋1丁目34-3","city":"松戸市","number":"95-2"}, 
 {"id":"02e4442f-c5cd-47e3-9fda-25d330266431","lat":35.43636720,"long":139.91875090,"status":"done","name":"彩華宴向側","address":"中島3929番地","city":"木更津市","number":"166"}, 
 {"id":"02ec278d-fc9a-4c71-9109-a3189e2aa0cc","lat":35.65838000,"long":140.31692000,"status":"done","name":"山本 博雅所有駐車場ブロック塀","address":"八街ほ308番地2","city":"八街市","number":"3-8"}, 
 {"id":"02fb73a2-28ea-401c-be80-6c3cc6b5e8e3","lat":35.34866180,"long":140.05781850,"status":"done","name":"山本青年館付近","address":"山本1680-1","city":"君津市","number":"23-9"}, 
 {"id":"02fc45d6-ec88-44d3-b211-a58eb53e9973","lat":35.37015950,"long":140.15049290,"status":"not_yet","name":"masked","address":"駒込6地先","city":"市原市","number":"83-2"}, 
 {"id":"03170543-e0da-4dad-a3e1-fe8c938bae7a","lat":35.16740620,"long":140.26749410,"status":"not_yet","name":"荒川テニスコート前","address":"荒川194-2","city":"勝浦市","number":"9-1"}, 
 {"id":"0317b129-d9e3-4ca0-bcc2-5453ca20b998","lat":35.16311680,"long":139.82204070,"status":"done","name":"天羽漁業協同組合製氷工場前","address":"金谷4144-6","city":"富津市","number":"21-6"}, 
 {"id":"031b6dd8-6ac6-48ed-aff8-6da96b29788f","lat":35.12684870,"long":140.19582270,"status":"done","name":"masked","address":"内浦2601-5","city":"鴨川市","number":"20-1"}, 
 {"id":"031d51be-2e5d-44f5-b0d8-55959c83b92b","lat":35.79381084,"long":139.90638020,"status":"done","name":"向町児童公園(西側)","address":"南花島町251","city":"松戸市","number":"21-6"}, 
 {"id":"03228ef3-d2a3-416a-be48-4a244b42c9eb","lat":35.71720310,"long":140.13810310,"status":"done","name":"なのはな介護サービス 陣","address":"井野1455-23付近","city":"佐倉市","number":"18-2"}, 
 {"id":"03242ef0-bd8b-444d-bdf5-c7cac3084000","lat":35.47462140,"long":140.30364460,"status":"done","name":"masked","address":"本納２７４６−１","city":"茂原市","number":"19-6"}, 
 {"id":"032ed8f4-5b84-4598-87f1-f647c19714f1","lat":35.46900900,"long":140.05357490,"status":"done","name":"矢戸ノ下公園","address":"青葉台5丁目15-1","city":"市原市","number":"7-9"}, 
 {"id":"03315e62-8d97-4efe-9063-104891e7d15f","lat":35.79162220,"long":140.27858480,"status":"done","name":"山田商店脇","address":"八代 1410番地1","city":"成田市","number":"3-5"}, 
 {"id":"0334d937-2c78-4a83-b82c-ef36b8dd65d1","lat":35.82370810,"long":139.93466610,"status":"done","name":"二葉公園フェンス","address":"二ツ木二葉町198-23","city":"松戸市","number":"71-4"}, 
 {"id":"0337ea20-cc1e-419a-96e4-baea80355f09","lat":35.73590190,"long":139.93033900,"status":"done","name":"宮久保1丁目4昭和学院小学校グランド","address":"宮久保1丁目4昭和学院小学校グランド","city":"市川市","number":"158"}, 
 {"id":"03381b79-6dcc-47bb-a876-644dc14c4ec2","lat":35.89489667,"long":139.97411610,"status":"done","name":"第３８投票区旧吉田家住宅歴史公園駐車場南側","address":"花野井９７８番地の５","city":"柏市","number":"38"}, 
 {"id":"034c44be-b914-47bb-bb8f-6743c3869041","lat":35.26268700,"long":140.25890900,"status":"not_yet","name":"堀之内区倉庫前","address":"堀之内385-1","city":"大多喜町","number":"5-5"}, 
 {"id":"035390ef-b2f5-44b5-823b-dfdbb4de7ebc","lat":35.81065039,"long":139.92679350,"status":"done","name":"道合第2公園(東側)","address":"八ケ崎7丁目20","city":"松戸市","number":"82-3"}, 
 {"id":"03597286-85cd-4736-ae73-bbb9babe058b","lat":35.90433500,"long":139.92415080,"status":"done","name":"第５９投票区緑町第一公園","address":"みどり台四丁目９番","city":"柏市","number":"59"}, 
 {"id":"035e21ab-b4f6-4667-9a74-822e0092a623","lat":35.26521490,"long":139.91059450,"status":"not_yet","name":"masked","address":"宝竜寺227-1","city":"富津市","number":"13-2"}, 
 {"id":"036330ac-5a14-4359-8906-0c550db83349","lat":35.87894070,"long":140.02577430,"status":"done","name":"日新集会場前","address":"柴崎13日新集会場前","city":"我孫子市","number":"33"}, 
 {"id":"0367a2a3-d61b-4425-af13-dce270568bc1","lat":35.68749210,"long":140.65051050,"status":"not_yet","name":"中谷里浜区コミュニ ティセンター","address":"仁玉2280-3","city":"旭市","number":"7_7"}, 
 {"id":"0367a594-7985-46f5-b3d6-1b2345bebb3d","lat":35.67985260,"long":140.04389090,"status":"done","name":"花咲1丁目8番都市計画道路脇","address":"花咲1丁目8番11号","city":"習志野市","number":"23-2"}, 
 {"id":"0367faa5-4868-4b5f-ae08-61a14bb3a5a5","lat":35.58419960,"long":140.22426890,"status":"done","name":"野呂団地イチハラクリナース横空地","address":"若葉区野呂町1793","city":"千葉市","number":"21-5"}, 
 {"id":"036a2168-f239-4a9b-ae2e-a4fcddee4e42","lat":35.71155900,"long":140.65123000,"status":"not_yet","name":"masked","address":"ハの2795-1","city":"旭市","number":"6_8"}, 
 {"id":"036c6b22-61db-41f2-878f-1aaadc6a209f","lat":35.52903090,"long":140.36444500,"status":"done","name":"上谷３区公民館附近","address":"上谷１３１７","city":"東金市","number":"14-8"}, 
 {"id":"03750e77-c4f7-4b6b-a023-6a35ec7bb809","lat":35.56473810,"long":140.36710600,"status":"done","name":"田間中央公園前","address":"田間３−８","city":"東金市","number":"24-4"}, 
 {"id":"03790d49-8652-49ad-bb24-a315518100da","lat":36.05064650,"long":139.81486620,"status":"done","name":"二川公民館前","address":"桐ケ作51番地1","city":"野田市","number":"39-8"}, 
 {"id":"037bfe5b-da48-453d-81f7-ecb83b424af8","lat":35.72451160,"long":140.85861600,"status":"done","name":"海鹿島町西青年館（敷地内フェンス）","address":"海鹿島町5226番地の70 海鹿島町西青年館（敷地内フェンス）","city":"銚子市","number":"2-7"}, 
 {"id":"03895e35-9d44-4e07-82ea-815659f3bc80","lat":35.62607000,"long":140.10092000,"status":"done","name":"弥生小学校（正門脇）","address":"稲毛区弥生町3-18","city":"千葉市","number":"38"}, 
 {"id":"038af570-57d2-4fa3-8b4e-f37ab94d9572","lat":35.78982051,"long":139.94579620,"status":"done","name":"ファミール南常盤平(北側緑地帯)","address":"日暮7丁目1-2","city":"松戸市","number":"44-3"}, 
 {"id":"039c87a8-e2d4-4f38-9d60-cbcc1055ba7d","lat":35.85578100,"long":140.13301580,"status":"done","name":"布佐中学校東側通用門","address":"布佐1301布佐中学校東側通用門","city":"我孫子市","number":"235"}, 
 {"id":"03a5cee8-902f-4972-8bf9-99db2c2fb656","lat":35.40363700,"long":140.32235500,"status":"done","name":"川島うぐいす里コミュニティセンター地先","address":"川島1903番地9","city":"睦沢町","number":"1-8"}, 
 {"id":"03a953a8-037f-48d9-a61f-cb214def3d33","lat":35.61693930,"long":140.51239540,"status":"done","name":"南 西照寺前","address":"屋形97地先","city":"横芝光町","number":"2-3"}, 
 {"id":"03a9ac14-7e72-4b11-8312-31b6ffe59fa8","lat":35.82542800,"long":140.04853800,"status":"done","name":"公民センター前","address":"中98－17番地先","city":"白井市","number":"2-2"}, 
 {"id":"03ab8f42-d751-4aa1-899a-d12c062cc0fb","lat":35.75109660,"long":139.90603240,"status":"done","name":"中国分4丁目27じゅん菜池緑地/西側","address":"中国分4丁目27じゅん菜池緑地/西側","city":"市川市","number":"124"}, 
 {"id":"03b691b2-a20c-48bf-a9fc-3d726483fbd9","lat":35.22895280,"long":140.01422300,"status":"done","name":"masked","address":"二入439","city":"君津市","number":"21-8"}, 
 {"id":"03c4db08-b517-4d49-866b-b8f30431a298","lat":35.45163290,"long":140.31009210,"status":"done","name":"ライトニングファクトリー前","address":"新小轡２５８－１","city":"茂原市","number":"25-4"}, 
 {"id":"03c717c6-fcba-420b-880a-af982cc747dc","lat":35.52097300,"long":140.30081200,"status":"done","name":"大網白里スマートインターチェンジ入口付近","address":"池田128番地付近","city":"大網白里市","number":"2-1"}, 
 {"id":"03ca8418-6c64-42f0-a5f1-dc74848c2b19","lat":35.35573370,"long":139.96484230,"status":"done","name":"上総農園バス停横","address":"矢那2159番地先","city":"木更津市","number":"146"}, 
 {"id":"03e346c4-c4af-4a20-8fc0-1e447b43ea37","lat":35.58225240,"long":140.13120930,"status":"done","name":"蘇我駅第5自転車駐車場","address":"中央区南町2-8蘇我駅第5自転車駐車場","city":"千葉市","number":"156"}, 
 {"id":"03f70f1d-a1af-443a-9fbe-830f312b35d6","lat":35.31862900,"long":140.38156100,"status":"not_yet","name":"後田踏切脇","address":"岬町椎木1023番地1","city":"いすみ市","number":"10-3"}, 
 {"id":"03fbc871-47ce-43ff-9dd7-120240d5c396","lat":35.76137330,"long":140.10192400,"status":"done","name":"島田協同館","address":"島田235-1","city":"八千代市","number":"22-5-157"}, 
 {"id":"0405d366-605a-4f64-8f81-0102868757ee","lat":35.84636278,"long":139.94429060,"status":"done","name":"第12投票所 松ケ丘旭会館","address":"名都借","city":"流山市","number":"4"}, 
 {"id":"042cedff-86d5-4164-9122-cd9bf5a7c2f3","lat":35.82015800,"long":140.23712700,"status":"done","name":"和青年館前","address":"印西市下井338","city":"印西市","number":"21-4"}, 
 {"id":"0439a080-cb54-4492-a2fc-379ee071aed3","lat":35.21677400,"long":139.88163800,"status":"done","name":"天羽高校付近","address":"数馬451-3","city":"富津市","number":"16-2"}, 
 {"id":"0439fcb1-4690-4a78-8761-1dedcf0ede13","lat":35.90683028,"long":139.90422470,"status":"done","name":"第33投票所 東深井中学校体育館","address":"東深井","city":"流山市","number":"1"}, 
 {"id":"043dd2a6-4f16-466d-9da3-b5cdc0e21070","lat":35.97020180,"long":139.85184110,"status":"not_yet","name":"七光台駅西口","address":"吉春928番地の5","city":"野田市","number":"10-1"}, 
 {"id":"04471ea3-c348-4ffd-911c-184405f5cd61","lat":35.79357330,"long":140.30812200,"status":"done","name":"美郷台地区会館前","address":"美郷台3丁目 3番地9","city":"成田市","number":"27-6"}, 
 {"id":"04482748-9333-4df0-a10f-ced15a8ba2ad","lat":35.98293010,"long":139.84767130,"status":"done","name":"七光台会館前","address":"七光台242番地の1","city":"野田市","number":"21-2"}, 
 {"id":"044ef757-a02d-4129-a48a-92bd100e63b3","lat":35.77258690,"long":139.99488480,"status":"done","name":"初富本町二丁目２１－１２付近 貝柄山公園北側","address":"初富本町2丁目21-12付近 貝柄山公園北側","city":"鎌ヶ谷市","number":"2"}, 
 {"id":"045d94e5-b718-479c-964d-d5ef496166db","lat":35.71438270,"long":139.93588900,"status":"done","name":"鬼高2丁目21大堤公園","address":"鬼高2丁目21大堤公園","city":"市川市","number":"221"}, 
 {"id":"045e4ef6-a75b-46ec-8396-ccba2fbf9dab","lat":35.64373000,"long":140.10583000,"status":"done","name":"コープ園生脇","address":"稲毛区園生町849-3地先","city":"千葉市","number":"110"}, 
 {"id":"0466fc12-3c6f-41f4-ab90-af383d334a2b","lat":35.54980810,"long":140.14635720,"status":"done","name":"古市場体育館","address":"緑区古市場町474-194","city":"千葉市","number":"5-1"}, 
 {"id":"046c3ea2-98f6-4975-9fc2-db0bf57b5147","lat":35.74552370,"long":139.93569410,"status":"done","name":"曽谷2丁目7-5曽谷春日神社/南側","address":"曽谷2丁目7-5曽谷春日神社/南側","city":"市川市","number":"59"}, 
 {"id":"046f79df-a32e-45b2-9a48-73c6dd703ea7","lat":35.09961390,"long":139.97258410,"status":"not_yet","name":"大井下道路案内看板付近","address":"大井82番地3","city":"南房総市","number":"20-7"}, 
 {"id":"0470135d-36d0-4d70-821c-8ce73cea8e80","lat":35.74025510,"long":140.27099600,"status":"done","name":"スーパータイヨー前","address":"上岩橋150－1","city":"酒々井町","number":"2-4"}, 
 {"id":"047b838a-8868-4690-b32a-ac6a3ab5b015","lat":35.75726450,"long":140.10938170,"status":"done","name":"米本団地5街区2棟前","address":"米本団地5街区2棟","city":"八千代市","number":"26-2-183"}, 
 {"id":"047e2406-e64c-4a46-944a-2a362dbe31ac","lat":35.14636600,"long":140.29143300,"status":"done","name":"三共ストアー前","address":"松部1529","city":"勝浦市","number":"3-4"}, 
 {"id":"047e75e5-8e94-426a-b1cc-00c29d2111b7","lat":35.57249730,"long":140.13111030,"status":"done","name":"蘇我保育所","address":"中央区蘇我2-3-18蘇我保育所","city":"千葉市","number":"128"}, 
 {"id":"047f615e-ff03-4da1-8736-63e95f774d06","lat":35.89477167,"long":139.92471360,"status":"done","name":"第20投票所 駒木台福祉会館","address":"駒木台","city":"流山市","number":"4"}, 
 {"id":"04827278-9745-44d0-93b7-99daef47c9ca","lat":35.71114000,"long":140.41270400,"status":"done","name":"大台北部集会所","address":"大台603","city":"芝山町","number":"1-7"}, 
 {"id":"048c2118-9c85-4248-99b6-583e9e6f5322","lat":35.77431100,"long":140.28649900,"status":"done","name":"調整池前","address":"橋賀台2丁目","city":"成田市","number":"20-4"}, 
 {"id":"049278c1-7f65-45ca-9121-d07169906bb4","lat":35.37121770,"long":140.15448110,"status":"not_yet","name":"北久保会館横","address":"久保410","city":"市原市","number":"83-3"}, 
 {"id":"04993fec-ecff-4131-a98e-953c6cfb38c8","lat":35.85729972,"long":139.97146780,"status":"done","name":"第８投票区朝日会館前","address":"中央二丁目２番３４号","city":"柏市","number":"8"}, 
 {"id":"049a9046-3219-4b46-b8dd-de1df0620c5e","lat":35.54723410,"long":140.45934230,"status":"done","name":"中川岸中通り中央","address":"作田5011","city":"九十九里町","number":"17-2"}, 
 {"id":"049f394f-196c-416a-8973-d9a43e3f61e3","lat":35.80134500,"long":140.15774000,"status":"done","name":"西の原公園南側","address":"印西市西の原1-4","city":"印西市","number":"14-5"}, 
 {"id":"04a5b5cb-a887-49de-9dcf-bda3713eaa43","lat":35.38543800,"long":139.95239100,"status":"done","name":"野際公園南側","address":"清見台東1丁目4番","city":"木更津市","number":"82"}, 
 {"id":"04ad3038-df2c-4230-981d-2608b4cb63b5","lat":35.38056400,"long":140.36189000,"status":"done","name":"金沢輪業前","address":"宮原698-3","city":"一宮町","number":"1-4"}, 
 {"id":"04b68d80-6183-43d0-908b-fda1ab36a77e","lat":35.75305080,"long":140.68547690,"status":"not_yet","name":"masked","address":"清滝160-1","city":"旭市","number":"12_5"}, 
 {"id":"04bc79f5-609f-452e-8a01-a1e93d8b2a4c","lat":35.77314000,"long":140.31513680,"status":"done","name":"(株)グリーンポート・エージェンシー脇","address":"不動ケ岡 2158番地1","city":"成田市","number":"15-7"}, 
 {"id":"04bdd045-fdba-453e-aa4b-d2819adf7d8f","lat":35.68123350,"long":139.90937130,"status":"done","name":"湊新田1丁目11胡録公園","address":"湊新田1丁目11胡録公園","city":"市川市","number":"487"}, 
 {"id":"04c1f495-2f96-4b24-ad9f-013cb6c032a8","lat":35.84766520,"long":140.14144520,"status":"done","name":"中島邸３５６号沿いフェンス","address":"都45931中島邸３５６号沿いフェンス","city":"我孫子市","number":"247"}, 
 {"id":"04c6a2c7-4708-4806-bcb2-79ae83cef11f","lat":35.66284120,"long":140.05911900,"status":"done","name":"幕張中学校（武道場裏）","address":"花見川区幕張町4-45","city":"千葉市","number":"9-7"}, 
 {"id":"04ce1fce-efa3-4cfb-adc5-7539b424bdc6","lat":35.44955930,"long":139.99360100,"status":"done","name":"masked","address":"蔵波3-11","city":"君津市","number":"7-3"}, 
 {"id":"04d0df51-88f9-450c-b3b5-55d9285e2934","lat":35.69122110,"long":140.23345720,"status":"done","name":"麻賀多神社付近","address":"城","city":"佐倉市","number":"9-3"}, 
 {"id":"04d5b7ab-01b1-4fe2-8f95-9d53d4e8637d","lat":35.94656600,"long":139.90245100,"status":"not_yet","name":"鹿野公園前","address":"木野崎1758番地","city":"野田市","number":"25-4"}, 
 {"id":"04daee1e-f12e-446a-92ba-e0e162423927","lat":35.72852490,"long":140.04475780,"status":"done","name":"高根台団地２７５棟　西側","address":"高根台５丁目１高根台団地２７５棟　西側","city":"船橋市","number":"483"}, 
 {"id":"04e34850-231a-493b-948a-f9dc9744d000","lat":35.86370361,"long":139.95859030,"status":"done","name":"第１８投票区コンフォール１号棟前","address":"豊四季台三丁目１番","city":"柏市","number":"18"}, 
 {"id":"04ed306d-b172-44ac-8392-e944cc741c52","lat":35.76164070,"long":140.06570440,"status":"done","name":"北部公民館　駐車場出口左","address":"豊富町４北部公民館　駐車場出口左","city":"船橋市","number":"618"}, 
 {"id":"04ee36ae-3b4e-48f4-8489-7eceeec89981","lat":35.14750100,"long":140.31781650,"status":"not_yet","name":"カネキハイツ前","address":"沢倉639-15","city":"勝浦市","number":"1-6"}, 
 {"id":"04f0f34e-7f28-42b9-bbc6-3936bf0994af","lat":35.71854820,"long":140.03249270,"status":"done","name":"芝山水神池公園　北側","address":"芝山７丁目３０－２芝山水神池公園　北側","city":"船橋市","number":"524"}, 
 {"id":"04f75b25-7329-4dc4-8fd8-f60a1ea42f9a","lat":35.79101470,"long":140.05274760,"status":"done","name":"白井市役所職員駐車場前","address":"根479－1番地先","city":"白井市","number":"1-9"}, 
 {"id":"04f7dec1-58c9-4b1d-b748-b65f9678a77e","lat":35.65581270,"long":140.06014640,"status":"done","name":"幕張5丁目運動広場（南側）","address":"花見川区幕張町5-226","city":"千葉市","number":"4-7"}, 
 {"id":"050122f9-62a4-4a13-b050-0f204208e836","lat":35.82726876,"long":139.93971400,"status":"done","name":"古常小公園住宅２号館フェンス（西側）","address":"小金原1丁目20-6","city":"松戸市","number":"73-4"}, 
 {"id":"05126ee8-5767-45a1-b778-57b8d5ffe187","lat":35.66530140,"long":139.89818060,"status":"done","name":"猫実保育園","address":"北栄3-31-14","city":"浦安市","number":"9_4"}, 
 {"id":"05265a58-5e07-4f9c-a9e0-6b08ae7fa5e3","lat":35.59677400,"long":140.12662620,"status":"done","name":"末広中学校","address":"中央区末広2-10-1末広中学校","city":"千葉市","number":"112"}, 
 {"id":"052ac19a-d8da-4745-95cd-f13b06bb68e9","lat":35.45402730,"long":140.12647830,"status":"done","name":"山田医院前","address":"磯ケ谷2079","city":"市原市","number":"48-2"}, 
 {"id":"05402dce-79a3-4a08-bafe-31defe15f70b","lat":35.85126444,"long":139.97265110,"status":"done","name":"第４投票区一本松公園","address":"緑ケ丘２４番","city":"柏市","number":"4"}, 
 {"id":"0546ca00-207d-4418-8a8a-6fb09c71cb0a","lat":34.98446700,"long":139.84692400,"status":"done","name":"西の浜コミュニティ広場前市道敷","address":"沼852-5","city":"館山市","number":"9-8"}, 
 {"id":"0556777a-3cb3-4ecc-b4fa-dcd253428d6a","lat":35.72359770,"long":140.22393890,"status":"done","name":"木の子神社バス停付近","address":"木戸159付近 諏訪神社前","city":"佐倉市","number":"13-8"}, 
 {"id":"05652482-5473-429e-9497-818abf217629","lat":35.51463470,"long":140.09185100,"status":"done","name":"第2五井踏切付近","address":"五井3882-9","city":"市原市","number":"28-3"}, 
 {"id":"05662a5f-4775-4be0-ba5f-afa2d5167d76","lat":35.31178900,"long":140.14835120,"status":"done","name":"山松屋商店前","address":"田淵旧日竹88-1","city":"市原市","number":"93-8"}, 
 {"id":"0567f04e-2d2e-452e-84d9-a176f8bfdda5","lat":35.18221170,"long":140.35001310,"status":"done","name":"浜海岸案内所前","address":"浜2163-130","city":"御宿町","number":"2-3"}, 
 {"id":"056a5942-842a-4bfd-9c9d-1ac2acf079b8","lat":35.65881000,"long":140.32143000,"status":"done","name":"masked","address":"八街に110番地23","city":"八街市","number":"3-12"}, 
 {"id":"05787e30-a1a2-49ae-8e64-e699a58cb35d","lat":35.29427910,"long":140.07838480,"status":"done","name":"山徳旅館駐車場","address":"久留里市場118","city":"君津市","number":"24-3"}, 
 {"id":"057b70a1-fe5d-4f30-b194-09b0132b5b7c","lat":35.59662310,"long":140.18198760,"status":"done","name":"大宮小学校","address":"若葉区大宮台7-8-1","city":"千葉市","number":"20-1"}, 
 {"id":"057c994c-fcdf-48e3-b52a-32cbe5d089d6","lat":35.43851520,"long":139.97431710,"status":"done","name":"牧場西公園前","address":"神納５００１番地","city":"袖ケ浦市","number":"1-14"}, 
 {"id":"057cc6f4-e57b-41db-a4c2-f7d3100eabfb","lat":35.41913840,"long":139.99895510,"status":"done","name":"根形交流センター前","address":"下新田１２７７番地","city":"袖ケ浦市","number":"14-5"}, 
 {"id":"058aebbe-24bf-4f92-9587-053e8c774eaa","lat":34.90488550,"long":139.84282970,"status":"not_yet","name":"根本港入口","address":"白浜町根本1623番地1","city":"南房総市","number":"13-4"}, 
 {"id":"0590b35c-bf7f-41fa-a98c-9430c3d2dcba","lat":35.14801300,"long":140.22459700,"status":"not_yet","name":"上植野青年館前","address":"上植野７４３","city":"勝浦市","number":"7-7"}, 
 {"id":"059126f2-cc25-4a36-abd7-b8d0aac0765f","lat":35.87689194,"long":139.95815610,"status":"done","name":"第３７投票区西下ノ台第一公園","address":"高田１０２７－５２","city":"柏市","number":"37"}, 
 {"id":"0592bf14-e6d1-4cc1-8ec6-d1fe418a2544","lat":35.74841700,"long":140.49511700,"status":"done","name":"神行集会所入口","address":"北中186-1","city":"多古町","number":"10-8"}, 
 {"id":"05969446-ca85-40cd-bb0e-7197f4d7b6df","lat":35.62678580,"long":140.08135880,"status":"done","name":"高洲第1団地③高洲第1バス停","address":"美浜区高洲2-8","city":"千葉市","number":"12-6"}, 
 {"id":"05990791-db8f-4072-914f-88233c5998a5","lat":35.26363620,"long":140.38760970,"status":"not_yet","name":"東海保育所前","address":"若山238番地1","city":"いすみ市","number":"6-7"}, 
 {"id":"05aa1b67-187a-49e9-b4b2-727fb39b7d33","lat":35.52992170,"long":140.20634880,"status":"done","name":"瀬又公民館前","address":"瀬又135","city":"市原市","number":"56-3"}, 
 {"id":"05b06b41-6345-4b70-bc04-e7298ef03413","lat":35.52658000,"long":140.17520000,"status":"done","name":"如月公園","address":"ちはら台西1-16","city":"市原市","number":"64-10"}, 
 {"id":"05be9847-c5d2-498b-acc3-1652b56d2ab2","lat":35.72571930,"long":140.07598560,"status":"done","name":"大和田新田960-16緑地","address":"大和田新田960-16","city":"八千代市","number":"18-7-128"}, 
 {"id":"05c00c8f-3764-49f1-841b-3291ef06c64f","lat":35.62014030,"long":140.19432040,"status":"done","name":"千城台東公園","address":"若葉区千城台東1-17","city":"千葉市","number":"14-4"}, 
 {"id":"05c6a1a4-5b72-4634-9037-3134a700c62d","lat":35.49664370,"long":140.05946640,"status":"done","name":"千種中学校コメリ側","address":"千種6丁目1番地1","city":"市原市","number":"39-1"}, 
 {"id":"05c7d99f-efb3-43ed-bb7b-a5815c5d1d43","lat":35.50111800,"long":140.37596100,"status":"reserved","name":"鵜沢工務店前","address":"九十根220番地付近","city":"大網白里市","number":"8-7"}, 
 {"id":"05ce25e3-ecc1-4aeb-8137-fb319a91d0e3","lat":35.94349600,"long":139.84896620,"status":"done","name":"第一号鹿島町公園前","address":"中野台鹿島町32番地の1","city":"野田市","number":"28-5"}, 
 {"id":"05d59c79-244c-49f1-8fe6-eb18b88f1dde","lat":35.17752800,"long":139.97016900,"status":"not_yet","name":"峰上第15区公民館前","address":"豊岡2934-1","city":"富津市","number":"25-7"}, 
 {"id":"05e19af0-db96-4489-b307-7a49d855df4f","lat":35.76052390,"long":139.91150600,"status":"done","name":"堀之内3丁目12堀之内緑地公園","address":"堀之内3丁目12堀之内緑地公園","city":"市川市","number":"104"}, 
 {"id":"05e39a0b-d0f4-48e0-b5b4-aa8c931e3517","lat":35.87757528,"long":139.92433030,"status":"done","name":"第45投票所 おおたかの森北東自治会館","address":"おおたかの森北二丁目","city":"流山市","number":"1"}, 
 {"id":"05e64799-7c92-4b6c-8c13-881f271e2e11","lat":35.82452300,"long":140.10896000,"status":"done","name":"旧永治小学校前","address":"印西市浦部557番地先","city":"印西市","number":"5-5"}, 
 {"id":"05ea5cab-b77a-4448-855d-61f89d526612","lat":35.55425890,"long":140.45427820,"status":"done","name":"ちどりの里前","address":"作田1681","city":"九十九里町","number":"17-4"}, 
 {"id":"05eb44e5-8c4a-43af-b89b-5eae9a3267da","lat":35.85774030,"long":140.59128590,"status":"done","name":"城山公園広場前","address":"野田1711付近城山公園広場前","city":"香取市","number":"24-9"}, 
 {"id":"05ec4e78-b282-4996-83cb-77647392a549","lat":35.73822000,"long":140.33323000,"status":"done","name":"獅子穴公園","address":"七栄648-99","city":"富里市","number":"1-4"}, 
 {"id":"05fdb710-eb11-4422-8f6b-bc6b54666878","lat":35.59324970,"long":140.12874820,"status":"done","name":"ゲートボール場(海側)","address":"中央区末広3-19ゲートボール場(海側)","city":"千葉市","number":"115"}, 
 {"id":"05ff37d9-2a07-4e17-8603-3cc96dee0844","lat":35.67144910,"long":139.89026160,"status":"done","name":"船圦緑道植込Ｄ","address":"当代島3-14-2地先","city":"浦安市","number":"7_2"}, 
 {"id":"06031592-f026-428c-a468-c03ab4114798","lat":35.50537000,"long":140.11144000,"status":"done","name":"国分寺台堀込公園","address":"加茂1-2","city":"市原市","number":"40-2"}, 
 {"id":"060b08cb-cffc-4b6c-88d2-7c3513efdf4b","lat":35.94451570,"long":139.86725530,"status":"done","name":"スポーツクラブルネサンス向側","address":"野田399番地","city":"野田市","number":"1-4"}, 
 {"id":"060fec1a-4097-4691-99b3-553d472ed8f2","lat":35.42802880,"long":139.95490960,"status":"done","name":"昭和小学校裏門横","address":"坂戸市場１４３１番地","city":"袖ケ浦市","number":"2-4"}, 
 {"id":"061302b6-0c70-4d33-9401-627437c3e55b","lat":35.59964489,"long":140.40322423,"status":"done","name":"成東小学校入口バス停隣","address":"成東612番地1地","city":"山武市","number":"1-7"}, 
 {"id":"061a2bf7-537b-4ccd-bd27-f23977ec6e92","lat":35.33657160,"long":139.87660700,"status":"done","name":"大和田公園","address":"大和田3-9","city":"君津市","number":"11-6"}, 
 {"id":"061b72f1-ddd1-41f4-8ced-2c5e68b84826","lat":35.86297667,"long":139.95983280,"status":"done","name":"第１７投票区柏市立豊四季保育園前","address":"豊四季台二丁目１２０番","city":"柏市","number":"17"}, 
 {"id":"061cdc4a-1a91-4587-8c38-cbbdad2783d1","lat":35.27015520,"long":140.05492920,"status":"done","name":"山滝野自治会館前","address":"山滝野238-1","city":"君津市","number":"25-8"}, 
 {"id":"061d178b-8c19-4a73-a146-b53e68960496","lat":35.84472700,"long":140.45063800,"status":"done","name":"旧桜田小学校前","address":"桜田 941番地","city":"成田市","number":"34-4"}, 
 {"id":"061d297d-a3ed-4e0e-a72f-df1998928957","lat":35.31425620,"long":139.82869860,"status":"done","name":"新井区集会所前","address":"新井599","city":"富津市","number":"4-6"}, 
 {"id":"062159eb-e36b-4c61-94c2-53599e031bcc","lat":35.66527030,"long":140.16020980,"status":"done","name":"四街道公民館前","address":"四街道1532番地17","city":"四街道市","number":"4-5"}, 
 {"id":"0622a956-c53e-45c9-8e58-78c4410af895","lat":35.85091028,"long":139.90277310,"status":"done","name":"第2投票所 流山市役所","address":"平和台３丁目","city":"流山市","number":"4"}, 
 {"id":"062627eb-16f2-47d7-8b49-d380fd6ea296","lat":35.72625080,"long":139.98587180,"status":"done","name":"旭町まちかどスポーツ広場　東側　入口左","address":"旭町１丁目４旭町まちかどスポーツ広場　東側　入口左","city":"船橋市","number":"239"}, 
 {"id":"062634a8-aa9b-4407-b391-52f903b7adea","lat":35.80870102,"long":139.91412960,"status":"done","name":"中根公園（南側）","address":"中根長津町89","city":"松戸市","number":"96-4"}, 
 {"id":"0627f19f-d2b3-4443-ba86-40b8be1e23b0","lat":35.68840370,"long":140.03901760,"status":"done","name":"かもめ公園","address":"藤崎６丁目５番","city":"習志野市","number":"6-4"}, 
 {"id":"0633ae42-0ce1-4ba9-99b3-59b75e6f7ff7","lat":35.63503820,"long":140.19435430,"status":"done","name":"吉岡小学校グラウンド入口","address":"鷹の台三丁目2番","city":"四街道市","number":"8-4"}, 
 {"id":"06341d1b-bb58-4be6-8f03-56899bfaf34a","lat":35.84535280,"long":140.23762920,"status":"done","name":"安食文化学園前","address":"安食1-7","city":"栄町","number":"7-4"}, 
 {"id":"063a5e09-d232-4e8c-a20b-1f3421d690f9","lat":35.76179500,"long":140.30970800,"status":"done","name":"日本松街区公園前","address":"並木町 22番地1","city":"成田市","number":"24-3"}, 
 {"id":"06403e96-4e71-4f12-81bd-4449d219b416","lat":35.36801130,"long":140.15529040,"status":"not_yet","name":"上松久保隣家付近","address":"久保576地先","city":"市原市","number":"83-5"}, 
 {"id":"064549fd-0d03-4ef2-90fa-4535534f5c6c","lat":35.30575200,"long":140.36938500,"status":"error_wrong_place","name":"masked","address":"岬町押日957番地2","city":"いすみ市","number":"13-4"}, 
 {"id":"0648e0ee-e23c-4394-be37-92c1ea4c60f9","lat":35.61671540,"long":140.09685900,"status":"done","name":"幸町団地②8街区入口バス停脇","address":"美浜区幸町2-8-7 地先","city":"千葉市","number":"20-2"}, 
 {"id":"064c89cf-79e1-4bd8-b9b8-0de851694ff6","lat":35.59147800,"long":140.15675700,"status":"done","name":"中田池公園","address":"中央区仁戸名町375-83地先中田池公園","city":"千葉市","number":"184"}, 
 {"id":"064d217a-feb8-415d-92ae-f5786ee643a3","lat":35.70969940,"long":139.97066070,"status":"done","name":"市道０００５０号線脇緑地帯　西海神小学校","address":"海神５丁目１６４－２市道０００５０号線脇緑地帯　西海神小学校","city":"船橋市","number":"127"}, 
 {"id":"065f2b7c-14c1-4057-9cf1-d387ca977b8b","lat":35.72409000,"long":140.27352000,"status":"done","name":"アイビ・ネオハイツ管理棟前","address":"東酒々井6丁目6-3","city":"酒々井町","number":"6-7"}, 
 {"id":"06609c23-133f-433a-a490-75af35807124","lat":35.83716780,"long":140.66855480,"status":"done","name":"役場庁舎前","address":"笹川い4713番地131","city":"東庄町","number":"4の4"}, 
 {"id":"066c25de-b9e8-4980-aba1-add732e943c1","lat":35.37550990,"long":140.36249900,"status":"done","name":"商工会館前","address":"一宮3002-1","city":"一宮町","number":"1-3"}, 
 {"id":"0671feb8-fd4c-43b0-859c-656f5af6e343","lat":35.81966034,"long":139.91694290,"status":"done","name":"しらかば公園（東側）","address":"新松戸南1丁目9","city":"松戸市","number":"93-6"}, 
 {"id":"067979c7-8f29-4e8b-ac04-03146c354649","lat":35.43711700,"long":139.93851160,"status":"done","name":"天満宮","address":"牛込1000番地","city":"木更津市","number":"176"}, 
 {"id":"067eb6ed-7d09-42a5-996f-cba754a8bc6c","lat":35.08784020,"long":140.07782620,"status":"done","name":"宮集会所","address":"宮124","city":"鴨川市","number":"13-4"}, 
 {"id":"067fbfa8-e86c-43c5-bf78-c104bf7edef1","lat":35.82496333,"long":139.99605470,"status":"done","name":"第２５投票区柏市南部老人福祉センター","address":"藤心２９３番地の１","city":"柏市","number":"25"}, 
 {"id":"0688787b-a794-4882-a9e4-3142adef20e0","lat":35.64954780,"long":140.49952350,"status":"not_yet","name":"栗山 秋葉原店向い","address":"栗山883地先","city":"横芝光町","number":"3-3"}, 
 {"id":"06898a42-9a85-45c2-8759-58a1fbef1e2a","lat":35.73100000,"long":140.15234000,"status":"done","name":"ユーカリが丘南公園","address":"ユーカリが丘1丁目8－3付近","city":"佐倉市","number":"26-7"}, 
 {"id":"06932d60-ff9e-4259-8c3e-1b39383c8834","lat":35.88597556,"long":139.92650190,"status":"done","name":"第５７投票区御立山第六公園","address":"西柏台二丁目１番","city":"柏市","number":"57"}, 
 {"id":"06973e14-1a9f-4d58-9f82-e1443f407506","lat":35.83090111,"long":139.95694720,"status":"done","name":"第１３投票区柏市光ケ丘近隣センター前","address":"光ケ丘団地２００番５","city":"柏市","number":"13"}, 
 {"id":"06a3e582-d528-4be0-890c-b565bb12d688","lat":35.77675390,"long":140.30939960,"status":"done","name":"中囲護台街区公園前","address":"囲護台2丁目 10番地7","city":"成田市","number":"29-5"}, 
 {"id":"06a88c0e-3017-4080-a8f9-988383148628","lat":35.90136250,"long":139.96853310,"status":"done","name":"第５６投票区柏市柏ビレジ近隣センター","address":"大室１２８５番地の１","city":"柏市","number":"56"}, 
 {"id":"06afb603-b25f-49e5-8ad5-e8f42152341d","lat":35.71464120,"long":139.96894290,"status":"done","name":"西船みどり公園　西側","address":"西船２丁目２０－３西船みどり公園　西側","city":"船橋市","number":"122"}, 
 {"id":"06b3e2a3-0f55-4ae7-b93a-f2aa81179043","lat":35.83278835,"long":139.93111440,"status":"done","name":"北小金駅南口歩行者用デッキフェンス(ピコティ東館向前)","address":"小金1","city":"松戸市","number":"70-4"}, 
 {"id":"06b5bfe6-31e6-409a-b65f-570d80aacbc4","lat":35.64983700,"long":140.49774200,"status":"not_yet","name":"東山中央共同利用施設前","address":"栗山3131地先","city":"横芝光町","number":"3-6"}, 
 {"id":"06b83cdf-96f9-4ad7-a2a7-0bb204a55990","lat":35.63189330,"long":140.07971250,"status":"done","name":"稲浜公民館","address":"美浜区稲毛海岸3-4-1","city":"千葉市","number":"16-7"}, 
 {"id":"06cba722-9efa-4781-87c3-7ff0fc30eec8","lat":35.83831861,"long":139.96402310,"status":"done","name":"第５２投票区柏市立豊住保育園","address":"豊住三丁目１番","city":"柏市","number":"52"}, 
 {"id":"06cbed22-61c2-456c-9b67-75a51e09fe77","lat":35.73767990,"long":140.10325300,"status":"done","name":"萱田第1号公園","address":"ゆりのき台7-16","city":"八千代市","number":"20-6-144"}, 
 {"id":"06cdccf6-997d-4fce-afbe-1eb35f459705","lat":35.63870000,"long":140.10551000,"status":"done","name":"小園公園（京葉工業高校側）","address":"稲毛区小中台4-10","city":"千葉市","number":"90"}, 
 {"id":"06db0009-cb64-40ad-862f-f4d822341990","lat":35.70113890,"long":140.14505090,"status":"done","name":"上志津原自治会館付近","address":"上志津原64-1付近","city":"佐倉市","number":"23-2"}, 
 {"id":"06e3f1b4-28c4-401a-8c0f-f0617f9d44bc","lat":35.31338290,"long":139.96075500,"status":"done","name":"大鷲公民館わき","address":"大鷲94","city":"君津市","number":"19-8"}, 
 {"id":"06e6ce9a-c2ea-4162-9b4c-6ab1ff398a7d","lat":35.79567700,"long":140.45369000,"status":"done","name":"赤池十字路","address":"十余三342","city":"多古町","number":"6-5"}, 
 {"id":"06f6c2bc-3b40-42ba-8b26-97b5ad6442b7","lat":35.93063130,"long":139.88495950,"status":"done","name":"南部小学校西側","address":"山崎1503番地","city":"野田市","number":"4-6"}, 
 {"id":"06fea73c-21bb-4429-b582-dcbbcf829c39","lat":35.43737290,"long":139.93926560,"status":"done","name":"牛込区集会所内","address":"牛込524番地1","city":"木更津市","number":"175"}, 
 {"id":"06fed5ff-1f14-473f-859a-9643e3f5d25a","lat":35.65183750,"long":140.05791970,"status":"error_wrong_place","name":"幕張町第1自転車駐車場","address":"花見川区幕張町5-607","city":"千葉市","number":"4-3"}, 
 {"id":"07054dd9-4b3b-413a-86de-6f82419a1624","lat":35.03251380,"long":139.95464120,"status":"not_yet","name":"市場交流広場付近","address":"丸本郷1125番地16","city":"南房総市","number":"21-8"}, 
 {"id":"0708b605-8836-46b6-ab78-62d6af99fc2e","lat":35.90500800,"long":140.39883200,"status":"done","name":null,"address":"新町駐車場前","city":"神崎町","number":"1-2"}, 
 {"id":"070dab07-6bbb-49ce-9b7c-c2fc8448e2a3","lat":35.66975100,"long":139.89867500,"status":"done","name":"新井3丁目31-1新井地域ふれあい館/北側","address":"新井3丁目31-1新井地域ふれあい館/北側","city":"市川市","number":"560"}, 
 {"id":"070ebc49-e806-48e0-9a15-af0f0ac6e890","lat":35.75406500,"long":140.01189930,"status":"reserved","name":"鎌ケ谷七丁目１－１３付近 延命寺駐車場奥","address":"鎌ケ谷7丁目1-13付近 延命寺駐車場奥","city":"鎌ヶ谷市","number":"107"}, 
 {"id":"07169a61-6f36-40af-8e17-22b68c46a627","lat":35.26878740,"long":139.99856670,"status":"error_wrong_place","name":"山神社下","address":"日渡根139-2","city":"君津市","number":"20-8"}, 
 {"id":"072a1a9f-08e6-40d0-ab27-55d369574198","lat":35.18702300,"long":139.86651600,"status":"done","name":"仲村防火水槽前","address":"竹岡1239-4","city":"富津市","number":"19-7"}, 
 {"id":"072d7274-359c-4a0c-8b22-f7176e1dd53b","lat":35.72377950,"long":140.06473770,"status":"done","name":"八幡後第5公園","address":"大和田新田1082-92","city":"八千代市","number":"18-6-127"}, 
 {"id":"07301bbd-ed2e-49f7-88a9-4234a15094d0","lat":35.75687440,"long":139.93448690,"status":"done","name":"梨香台小学校北側（正門横）","address":"高塚新田512-82","city":"松戸市","number":"35-2"}, 
 {"id":"07305b12-b53f-45e1-8e82-d6114dfa844f","lat":35.69993000,"long":140.30938000,"status":"not_yet","name":"masked","address":"八街は48番地13","city":"八街市","number":"8-1"}, 
 {"id":"073a1a26-775f-4dee-8a7f-ea01e9c5c8ee","lat":35.71692300,"long":139.97368700,"status":"done","name":"行田東小学校　東側入口左","address":"行田２丁目４－１行田東小学校　東側入口左","city":"船橋市","number":"248"}, 
 {"id":"07479b01-6d46-441b-8455-72efebb2457e","lat":35.31678800,"long":139.86419700,"status":"done","name":"飯野コミュニティセンター","address":"下飯野203-7","city":"富津市","number":"7-7"}, 
 {"id":"074c8666-8ae2-49f1-9313-49485a283482","lat":35.72347020,"long":140.14594610,"status":"done","name":"清水公園","address":"井野字大坪1407-1","city":"佐倉市","number":"16-7"}, 
 {"id":"074e392f-f9ab-4bde-9296-b01aac71e86d","lat":35.04341470,"long":139.95333820,"status":"not_yet","name":"丸本郷中蝶々付近","address":"丸本郷614","city":"南房総市","number":"21-6"}, 
 {"id":"076788be-e212-4aaa-b6fa-b2db18b34ce4","lat":35.55352700,"long":140.16486900,"status":"done","name":"おゆみ野そばら公園","address":"緑区おゆみ野南1-29","city":"千葉市","number":"21-4"}, 
 {"id":"0767cd2d-a568-4505-87d8-0ae78f458bed","lat":35.36275190,"long":139.92067270,"status":"done","name":"masked","address":"桜井新町4丁目6番","city":"木更津市","number":"24"}, 
 {"id":"076932eb-a878-4e85-829a-53fc81af4753","lat":35.55600060,"long":140.19725110,"status":"done","name":"緑土木事務所","address":"緑区誉田町1-259-1","city":"千葉市","number":"7-7"}, 
 {"id":"076a1512-8ddb-46aa-ad0e-9a60d42c1616","lat":35.48516250,"long":140.28027980,"status":"done","name":"柴名集会所付近","address":"柴名７３−５","city":"茂原市","number":"20-5"}, 
 {"id":"076ad131-8ca9-4c84-9b51-ca56324e03fa","lat":35.45284150,"long":140.00695610,"status":"done","name":"久保田多目的会館脇","address":"久保田２３６７番地","city":"袖ケ浦市","number":"10-3"}, 
 {"id":"0776a388-258f-4e63-9895-735d1630c09e","lat":35.64459000,"long":140.09386000,"status":"done","name":"小塚公園","address":"稲毛区小中台8-24","city":"千葉市","number":"80"}, 
 {"id":"07789408-86a9-4cab-9bb6-713e80394412","lat":35.69216360,"long":139.99373040,"status":"done","name":"宮本４丁目公園　公園内植込み","address":"宮本４丁目７－９宮本４丁目公園　公園内植込み","city":"船橋市","number":"21"}, 
 {"id":"0780aa48-2655-4e51-8761-c863517ba090","lat":35.62154701,"long":140.37437439,"status":"done","name":"山武グリーンカントリー入口脇","address":"椎崎72番地1地先","city":"山武市","number":"17-8"}, 
 {"id":"0784d97c-5c71-41cf-9001-e7fba51dfb1d","lat":35.13482350,"long":139.95749870,"status":"done","name":"平塚区民センター","address":"平塚1886","city":"鴨川市","number":"9-3"}, 
 {"id":"078cc058-250e-4bd9-a8f1-09ec21a33821","lat":35.71686420,"long":140.07911610,"status":"done","name":"高津団地6街区2棟横","address":"高津団地6街区2棟","city":"八千代市","number":"17-2-116"}, 
 {"id":"07937f2a-4c96-49a1-b95d-92f382942e0c","lat":35.84844389,"long":139.90489110,"status":"done","name":"第42投票所 西平井自治会館","address":"西平井三丁目","city":"流山市","number":"5"}, 
 {"id":"07964b6c-0f27-4a71-8d36-db176286936d","lat":35.79665700,"long":140.19723300,"status":"done","name":"荒野コミュニティセンター向い","address":"印西市荒野469-2地先","city":"印西市","number":"20-5"}, 
 {"id":"07b04de1-7142-42fd-86fb-cc3f97299c15","lat":35.67082000,"long":140.31141000,"status":"done","name":"八街中央公園フェンス","address":"八街ほ155番地1","city":"八街市","number":"1-1"}, 
 {"id":"07b4ae20-3567-423a-bed5-a58d23ce26d9","lat":35.12197730,"long":140.15385350,"status":"not_yet","name":"旧天津学校給食センター前","address":"天津1104","city":"鴨川市","number":"22-5"}, 
 {"id":"07b9169b-c3e6-4fa9-8f02-4dc1ec0fbc97","lat":35.75671800,"long":140.29443400,"status":"done","name":"公津の杜小学校前","address":"公津の杜3丁目 2番地","city":"成田市","number":"39-5"}, 
 {"id":"07bca268-6698-4167-9267-2b10989272cb","lat":35.35640000,"long":140.28038000,"status":"done","name":"場所名なし","address":"佐貫1657番地","city":"睦沢町","number":"3-8"}, 
 {"id":"07c2f3dd-52f2-4159-bf0a-66bee82261b4","lat":35.82319185,"long":139.92601370,"status":"done","name":"あかつき公園(西側)","address":"幸谷1551","city":"松戸市","number":"69-6"}, 
 {"id":"07c3ca8a-a270-4606-93f2-55c199bdc7f3","lat":35.66449430,"long":140.16641540,"status":"done","name":"市営北口第一自転車駐車場前","address":"鹿渡934番地24","city":"四街道市","number":"2-6"}, 
 {"id":"07c3e4c5-fea9-42dd-9cf5-107bb9e2f809","lat":35.67561000,"long":140.10718000,"status":"done","name":"犢橋小学校","address":"花見川区犢橋町774","city":"千葉市","number":"15-1"}, 
 {"id":"07c571a9-c58e-42f9-b265-1e67db077215","lat":35.80442805,"long":139.96263450,"status":"done","name":"金ケ作小学校東側（正門横）","address":"金ケ作304-26","city":"松戸市","number":"55-1"}, 
 {"id":"07c6e5fe-2f5c-47eb-8f25-2a80f8dfe983","lat":35.76036500,"long":140.54187000,"status":"not_yet","name":"坂区民館横","address":"坂701-3","city":"多古町","number":"9-4"}, 
 {"id":"07c71aea-e737-4891-9e03-7bc8b60b5018","lat":35.74849360,"long":139.93914840,"status":"done","name":"高塚新田こどもの遊び場（県道高架橋下）","address":"高塚新田160","city":"松戸市","number":"36-7"}, 
 {"id":"07cc2598-d948-4832-9b5b-57e781f44c65","lat":35.72430780,"long":140.10896610,"status":"done","name":"市民会館裏花壇","address":"萱田町728","city":"八千代市","number":"11-6-77"}, 
 {"id":"07cd858b-0c9c-448a-a84f-8e7ed1fa8088","lat":35.44474710,"long":140.11316190,"status":"done","name":"1丁目根崎公園","address":"光風台1-203","city":"市原市","number":"53-4"}, 
 {"id":"07db8696-5d42-4a84-bd4b-93eab7c87acf","lat":35.55655290,"long":140.18405590,"status":"done","name":"夏の道（都川防災調整池入口付近）","address":"緑区おゆみ野4-101","city":"千葉市","number":"3-7"}, 
 {"id":"07e9920f-db8e-4453-9f67-d2cc63d04eac","lat":35.40332530,"long":140.34548710,"status":"done","name":"ＪＲ八積駅前","address":"岩沼822","city":"長生村","number":"2"}, 
 {"id":"07e9cffa-8aa9-410f-8249-f969fd696f42","lat":35.86271806,"long":139.95844310,"status":"done","name":"第１８投票区豊四季台団地８号棟隣立体駐車場前","address":"豊四季台三丁目１番８号棟","city":"柏市","number":"18"}, 
 {"id":"07ef87e0-5f06-4d19-9538-479131f3266a","lat":35.80015900,"long":140.21129700,"status":"done","name":"萩原構造改善センター入口","address":"印西市萩原1404-2","city":"印西市","number":"16-9"}, 
 {"id":"080785fe-a9ef-4b11-8f74-3a5eba75e35c","lat":35.47426350,"long":140.04289640,"status":"done","name":"砂子公園1","address":"姉崎東2丁目12-1","city":"市原市","number":"2-6"}, 
 {"id":"080cb307-b9e9-4f91-aff7-6559d9929fd1","lat":35.73605220,"long":140.17004360,"status":"done","name":"臼井西中学校前","address":"臼井台1588","city":"佐倉市","number":"30-4"}, 
 {"id":"080d36f0-95a4-425e-a98a-6f540509c6f5","lat":35.74440100,"long":140.04636270,"status":"done","name":"大穴新田市民の森　東側ゴミ収集所右","address":"大穴北８丁目４９３－６大穴新田市民の森　東側ゴミ収集所右","city":"船橋市","number":"586"}, 
 {"id":"080dc426-5bc6-4ae1-b6cc-d0dab680c9a8","lat":35.55800840,"long":140.30017700,"status":"reserved","name":"季美の森東一丁目バス停附近","address":"季美の森東１－１","city":"東金市","number":"26-5"}, 
 {"id":"080f8e6d-9b12-4960-80ee-6c15905ab4c5","lat":35.62902952,"long":140.35678983,"status":"not_yet","name":"旧日向小学校入口","address":"雨坪1番地2","city":"山武市","number":"18-4"}, 
 {"id":"08183da7-5043-49ac-a127-a971cfc1d501","lat":35.11199400,"long":139.82775700,"status":"done","name":"なぶら前","address":"勝山234番地","city":"鋸南町","number":"1-4"}, 
 {"id":"081f2bcd-f926-4cbf-957f-6b9135ddcd43","lat":35.72605610,"long":140.02895240,"status":"done","name":"高根台グリーンスポット　南側植込み内","address":"高根台７丁目２０高根台グリーンスポット　南側植込み内","city":"船橋市","number":"490"}, 
 {"id":"0824833e-1855-4975-8eb4-5815e0257884","lat":35.88200222,"long":139.91230690,"status":"done","name":"第23投票所 初石公民館","address":"西初石３丁目","city":"流山市","number":"7"}, 
 {"id":"08313d73-c381-4190-9cb9-7273a61abe15","lat":35.86066222,"long":139.92648920,"status":"done","name":"第15投票所 八木中学校図書室","address":"野々下１丁目３１７番地","city":"流山市","number":"7"}, 
 {"id":"083283f1-6a69-47e7-8f75-6b5770159ca6","lat":35.72644800,"long":140.07184700,"status":"done","name":"緑が丘2-4","address":"新木戸小学校正門横","city":"八千代市","number":"36-3-258"}, 
 {"id":"08352673-9269-42af-8a36-686cd5c75157","lat":35.84404200,"long":140.62215500,"status":"not_yet","name":"小見川東小学校","address":"阿玉川728小見川東小学校","city":"香取市","number":"26-1"}, 
 {"id":"0835741e-8c3a-4e49-a38c-7776a97054b5","lat":35.71157150,"long":139.92176500,"status":"done","name":"稲荷木1丁目14-1稲荷木小学校/正門","address":"稲荷木1丁目14-1稲荷木小学校/正門","city":"市川市","number":"357"}, 
 {"id":"083a730a-2204-4a23-a8f0-5a2b52cca628","lat":35.81911800,"long":140.32202100,"status":"done","name":"海老川バス停","address":"芦田 2285番地2","city":"成田市","number":"7-7"}, 
 {"id":"083e2ddb-2a99-410d-ac73-573dc711f013","lat":35.33849040,"long":140.18884870,"status":"not_yet","name":"吉家久入口付近","address":"吉沢85","city":"市原市","number":"86-4"}, 
 {"id":"0840c071-f8ac-4ce6-b2e0-ab2e41e78765","lat":35.99278020,"long":139.83573470,"status":"not_yet","name":"川間中学校前","address":"中里136番地の1","city":"野田市","number":"13-6"}, 
 {"id":"084388d9-f35b-46fc-a854-74a860b99726","lat":35.35607360,"long":139.93709040,"status":"done","name":"masked","address":"真舟3丁目14番地先","city":"木更津市","number":"270"}, 
 {"id":"08448107-05a3-4f45-8080-fa56a04662aa","lat":35.85239900,"long":140.50892880,"status":"not_yet","name":"セブンイレブン香取大根店脇","address":"大根2012-2付近セブンイレブン香取大根店脇","city":"香取市","number":"4-4"}, 
 {"id":"084b9297-739c-4420-a9da-c77062234193","lat":35.87642700,"long":140.39259300,"status":"done","name":"ネクスト名木小前","address":"名木 1050番地","city":"成田市","number":"33-2"}, 
 {"id":"0851dcef-3a44-49c8-a30d-427cd84719ea","lat":35.96187340,"long":139.86016600,"status":"done","name":"つつじ公園","address":"清水公園東一丁目4番地","city":"野田市","number":"10-9"}, 
 {"id":"085a0ab3-9f8c-4333-8d8c-7d711c258bed","lat":35.78004500,"long":140.30555700,"status":"done","name":"成田警察署向(中台公園)","address":"中台5丁目 2番地","city":"成田市","number":"18-7"}, 
 {"id":"085e32ea-aa4b-4ee7-9009-28b12f40d441","lat":35.78063180,"long":140.67273410,"status":"not_yet","name":"児童館入口前","address":"夏目2489番地","city":"東庄町","number":"8の4"}, 
 {"id":"086e243f-cac9-4af7-8eb4-f3f4384cb7cd","lat":35.53555070,"long":140.45266260,"status":"done","name":"かねいち海産前","address":"田中荒生1586","city":"九十九里町","number":"14-5"}, 
 {"id":"087528aa-25b2-4537-b998-d4b48e0db67d","lat":35.71397860,"long":139.99102270,"status":"done","name":"夏見台中央公園　南側","address":"夏見４丁目１７－２８夏見台中央公園　南側","city":"船橋市","number":"278"}, 
 {"id":"0877bb42-f98b-4ad1-a99c-602f37807992","lat":35.72817730,"long":139.98147390,"status":"done","name":"前貝塚かるがも公園　西側","address":"前貝塚町１１５０前貝塚かるがも公園　西側","city":"船橋市","number":"238"}, 
 {"id":"0878b3fb-34aa-4888-9c47-d997257883e3","lat":35.81010400,"long":140.10416400,"status":"done","name":"木刈北児童公園南側","address":"印西市木刈4-22","city":"印西市","number":"9-3"}, 
 {"id":"087a74b9-4cf1-4906-b723-f87b2b9c9157","lat":35.66758000,"long":140.14543000,"status":"done","name":"山和公園","address":"稲毛区山王町80-81地先","city":"千葉市","number":"156"}, 
 {"id":"087d9eb1-eb26-417e-90c4-55d35d2f8454","lat":35.27277400,"long":139.85878000,"status":"done","name":"粟畑公会堂前","address":"小久保1483-1","city":"富津市","number":"9-1"}, 
 {"id":"087ff455-aea4-4fd2-b0fd-3ba1ecddd24e","lat":35.48129100,"long":140.09793830,"status":"done","name":"masked","address":"十五沢234-5地先","city":"市原市","number":"45-4"}, 
 {"id":"088af32d-08b6-42ee-be71-4a7b979c94a0","lat":35.74618080,"long":140.03817840,"status":"done","name":"大穴北小学校正門左側民地","address":"大穴北１丁目６大穴北小学校正門左側民地","city":"船橋市","number":"632"}, 
 {"id":"088d6b81-21f6-48db-ab2b-6fc78c23a9f7","lat":35.83396100,"long":140.13564600,"status":"done","name":"masked","address":"印西市大森3213","city":"印西市","number":"4-1"}, 
 {"id":"0890a436-038c-4a1d-9dea-9687c1f27e27","lat":35.50125100,"long":140.32144200,"status":"reserved","name":"中原青年館","address":"永田2499番地付近","city":"大網白里市","number":"1-9"}, 
 {"id":"0894d258-96ea-4520-9b48-1142b3eea905","lat":null,"long":null,"status":"not_yet","name":"dummy","address":"dummy","city":"野田市","number":"dummy"}, 
 {"id":"0895ec6b-f93a-4c85-8d35-7bcc03c2d839","lat":35.71205000,"long":140.15895000,"status":"done","name":"なかよし公園（南側）","address":"中志津3丁目22－9付近","city":"佐倉市","number":"17-6"}, 
 {"id":"089c2a1f-0f09-4eb6-a6ea-717b7f72f9ef","lat":35.36512360,"long":140.00840120,"status":"done","name":"吉野田保育所前","address":"吉野田１９８番地地先","city":"袖ケ浦市","number":"22-4"}, 
 {"id":"08a209c6-2cd1-4260-99e8-942094970d54","lat":35.79818581,"long":139.98993410,"status":"done","name":"クレスト六高台向前グリーンベルト","address":"六高台3丁目79地先","city":"松戸市","number":"60-4"}, 
 {"id":"08a41ca3-6ac4-4004-8e74-92100b0e6b77","lat":35.20283790,"long":139.87896080,"status":"not_yet","name":"masked","address":"相川1592","city":"富津市","number":"17-2"}, 
 {"id":"08ab8260-d650-4249-bbd5-4255c49ec9ca","lat":35.58628390,"long":140.15896080,"status":"done","name":"鎌池公園","address":"中央区仁戸名町492-5地先鎌池公園","city":"千葉市","number":"179"}, 
 {"id":"08b7016b-9815-49aa-b835-f4919dde92c7","lat":35.33453530,"long":139.91405670,"status":"done","name":"台中公園","address":"北子安4-16-1","city":"君津市","number":"6-3"}, 
 {"id":"08b7603b-9423-41f7-8fc0-296ecd8a808a","lat":35.86416444,"long":139.93218780,"status":"done","name":"第16投票所 長崎小学校体育館","address":"長崎１丁目","city":"流山市","number":"4"}, 
 {"id":"08c3e4e1-1098-40f9-87a6-daed3292c8ae","lat":35.54182810,"long":140.20743500,"status":"done","name":"沢田第1公園","address":"瀬又550-141","city":"市原市","number":"57-6"}, 
 {"id":"08c45c6c-d353-4322-9ba9-54d04e86c657","lat":35.90302640,"long":140.39929380,"status":"done","name":null,"address":"鍋店株式会社前","city":"神崎町","number":"1-1"}, 
 {"id":"08cdd449-1661-406a-82d7-398ce4fb2a98","lat":35.73061660,"long":140.18064470,"status":"done","name":"京成臼井駅北口フェンス","address":"稲荷台一丁目8－1付近","city":"佐倉市","number":"7-1"}, 
 {"id":"08df642e-e88b-4c16-a667-fd281f133ebb","lat":35.84187833,"long":139.94181970,"status":"done","name":"第13投票所 東部中学校特別支援教室","address":"名都借","city":"流山市","number":"3"}, 
 {"id":"08e2c86b-1984-4bbe-8363-565c3bdb44b4","lat":35.75972400,"long":140.44735700,"status":"done","name":"高木商店向側","address":"飯笹615向側","city":"多古町","number":"3-3"}, 
 {"id":"08e57864-f249-4665-a037-da5985ed6a6f","lat":35.64697470,"long":140.19191180,"status":"done","name":"旧消防資料館前","address":"吉岡475番地1","city":"四街道市","number":"8-1"}, 
 {"id":"08e8c661-264c-4b9d-8f88-f2eda60da4b5","lat":35.68216740,"long":140.06341350,"status":"done","name":"実籾高校前植栽","address":"実籾本郷２２番","city":"習志野市","number":"9-5"}, 
 {"id":"08f13010-24da-476c-a637-86439bab49f8","lat":35.72178800,"long":140.10379130,"status":"done","name":"大和田中学校正門横","address":"萱田町645","city":"八千代市","number":"12-3-81"}, 
 {"id":"08f387b2-e214-4b9e-8759-e0223da33d67","lat":35.70313440,"long":140.04966610,"status":"done","name":"田喜野井７丁目公園","address":"田喜野井７丁目６田喜野井７丁目公園","city":"船橋市","number":"351"}, 
 {"id":"08f783a7-9423-4645-a198-834e83a9c94c","lat":35.76712720,"long":139.99289970,"status":"done","name":"東中沢三丁目３６ 新堀込公園","address":"東中沢3丁目36 新堀込公園","city":"鎌ヶ谷市","number":"151"}, 
 {"id":"090084ac-dd68-42ed-a749-692532936d38","lat":35.92385960,"long":139.88608990,"status":"reserved","name":"いなげや野田みずき店脇","address":"みずき二丁目43番地","city":"野田市","number":"46-3"}, 
 {"id":"09028860-03c6-4792-8287-f3c59b08e74d","lat":35.58914990,"long":140.15115190,"status":"done","name":"元宮公園","address":"中央区松ヶ丘町293-1地先元宮公園","city":"千葉市","number":"172"}, 
 {"id":"090544bb-27bd-4ce4-97b1-bf3fd5963aba","lat":35.62648310,"long":140.46514034,"status":"done","name":"高富共同利用施設前","address":"松尾町高富778番地","city":"山武市","number":"27-2"}, 
 {"id":"090b3f00-9b65-4648-bb2a-e66195d10269","lat":35.70629260,"long":139.93968240,"status":"done","name":"田尻3丁目9-15市川藤マンション","address":"田尻3丁目9-15市川藤マンション","city":"市川市","number":"370"}, 
 {"id":"090bec14-73bf-4abc-ba02-e9bd0d802835","lat":35.50602000,"long":140.36856100,"status":"reserved","name":"masked","address":"桂山1248番地付近","city":"大網白里市","number":"8-2"}, 
 {"id":"090eb155-b394-45b5-9c47-776bab0e885d","lat":35.64528570,"long":140.25148980,"status":"done","name":"七曲バス停付近","address":"七曲（県道298号線沿い）","city":"佐倉市","number":"12-2"}, 
 {"id":"091e30c4-db91-4755-9285-27f90c6ffa83","lat":35.19288070,"long":140.36084550,"status":"not_yet","name":"御宿中学校西門跡脇","address":"新町68-2","city":"御宿町","number":"1-8"}, 
 {"id":"0923681d-e11b-443b-9def-052b8951eee3","lat":35.79930430,"long":140.00650820,"status":"done","name":"佐津間８９３ さつま幼稚園","address":"佐津間893 さつま幼稚園","city":"鎌ヶ谷市","number":"122"}, 
 {"id":"0929396c-34e4-4fad-a791-c41f59020a5c","lat":35.65770600,"long":140.14525500,"status":"done","name":"山王市民センター","address":"稲毛区六方町55-29","city":"千葉市","number":"162"}, 
 {"id":"09382b1b-e876-4427-98a6-2f27bfaa062c","lat":35.64069664,"long":140.35186529,"status":"done","name":"木原農村協同館前","address":"木原1119番地","city":"山武市","number":"20-7"}, 
 {"id":"09516b5c-6cfe-4de6-af2c-e13fa8a28795","lat":35.72203900,"long":139.93815100,"status":"done","name":"北方1丁目12-1旧北方保育園","address":"北方1丁目12-1旧北方保育園","city":"市川市","number":"213"}, 
 {"id":"09582cc9-3285-47ac-a293-ff34978757f3","lat":35.72193560,"long":140.05449700,"status":"done","name":"習志野台中学校　西側フェンス　駐車場向い","address":"習志野台６丁目２３－１習志野台中学校　西側フェンス　駐車場向い","city":"船橋市","number":"548"}, 
 {"id":"09658f4d-e2fb-4410-945b-ffab10f711bc","lat":35.53559450,"long":140.19196730,"status":"done","name":"パークシティちはら台","address":"ちはら台東2丁目20-1","city":"市原市","number":"62-2"}, 
 {"id":"096ecee3-3e4a-43f5-ae50-7b62d81633e6","lat":35.68866380,"long":140.06858120,"status":"done","name":"実籾１号公園","address":"実籾５丁目７番","city":"習志野市","number":"9-6"}, 
 {"id":"097560f6-4034-4c41-aabd-1006cbe4db7d","lat":35.69868300,"long":139.93925010,"status":"done","name":"masked","address":"masked","city":"市川市","number":"386"}, 
 {"id":"0975986c-8f33-48ab-b2b6-d4f7693799e5","lat":35.82914917,"long":139.95694310,"status":"done","name":"第１３投票区光ケ丘団地４・５号棟前","address":"光ケ丘団地３番","city":"柏市","number":"13"}, 
 {"id":"09760abe-d620-41c4-95f6-84641d6cba6c","lat":35.62366580,"long":140.06970290,"status":"done","name":"高浜清浜小学校","address":"美浜区高浜4-8-2","city":"千葉市","number":"9-2"}, 
 {"id":"09777c47-7ecc-4d6c-83b7-e08abd91283a","lat":35.54608230,"long":140.20377270,"status":"done","name":"誉田2丁目団地","address":"緑区誉田町2-2-25","city":"千葉市","number":"6-3"}, 
 {"id":"09807335-28d0-4fcc-b102-510b4d947be5","lat":35.79345140,"long":140.64176940,"status":"not_yet","name":"東庄町ふれあい公園前","address":"東和田223番地","city":"東庄町","number":"1の4"}, 
 {"id":"0986cbf7-18ac-4ea5-b4d4-77c54b90a226","lat":35.71043680,"long":139.99139050,"status":"done","name":"夏見山下公園　入口左側フェンス","address":"夏見２丁目５夏見山下公園　入口左側フェンス","city":"船橋市","number":"272"}, 
 {"id":"098ef9b5-cae2-4f2b-aea2-7955043602b7","lat":35.41011250,"long":140.04103970,"status":"done","name":"花川金物店脇","address":"下泉５７３番地地先","city":"袖ケ浦市","number":"17-6"}, 
 {"id":"0995e434-63db-41b2-b43e-51746caefb26","lat":35.52643230,"long":140.25674910,"status":"done","name":"大椎第３公園","address":"緑区大椎町1188-190","city":"千葉市","number":"13-6"}, 
 {"id":"09963c14-080f-4450-a82d-5122f5888141","lat":35.79461488,"long":139.96696470,"status":"done","name":"第四中学校（東側）","address":"五香西1丁目6-1","city":"松戸市","number":"57-1"}, 
 {"id":"0998edcd-c527-4f20-968c-c0b5f3e3943e","lat":35.54612000,"long":140.31298800,"status":"reserved","name":"masked","address":"小西470番地付近","city":"大網白里市","number":"3-2"}, 
 {"id":"09a090d9-9a35-4c4c-9bb4-d97032ab588e","lat":35.51354353,"long":140.06814990,"status":"done","name":"松ヶ島新田公園","address":"五井西6-6","city":"市原市","number":"32-10"}, 
 {"id":"09a2e063-5bf8-49c1-bb13-260f56b83eb0","lat":35.30058150,"long":139.95849690,"status":"done","name":"成願寺入口","address":"中島1012","city":"君津市","number":"17-2"}, 
 {"id":"09a3deb8-4f5e-4b1a-84e3-c0ecd71638ca","lat":35.62417470,"long":140.15464330,"status":"done","name":"ことぶき公園","address":"若葉区桜木5-9","city":"千葉市","number":"26-3"}, 
 {"id":"09aeaafa-0a08-4043-ad0b-3c32b31316f7","lat":35.44234000,"long":140.35798000,"status":"done","name":"関新御堂信号","address":"関６６３４−１","city":"白子町","number":"3-3-6"}, 
 {"id":"09b3eacc-8b44-41fd-b70c-260bcadb80ea","lat":35.86386150,"long":140.56425720,"status":"not_yet","name":"新福寺児童遊園","address":"上小堀1498-1付近新福寺児童遊園","city":"香取市","number":"28-12"}, 
 {"id":"09b57042-aa87-4368-9ef0-541c982a2779","lat":35.51470430,"long":140.14292900,"status":"done","name":"山木市営住宅前","address":"山木52番地1","city":"市原市","number":"17-5"}, 
 {"id":"09b5d3dd-c396-4705-b0ad-2b8111b37f3f","lat":35.64328790,"long":140.06133690,"status":"done","name":"高等特別支援学校","address":"美浜区真砂5-18-1地先","city":"千葉市","number":"1-1"}, 
 {"id":"09c82124-5938-4a76-be82-8094f28bdbc8","lat":35.21377800,"long":140.02514210,"status":"done","name":"masked","address":"宿原642-2","city":"君津市","number":"21-6"}, 
 {"id":"09cb24eb-ecd8-4881-8f99-594e162a9669","lat":35.29715000,"long":139.87065100,"status":"not_yet","name":"masked","address":"西大和田270-3","city":"富津市","number":"12-8"}, 
 {"id":"09cdc7cc-ed74-469c-9185-10b7941b8522","lat":35.75455900,"long":140.29699700,"status":"done","name":"向台街区公園前","address":"公津の杜3丁目 23番地","city":"成田市","number":"39-4"}, 
 {"id":"09d111b4-6bfb-4f24-be0f-6b7c803f1322","lat":35.58337270,"long":140.42469940,"status":"done","name":"上武射田コミュニティ会館前","address":"上武射田５０３","city":"東金市","number":"17-1"}, 
 {"id":"09d1340b-356b-40d3-b068-091aecb8543e","lat":35.94205560,"long":139.92429080,"status":"done","name":"福田郵便局脇","address":"三ツ堀586番地の6","city":"野田市","number":"18-5"}, 
 {"id":"09d7ca15-e833-4951-b844-ec2758ce6576","lat":35.81209570,"long":140.65945260,"status":"not_yet","name":"八木山火の見下","address":"窪野谷616番地","city":"東庄町","number":"2の7"}, 
 {"id":"09d9e978-b397-4c18-9a82-67e664e343cd","lat":35.71522200,"long":140.23171600,"status":"done","name":"仲田公園","address":"城内町4","city":"佐倉市","number":"2-6"}, 
 {"id":"09e5e934-aabd-42e9-a743-85a33f07f150","lat":35.35824190,"long":139.93564870,"status":"done","name":"ヘア―サロンタカサカ横","address":"真舟2丁目32番地先","city":"木更津市","number":"269"}, 
 {"id":"09f05dde-5116-412c-a9de-1794554dfcb3","lat":35.76578550,"long":139.91572250,"status":"done","name":"(有)岡藤発柿作所前ガードレール","address":"大橋650-9地先","city":"松戸市","number":"33-6"}, 
 {"id":"0a00df43-854f-4f08-9db9-db5b1be2c6ab","lat":35.70455330,"long":139.96782660,"status":"done","name":"海神北広場　東側","address":"海神６丁目１８－１５海神北広場　東側","city":"船橋市","number":"125"}, 
 {"id":"0a07f2f2-8947-4d94-a703-e36898a3abdd","lat":35.73785160,"long":139.98019390,"status":"done","name":"法典小学校　正門左側","address":"藤原５丁目２－１法典小学校　正門左側","city":"船橋市","number":"193"}, 
 {"id":"0a0e4743-c48e-47f2-b977-a86f220753c9","lat":35.54289200,"long":140.31534070,"status":"done","name":"みどりが丘自治会館北側","address":"みどりが丘三丁目16番地2付近","city":"大網白里市","number":"3-7"}, 
 {"id":"0a0ef004-d8c2-4f9d-adca-391a415a6fde","lat":35.64335595,"long":140.44209480,"status":"done","name":"masked","address":"松尾町蕪木922番地","city":"山武市","number":"28-7"}, 
 {"id":"0a145bac-a9f6-43b5-a126-dc3838013868","lat":35.53203650,"long":140.23732290,"status":"done","name":"越智小学校","address":"緑区越智町705-359","city":"千葉市","number":"12-1"}, 
 {"id":"0a1515e6-f710-4252-a799-8439a5130dbf","lat":35.02793830,"long":139.99227300,"status":"not_yet","name":"下三原電軌付近","address":"和田町下三原371番地1","city":"南房総市","number":"27-3"}, 
 {"id":"0a169834-4c6d-4112-86e0-e49715d22597","lat":35.13079080,"long":140.21811230,"status":"not_yet","name":"masked","address":"浜行川１９１０","city":"勝浦市","number":"6-4"}, 
 {"id":"0a1d83cc-c258-414d-b15f-5c7b775bb252","lat":35.74440100,"long":140.04636270,"status":"done","name":"大穴新田市民の森　南側ゴミ収集所左","address":"大穴北８丁目４９３－１大穴新田市民の森　南側ゴミ収集所左","city":"船橋市","number":"585"}, 
 {"id":"0a234bf2-f165-4873-b9a8-acc45ef64db2","lat":35.48977960,"long":140.40437600,"status":"done","name":"農村環境改善センター","address":"南今泉140番地1","city":"大網白里市","number":"9-7"}, 
 {"id":"0a23bf26-70f7-4969-a004-65e60ea71b4d","lat":35.86639300,"long":140.04820940,"status":"done","name":"近隣センターこもれび西側フェンス","address":"東我孫子１丁目４１－３３近隣センターこもれび西側フェンス","city":"我孫子市","number":"121"}, 
 {"id":"0a3a7617-0afa-4375-8f9f-bc15f408dc39","lat":35.69034450,"long":140.12007080,"status":"done","name":"こてはし台保育所","address":"花見川区こてはし台5-12","city":"千葉市","number":"24-3"}, 
 {"id":"0a40b356-383f-4da3-98cb-7d935be2c8f3","lat":35.51912450,"long":140.33908610,"status":"reserved","name":"masked","address":"大網5066番地5付近","city":"大網白里市","number":"14-7"}, 
 {"id":"0a43bd40-019c-47d2-8115-b389d2a73a0a","lat":35.68676000,"long":140.29765000,"status":"done","name":"斉藤 裕博所有畑(野立)","address":"榎戸406番地2","city":"八街市","number":"9-5"}, 
 {"id":"0a4b0522-b4c4-40c1-a16e-4b14f120f06a","lat":35.96306100,"long":139.84094110,"status":"reserved","name":"masked","address":"岩名1169番地の2","city":"野田市","number":"11-4"}, 
 {"id":"0a54342a-4850-4ea7-8b15-950875d39a87","lat":35.78398490,"long":140.62438200,"status":"not_yet","name":"masked","address":"長部125","city":"旭市","number":"18_6"}, 
 {"id":"0a5546a1-7e87-447b-9b24-ee1bc6cc60a6","lat":35.49159740,"long":140.06016610,"status":"done","name":"天王台川原前公園","address":"千種3丁目9","city":"市原市","number":"5-8"}, 
 {"id":"0a609022-6fde-48d9-b21e-fc761b3843a8","lat":35.75465190,"long":140.58620320,"status":"not_yet","name":"カナスギ呉服店東 側","address":"鏑木2132","city":"旭市","number":"19_2"}, 
 {"id":"0a653949-10e1-4f4f-b270-9f5440efa9c1","lat":35.88885889,"long":139.97535940,"status":"done","name":"第４６投票区柏市立松葉第二小学校門横","address":"松葉町二丁目１６番","city":"柏市","number":"46"}, 
 {"id":"0a65b535-cf58-4180-bbe2-5031bf172cdd","lat":35.84596028,"long":139.91316720,"status":"done","name":"第7投票所 宮園自治会館","address":"思井","city":"流山市","number":"2"}, 
 {"id":"0a6780ed-940e-4051-861e-719c70a8ea74","lat":35.23954000,"long":140.16715000,"status":"not_yet","name":"大田代入口","address":"大田代96-1","city":"大多喜町","number":"1-4"}, 
 {"id":"0a6a5d8f-1ab8-461b-a572-c9c54598f6b1","lat":35.75952360,"long":140.11351830,"status":"done","name":"米本団地3街区35棟横","address":"米本団地3街区35棟","city":"八千代市","number":"26-4-185"}, 
 {"id":"0a6ad7ed-8d5b-4065-991c-39f656ba6a8e","lat":35.75087960,"long":139.98434910,"status":"reserved","name":"西道野辺１３－４０ ４０号棟横","address":"西道野辺13-40 40号棟横","city":"鎌ヶ谷市","number":"69"}, 
 {"id":"0a72e4bc-e81b-4a59-b342-64a0d7e9c5e7","lat":35.72141440,"long":140.57874010,"status":"not_yet","name":"経営体育成基盤整備事業椿海支区事務所前","address":"椿972-9地先","city":"匝瑳市","number":"12-6"}, 
 {"id":"0a7504ea-00df-4bca-ae21-66433043bf03","lat":35.72172980,"long":140.22331250,"status":"done","name":"佐倉第2児童公園フェンス","address":"田町11－1付近","city":"佐倉市","number":"22-6"}, 
 {"id":"0a77c228-06b9-457d-96e9-326505a86f21","lat":35.80776500,"long":140.15886500,"status":"done","name":"牧の原西街区公園南側","address":"印西市牧の原3-109","city":"印西市","number":"22-6"}, 
 {"id":"0a78319c-ea02-4b6a-b038-e017f5c5eeff","lat":35.69854950,"long":140.02882470,"status":"done","name":"前原公園　西側","address":"前原東３丁目３３－１前原公園　西側","city":"船橋市","number":"384"}, 
 {"id":"0a7c4cd1-5296-4817-9d01-72eb1eed96ad","lat":35.78382537,"long":139.92105190,"status":"done","name":"高橋金属㈱前(バス停付近)","address":"総合6丁目4-33地先","city":"松戸市","number":"8-8"}, 
 {"id":"0a80ed47-60bc-4811-bae7-f3866eb85d8d","lat":35.66999630,"long":140.15510080,"status":"done","name":"桜ヶ丘会館前","address":"大日80番地1","city":"四街道市","number":"15-2"}, 
 {"id":"0a967723-2c80-4c1c-91a0-23f06b476d01","lat":35.61724520,"long":140.09330290,"status":"done","name":"幸町団地④8幸町第3バス停脇","address":"美浜区幸町2-11-1 地先","city":"千葉市","number":"20-6"}, 
 {"id":"0a9a2d29-c758-437a-9264-76a2e87413dd","lat":35.88700028,"long":139.98585170,"status":"done","name":"masked","address":"宿連寺４３９番地の６","city":"柏市","number":"48"}, 
 {"id":"0a9fbe5d-78a8-48e9-b2d1-2132b0fd05be","lat":35.46786000,"long":140.04960000,"status":"done","name":"みどりヶ丘公園","address":"青葉台7丁目18-4","city":"市原市","number":"3-3"}, 
 {"id":"0aa3a26b-b891-4b83-9888-5b2837b1ed67","lat":35.89496806,"long":139.97224580,"status":"done","name":"第３８投票区花野井公会堂横","address":"花野井９８１番地の４","city":"柏市","number":"38"}, 
 {"id":"0aa4a4aa-ab3d-42d2-a4b3-5265aff98c40","lat":35.79065300,"long":140.28686500,"status":"done","name":"玉造ショッピングセンターバス停","address":"玉造3丁目","city":"成田市","number":"23-2"}, 
 {"id":"0aa9b4a9-ca95-44ff-b9d9-8033bd7f5be4","lat":35.67869640,"long":139.89881600,"status":"done","name":"相之川2丁目3相之川公園/南側","address":"相之川2丁目3相之川公園/南側","city":"市川市","number":"541"}, 
 {"id":"0aaa6dbf-f245-43ed-84f9-f4ccb6523fbc","lat":35.41900570,"long":140.02266800,"status":"done","name":"なかよし公園前","address":"のぞみ野３１番地１２","city":"袖ケ浦市","number":"12-2"}, 
 {"id":"0ab98151-5198-4a42-94e8-6fd159bb7c0c","lat":35.74854000,"long":140.29206000,"status":"done","name":"伊篠旧山本商店前","address":"伊篠422－3","city":"酒々井町","number":"2-7"}, 
 {"id":"0abc33d6-9345-429e-8144-2f6f578a2f8e","lat":35.66532000,"long":140.31786000,"status":"error_wrong_place","name":"八街市役所(野立)","address":"八街ほ35番地29","city":"八街市","number":"1-5"}, 
 {"id":"0abf54a7-5b5d-4a16-91d7-d889cdb2de6e","lat":35.71889000,"long":140.25867000,"status":"done","name":"成城台美空公園","address":"上本佐倉315-29","city":"酒々井町","number":"7-6"}, 
 {"id":"0ac408b9-d2f7-4de7-8a5e-58ea5833b28f","lat":35.79865841,"long":139.90365930,"status":"done","name":"JFE鋼板前バス停付近水路フェンス","address":"栄町1丁目50-1地先","city":"松戸市","number":"21-7"}, 
 {"id":"0acb359a-30b9-4dca-ba7b-aa57c6a6ccfb","lat":35.53517120,"long":140.15878740,"status":"done","name":"masked","address":"草刈686地先","city":"市原市","number":"20-1"}, 
 {"id":"0ad11032-2404-4ab9-9879-bd4973c0ca6c","lat":35.68760330,"long":140.09399200,"status":"done","name":"花見川第二保育所","address":"花見川区花見川2-41-101","city":"千葉市","number":"18-6"}, 
 {"id":"0ad1d6f3-0cf2-4c7d-b156-c007fb980247","lat":35.53373000,"long":140.19231000,"status":"done","name":"水の江小学校フェンス","address":"ちはら台東27丁目15番地","city":"市原市","number":"62-4"}, 
 {"id":"0ada86ee-469e-49ef-8ac5-d4873a071b35","lat":35.40935920,"long":140.11279300,"status":"done","name":"西浜自治会館","address":"南岩崎415","city":"市原市","number":"78-2"}, 
 {"id":"0adc6c1f-388d-49ba-b2ce-ca50f3bfdff8","lat":35.70314600,"long":139.93626400,"status":"done","name":"田尻4丁目9田尻第2少年広場","address":"田尻4丁目9田尻第2少年広場","city":"市川市","number":"367"}, 
 {"id":"0adcbba6-0aaa-4261-87c9-b16a50f5931d","lat":34.96136880,"long":139.96134410,"status":"not_yet","name":"岩井郵便局交差点1分消防前","address":"久枝251番地2","city":"南房総市","number":"4-3"}, 
 {"id":"0aeb2e3f-7eb8-4a14-b89c-ac23f2e0a936","lat":34.97082560,"long":139.94516230,"status":"not_yet","name":"千倉総合運動公園入口","address":"千倉町川戸544番地8","city":"南房総市","number":"16-8"}, 
 {"id":"0aede4b3-1717-426d-9160-008481163c73","lat":35.73224300,"long":140.83043810,"status":"done","name":"末広町広場南側(敷地内)","address":"末広町3番地の1 末広町広場南側(敷地内)","city":"銚子市","number":"6-3"}, 
 {"id":"0aef6134-44fd-4357-949f-24fa4a8860b1","lat":35.72354410,"long":139.93652970,"status":"done","name":"八幡5丁目9八方橋脇真間川欄干","address":"八幡5丁目9八方橋脇真間川欄干","city":"市川市","number":"259"}, 
 {"id":"0af0c6e0-5445-4512-aff7-11ca1907b30e","lat":35.68281180,"long":139.90958320,"status":"done","name":"湊新田1丁目1-3ニューグランベール/南側","address":"湊新田1丁目1-3ニューグランベール/南側","city":"市川市","number":"493"}, 
 {"id":"0af421e1-b041-4124-b99f-e43f3a369a78","lat":34.91974600,"long":139.84472700,"status":"not_yet","name":"石井酒店前駐車場","address":"大神宮253-1","city":"館山市","number":"16-4"}, 
 {"id":"0af46d1b-639a-4e9d-8225-965119b3471c","lat":35.91901440,"long":139.89892250,"status":"done","name":"島会館駐車場西側","address":"山崎2549番地","city":"野田市","number":"33-1"}, 
 {"id":"0b057f16-4d00-4c67-ac80-f3927886938e","lat":35.57879000,"long":140.30298000,"status":"done","name":"市立二州小学校フェンス","address":"山田台1番地","city":"八街市","number":"16-6"}, 
 {"id":"0b07c398-05cc-4868-aa49-736c80f5830a","lat":35.77752000,"long":140.04796760,"status":"done","name":"白井木戸公園","address":"池の上2－21","city":"白井市","number":"9-3"}, 
 {"id":"0b0cfb40-e52f-48e3-9598-88bcda1640bd","lat":35.64345700,"long":140.16443000,"status":"done","name":"バス停家畜市場前横","address":"千葉市若葉区若松町410-1","city":"千葉市","number":"9-6"}, 
 {"id":"0b10ad52-e5ba-43b0-85d9-59ef566c72e4","lat":35.94499460,"long":139.86344440,"status":"done","name":"キッコーマン社員駐車場前","address":"野田350番地","city":"野田市","number":"1-2"}, 
 {"id":"0b124499-9174-4e96-bfae-c5cd95dee9c3","lat":35.40248590,"long":139.93966270,"status":"not_yet","name":"千葉スバル自動車横","address":"高柳949番地先","city":"木更津市","number":"118"}, 
 {"id":"0b18b78c-a19e-4995-8bda-0cf9b65277aa","lat":35.70780190,"long":140.49027630,"status":"not_yet","name":"masked","address":"篠本２９９７地先","city":"横芝光町","number":"9-4"}, 
 {"id":"0b18f843-e762-467a-8acf-bb04fe04bf2d","lat":35.65922200,"long":140.55394000,"status":"done","name":"masked","address":"川辺7254","city":"匝瑳市","number":"15-7"}, 
 {"id":"0b1f6f23-4e30-4e1d-a0e4-4760416b0cf2","lat":35.39916940,"long":140.28670490,"status":"done","name":"上永吉自治会館前","address":"上永吉５６７","city":"茂原市","number":"13-5"}, 
 {"id":"0b2429f0-f79f-47a7-aba8-896c4156d7a8","lat":35.69952650,"long":139.97251540,"status":"done","name":"海神川まちかどスポーツ広場北側　三井のリ","address":"海神町２丁目６海神川まちかどスポーツ広場北側　三井のリ","city":"船橋市","number":"98"}, 
 {"id":"0b25090c-12b0-4801-98ab-62cfdd5d8958","lat":35.61059450,"long":140.15175740,"status":"done","name":"都ヶ丘公園","address":"若葉区加曽利町812-28","city":"千葉市","number":"18-7"}, 
 {"id":"0b25684d-838a-4518-a83f-89e44b9ed81e","lat":35.89464060,"long":140.55972680,"status":"done","name":"丸峰入口","address":"大倉304付近丸峰入口","city":"香取市","number":"12-3"}, 
 {"id":"0b268845-b94e-4047-9b3b-d2879c432e56","lat":35.74719090,"long":139.92697020,"status":"done","name":"曽谷7丁目18-1曽谷小学校/正門","address":"曽谷7丁目18-1曽谷小学校/正門","city":"市川市","number":"72"}, 
 {"id":"0b274c97-e8b2-4958-aa7f-4eaadda613e7","lat":35.82556222,"long":139.97694690,"status":"done","name":"第４４投票区デニーズ柏増尾台店横","address":"増尾台三丁目６番","city":"柏市","number":"44"}, 
 {"id":"0b35dffb-c7bb-4984-84b9-38cb10d05cc8","lat":35.59281420,"long":140.12222430,"status":"done","name":"寒川三丁目公園","address":"中央区寒川町3-138-2地先寒川三丁目公園","city":"千葉市","number":"123"}, 
 {"id":"0b379683-4612-4b32-91c4-24aee8aa45fb","lat":35.67690793,"long":140.39679766,"status":"not_yet","name":"masked","address":"板川339番地4","city":"山武市","number":"14-1"}, 
 {"id":"0b3b00f7-2e6a-4f93-825f-3b679557276e","lat":35.45669330,"long":140.02518220,"status":"done","name":"masked","address":"代宿１１３６番地","city":"袖ケ浦市","number":"11-2"}, 
 {"id":"0b442f7e-7114-44eb-ac0f-4970e59b7944","lat":35.47393370,"long":140.08856520,"status":"done","name":"今富児童遊園","address":"今富743番地1","city":"市原市","number":"45-6"}, 
 {"id":"0b4e2e1f-b5a4-4237-841d-be065b563ea5","lat":35.26575240,"long":140.16042570,"status":"done","name":"四国井泉店前","address":"朝生原791地先","city":"市原市","number":"89-4"}, 
 {"id":"0b528ca1-82a0-4431-8760-79c7b2e04bb4","lat":35.75319700,"long":139.99396270,"status":"done","name":"丸山井戸作公園　北側","address":"丸山３丁目２７－１０丸山井戸作公園　北側","city":"船橋市","number":"222"}, 
 {"id":"0b58bbc7-534b-4002-a23b-eaadf607db14","lat":35.54723410,"long":140.45934230,"status":"done","name":"東光寺入口","address":"作田975-1","city":"九十九里町","number":"16-4"}, 
 {"id":"0b60e256-90a2-4378-9a24-97d32f94cacc","lat":35.74463510,"long":139.93292880,"status":"done","name":"masked","address":"masked","city":"市川市","number":"61"}, 
 {"id":"0b7d9a85-4089-4135-bed5-873f0bbe7762","lat":35.30073200,"long":139.88162200,"status":"not_yet","name":"相野谷集会所前","address":"相野谷1089-5","city":"富津市","number":"12-9"}, 
 {"id":"0b7e8375-4f4f-465a-9db5-0018de2f276e","lat":35.87728890,"long":140.01162740,"status":"done","name":"天子山地下道脇ガードレール","address":"つくし野１丁目30天子山地下道脇ガードレール","city":"我孫子市","number":"19"}, 
 {"id":"0b8c8d3e-f1d1-40c9-8f4d-1fb8a14a2634","lat":35.61604360,"long":140.19916900,"status":"done","name":"千城台東第8公園","address":"若葉区千城台東4-19","city":"千葉市","number":"15-4"}, 
 {"id":"0b96d852-9ffd-4d13-8159-cca93bdf3b7b","lat":35.87075260,"long":140.53813690,"status":"not_yet","name":"多田新田公会堂前","address":"多田1232多田新田公会堂前","city":"香取市","number":"1-9"}, 
 {"id":"0b96fac0-950f-4475-9081-bf28127aec11","lat":35.70696380,"long":140.05011640,"status":"done","name":"薬円台３丁目公園　東側（入口左）","address":"薬円台３丁目１６薬円台３丁目公園　東側（入口左）","city":"船橋市","number":"326"}, 
 {"id":"0b9a757b-71c8-4c26-9f09-16e4b43f270d","lat":35.56872210,"long":140.41496310,"status":"done","name":"成東地区コミュニティセンター前","address":"関内５６４－３","city":"東金市","number":"18-4"}, 
 {"id":"0b9f525c-6640-4641-a4d4-59ab2e6d3b0a","lat":35.51397020,"long":140.38008550,"status":"done","name":"立福岡小学校前","address":"砂古瀬４２２－１","city":"東金市","number":"13-2"}, 
 {"id":"0bad870d-2914-429c-9509-b2ae29d6245b","lat":35.28243200,"long":140.28323100,"status":"not_yet","name":"旧中川保育所前","address":"行川724番地2","city":"いすみ市","number":"3-1"}, 
 {"id":"0bb426db-9ca4-464c-a114-8a7bd12b6ec6","lat":35.68989000,"long":139.92063460,"status":"done","name":"本塩17-13月島食品工業行徳寮","address":"本塩17-13月島食品工業行徳寮","city":"市川市","number":"407"}, 
 {"id":"0bb6e4dc-a6a8-4087-b29d-ca175882bff8","lat":35.65215520,"long":139.89297290,"status":"done","name":"マルエツ前植込","address":"富士見1-3地先","city":"浦安市","number":"10_2"}, 
 {"id":"0bd3153a-3b27-442d-a7fc-81a64aee2b04","lat":35.63862150,"long":139.89849580,"status":"done","name":"見明川中学校バス停前","address":"弁天2-37","city":"浦安市","number":"24_3"}, 
 {"id":"0bd37bb7-d08c-4002-8a8b-bb85579f90c8","lat":35.50319600,"long":140.11820130,"status":"done","name":"国分寺台西中学校2","address":"国分寺台中央5丁目1番地1","city":"市原市","number":"41-4"}, 
 {"id":"0bd70764-7327-4673-ab10-f639a08d9e89","lat":35.68130580,"long":139.92982950,"status":"done","name":"幸1丁目11-1幸小学校/裏門","address":"幸1丁目11-1幸小学校/裏門","city":"市川市","number":"439"}, 
 {"id":"0bd748a1-d13d-4f88-a274-3892b7dc4d05","lat":35.51441510,"long":140.39840340,"status":"done","name":"masked","address":"大沼田６６１","city":"東金市","number":"13-3"}, 
 {"id":"0be0cf4f-fcfd-4f6c-a00b-253c51cccd96","lat":35.80967276,"long":139.90368140,"status":"done","name":"masked","address":"栄町8-606、607-2","city":"松戸市","number":"17-7"}, 
 {"id":"0be95dcb-435f-4f16-9a53-8bcbdb22d9f9","lat":35.90860833,"long":139.91640750,"status":"done","name":"第28投票所 東深井小学校体育館","address":"東深井","city":"流山市","number":"6"}, 
 {"id":"0beee53e-f589-4df3-af51-424ea63fd6be","lat":35.83811620,"long":140.48410940,"status":"not_yet","name":"旧福田小学校正門","address":"福田240旧福田小学校正門","city":"香取市","number":"3-3"}, 
 {"id":"0bff31c0-14d9-4951-9b86-a49e242528c1","lat":35.64116000,"long":140.09627000,"status":"done","name":"丸よし公園","address":"稲毛区小中台6-3-2地先","city":"千葉市","number":"88"}, 
 {"id":"0c092efb-e946-423e-a0e4-ae39f51874cb","lat":35.60673540,"long":140.12379070,"status":"done","name":"吾妻公園","address":"中央区中央4-10地先吾妻公園","city":"千葉市","number":"4"}, 
 {"id":"0c0be7fc-bd6a-4807-a47a-55533b92eaa4","lat":35.65383310,"long":140.03589890,"status":"done","name":"幕張西第1公園","address":"美浜区幕張西2-10","city":"千葉市","number":"5-3"}, 
 {"id":"0c108111-0064-4a1c-a91f-6324d3f26595","lat":35.84012167,"long":139.93703470,"status":"done","name":"第13投票所 東部中学校特別支援教室","address":"前ケ崎","city":"流山市","number":"7"}, 
 {"id":"0c1111d7-f08d-46b1-99e6-1c0fcd270cb3","lat":35.67869640,"long":139.89881600,"status":"done","name":"相之川2丁目3相之川公園/東側","address":"相之川2丁目3相之川公園/東側","city":"市川市","number":"542"}, 
 {"id":"0c1672e8-55ee-4075-aa64-33e948cc8b59","lat":35.75872040,"long":140.01371820,"status":"done","name":"鎌ケ谷一丁目６－８ 鎌ケ谷コミュニティセンター","address":"鎌ケ谷1丁目6-8 鎌ケ谷コミュニティセンタ-","city":"鎌ヶ谷市","number":"11"}, 
 {"id":"0c1e2641-4f51-46a8-b5ba-1efe74ad2dfd","lat":35.64471000,"long":140.27646000,"status":"not_yet","name":"クリーンセンター入口(野立)","address":"用草509番地2","city":"八街市","number":"19-7"}, 
 {"id":"0c1e2f34-aa11-4f34-9f72-1eb85bc479c6","lat":35.76932500,"long":140.40228300,"status":"done","name":"芝山千代田駅入口","address":"香山新田148-1","city":"芝山町","number":"6-7"}, 
 {"id":"0c210037-dd49-469a-a34b-619229a93415","lat":35.82678550,"long":140.69140440,"status":"not_yet","name":"羽計台青年館横","address":"羽計2424番地190","city":"東庄町","number":"9の6"}, 
 {"id":"0c260125-f3c8-4cf0-83f5-8a64f7d0b11d","lat":35.82615050,"long":140.41031890,"status":"done","name":"成田市東商工会前","address":"吉岡 4番地1","city":"成田市","number":"36-5"}, 
 {"id":"0c3a3b46-8245-4cfb-b51a-b5c7df308b32","lat":35.87737440,"long":140.03545060,"status":"done","name":"柴崎神社脇法面","address":"柴崎176柴崎神社脇法面","city":"我孫子市","number":"137"}, 
 {"id":"0c3c93f0-6e79-4e1c-94b8-5488fa6b1135","lat":35.66309440,"long":140.16475680,"status":"done","name":"四街道駅北口広場","address":"四街道一丁目2番","city":"四街道市","number":"4-1"}, 
 {"id":"0c3f33fa-5162-42e7-a156-93a83312a11f","lat":35.82850940,"long":139.90752120,"status":"done","name":"小鳥のくる公園（南側）","address":"新松戸5丁目196","city":"松戸市","number":"92-6"}, 
 {"id":"0c44f0f8-2036-4ca6-9c83-f79579180e92","lat":35.60802790,"long":140.50440788,"status":"done","name":"殿台信号交差点","address":"蓮沼イの3402番地1","city":"山武市","number":"21-1"}, 
 {"id":"0c47ac03-e482-4baa-9875-bee849dc78fe","lat":35.72544210,"long":139.92024990,"status":"done","name":"平田1丁目17-10市営住宅平田団地","address":"平田1丁目17-10市営住宅平田団地","city":"市川市","number":"343"}, 
 {"id":"0c47d66c-ac27-415e-8799-d44445e130d9","lat":35.69541170,"long":139.99804430,"status":"done","name":"浜竹公園　西側","address":"東船橋７丁目１２浜竹公園　西側","city":"船橋市","number":"28"}, 
 {"id":"0c49f6c9-7f6f-4333-b7ec-19d400abbf98","lat":35.73661100,"long":139.94382790,"status":"done","name":"宮久保5丁目7-1宮久保小学校/北側","address":"宮久保5丁目7-1宮久保小学校/北側","city":"市川市","number":"160"}, 
 {"id":"0c4f48eb-c080-460e-87a3-b6f8df718369","lat":35.76008270,"long":140.14293210,"status":"done","name":"少年自然の家駐車場","address":"保品1060-2","city":"八千代市","number":"24-7-172"}, 
 {"id":"0c54ffe0-713c-424d-8955-51db64c23545","lat":35.84168680,"long":140.49816420,"status":"not_yet","name":"九美上第四公民館","address":"九美上25-109九美上第四公民館","city":"香取市","number":"2-8"}, 
 {"id":"0c56853a-464a-4387-86cd-f31d028e10b0","lat":35.80724400,"long":140.10619800,"status":"done","name":"木刈中児童公園西側","address":"印西市木刈2-3","city":"印西市","number":"9-7"}, 
 {"id":"0c57f37f-892a-4db5-9d43-43978b249ac9","lat":35.64864210,"long":139.89713500,"status":"done","name":"東野二丁目子供遊園","address":"東野2-4地先","city":"浦安市","number":"15_6"}, 
 {"id":"0c68f1de-fd9c-46f0-9503-216a49d75612","lat":35.62297550,"long":140.18903590,"status":"done","name":"イコアス千城台前（植込み）","address":"若葉区千城台北3-21","city":"千葉市","number":"13-5"}, 
 {"id":"0c6d70d9-4b6a-46b2-a2aa-51c1f23346db","lat":35.77571785,"long":139.90708140,"status":"done","name":"旭ヶ丘第1公園（西側）","address":"松戸2275","city":"松戸市","number":"4-7"}, 
 {"id":"0c78e125-f0da-4705-964d-fb585262ad91","lat":35.45700530,"long":140.01280280,"status":"done","name":"消防第９分団詰所跡地向","address":"久保田２６８７番地１１先地","city":"袖ケ浦市","number":"10-5"}, 
 {"id":"0c7faf39-494b-4a03-a6bd-0df03368ffdc","lat":35.70707890,"long":139.99019970,"status":"done","name":"夏見１丁目あおぞら中央公園　南側","address":"夏見１丁目１３夏見１丁目あおぞら中央公園　南側","city":"船橋市","number":"274"}, 
 {"id":"0c8db566-c385-45a2-8f85-73b1b5f87ab0","lat":35.66927670,"long":140.17657670,"status":"done","name":"さちが丘第1幼児公園","address":"さちが丘一丁目16番","city":"四街道市","number":"13-3"}, 
 {"id":"0c908eed-59ed-45eb-82f6-76aebd4f4109","lat":35.73422970,"long":140.84422060,"status":"not_yet","name":"東部児童遊園南西側(フェンス)","address":"和田町1番地の1 東部児童遊園南西側(フェンス)","city":"銚子市","number":"5-2"}, 
 {"id":"0c9e0025-540b-4a74-a354-c1577671d642","lat":35.42595420,"long":139.97599610,"status":"done","name":"袖ケ浦高校前広域農道緑地","address":"神納５０８番地３","city":"袖ケ浦市","number":"4-1"}, 
 {"id":"0ca428ca-7370-41c4-8a7f-3929751cdab1","lat":35.70408500,"long":140.03465200,"status":"done","name":"二宮出張所　二宮中学校入口左側","address":"滝台１丁目１－２０二宮出張所　二宮中学校入口左側","city":"船橋市","number":"372"}, 
 {"id":"0ca50197-4817-42e8-8a34-eaf49d62957f","lat":35.86691670,"long":140.07371380,"status":"done","name":"湖北台近隣センター","address":"湖北台８丁目２－１湖北台近隣センター","city":"我孫子市","number":"167"}, 
 {"id":"0caeae1a-5421-4719-b544-f5a9d258c2eb","lat":35.89848600,"long":140.52950600,"status":"done","name":"水の郷小学校正門","address":"津宮1215付近水の郷小学校正門","city":"香取市","number":"11-5"}, 
 {"id":"0cd03a9a-6105-45e3-9ab4-0a68231ddef6","lat":35.84311000,"long":139.94294110,"status":"done","name":"第13投票所 東部中学校特別支援教室","address":"名都借","city":"流山市","number":"4"}, 
 {"id":"0cd54056-484b-40f4-b876-1c86ebe5a590","lat":35.72238090,"long":140.10806550,"status":"done","name":"旧子ども支援センターすてっぷ21大和田","address":"萱田2277","city":"八千代市","number":"11-3-74"}, 
 {"id":"0cdf1bff-d434-480e-935c-5f9fdd5263a9","lat":35.62730830,"long":140.07686280,"status":"done","name":"高洲公園","address":"美浜区高洲3-2","city":"千葉市","number":"13-7"}, 
 {"id":"0ce271ba-c325-4865-b52f-edf085a54a90","lat":35.34270300,"long":140.04026750,"status":"done","name":"masked","address":"佐野36番地","city":"木更津市","number":"239"}, 
 {"id":"0ce2ea64-a9d4-4185-a463-ac72958ecf13","lat":35.75814520,"long":140.27691810,"status":"done","name":"さぎ山第二街区公園前","address":"宗吾4丁目 26番地1","city":"成田市","number":"2-5"}, 
 {"id":"0ce41aee-f40f-485a-8a5b-615e7efc4466","lat":35.92140040,"long":139.91912950,"status":"done","name":"masked","address":"下三ケ尾20番地","city":"野田市","number":"17-7"}, 
 {"id":"0ced5b9e-cf17-4fb6-8120-2ae718bcd2fb","lat":35.40952310,"long":140.02261540,"status":"done","name":"下泉入口","address":"岩井１４２３番地","city":"袖ケ浦市","number":"23-5"}, 
 {"id":"0cedc1aa-a83a-4e63-b1cb-d2d37df860ec","lat":35.66444000,"long":140.32081000,"status":"done","name":"masked","address":"八街に121番地72","city":"八街市","number":"2-1"}, 
 {"id":"0cf816fe-be72-4472-8daa-5f8baf9b2077","lat":35.60178590,"long":140.32331840,"status":"done","name":"masked","address":"滝沢７２０","city":"東金市","number":"8-6"}, 
 {"id":"0cfbe44b-3a3c-4dea-ac5b-b038b1ba83c7","lat":35.70793690,"long":140.61404510,"status":"not_yet","name":"元JAちばみどり 豊畑支店西側","address":"泉川1490","city":"旭市","number":"8_5"}, 
 {"id":"0cfec3aa-3ba0-4f53-842a-41c164cee3c0","lat":35.81789111,"long":139.95706670,"status":"done","name":"第４１投票区柏市酒井根近隣センター","address":"酒井根６５３番地の４","city":"柏市","number":"41"}, 
 {"id":"0d0a99bd-c15b-4b73-89c0-b25713077158","lat":35.14542300,"long":139.83557400,"status":"done","name":"masked","address":"元名856番地","city":"鋸南町","number":"4-3"}, 
 {"id":"0d130391-20fb-4e25-bb0d-0be9bf19e6dc","lat":35.69849690,"long":140.09396560,"status":"done","name":"八千代台南2-1カールドレール","address":"八千代台南2-1","city":"八千代市","number":"1-5-5"}, 
 {"id":"0d233c01-6caa-4272-ae04-c7e84faa03cb","lat":35.76896180,"long":140.30363510,"status":"done","name":"東向野街区公園前","address":"飯田町 202番地103","city":"成田市","number":"4-3"}, 
 {"id":"0d323621-e18e-477a-b5d5-fc073ea1a428","lat":35.15585900,"long":140.32329300,"status":"done","name":"勝浦消防署前交差点","address":"沢倉１６６ー２０","city":"勝浦市","number":"13-3"}, 
 {"id":"0d33cd7f-3626-4d0c-a32d-eba28ddf7dbb","lat":35.60125310,"long":140.11910670,"status":"done","name":"港町交差点歩道","address":"中央区港町4-26地先港町交差点歩道","city":"千葉市","number":"11"}, 
 {"id":"0d48b59a-765a-4d89-a861-92b2ae19880a","lat":34.97017700,"long":139.79589800,"status":"not_yet","name":"見物橋脇市道路敷,","address":"見物278-1地先","city":"館山市","number":"11-5"}, 
 {"id":"0d500322-ab49-4289-b541-c015fe1e2854","lat":35.82579858,"long":139.92491830,"status":"done","name":"シティコート新松戸弐番館横空地","address":"幸谷930-1地点","city":"松戸市","number":"69-5"}, 
 {"id":"0d5dae23-f2b7-4b0e-8790-9c4b56e8cdab","lat":35.52005800,"long":140.34896900,"status":"done","name":"masked","address":"上貝塚569番地付近","city":"大網白里市","number":"15-6"}, 
 {"id":"0d67a033-961e-4ec7-8e9b-373642bf3909","lat":35.66159000,"long":140.32500000,"status":"done","name":"長谷川病院フェンス","address":"八街に85番地","city":"八街市","number":"2-3"}, 
 {"id":"0d6fdccf-5347-49db-90e2-08839266c45d","lat":35.78393710,"long":140.63360680,"status":"not_yet","name":"溝原集会所南側","address":"溝原523-2","city":"旭市","number":"17_6"}, 
 {"id":"0d7c3bfd-f380-49e2-90f2-14ece3d8cf42","lat":35.75763895,"long":139.89979330,"status":"done","name":"矢切駅第一自転車駐車場","address":"下矢切132-2地先","city":"松戸市","number":"30-1"}, 
 {"id":"0d817d4f-f80d-46d9-9843-d082988cc655","lat":35.27277400,"long":139.85878000,"status":"done","name":"masked","address":"小久保273-1・275・276合併地番","city":"富津市","number":"9-9"}, 
 {"id":"0d85d97f-63d4-4d1f-80f5-08904eaeeef0","lat":35.70563000,"long":140.35877000,"status":"done","name":"富里南小学校","address":"御料4-7","city":"富里市","number":"6-7"}, 
 {"id":"0d88095d-2e4c-4484-8c26-ab7f1bd895ad","lat":35.78645410,"long":140.64830890,"status":"not_yet","name":"masked","address":"櫻井522","city":"旭市","number":"17_1"}, 
 {"id":"0d98e8a9-9be3-42dd-8f44-c6c3d8ad9b46","lat":35.87052980,"long":140.02726780,"status":"done","name":"船橋・我孫子線高架ガードレール","address":"栄31船橋・我孫子線高架ガードレール","city":"我孫子市","number":"94"}, 
 {"id":"0d9bdf54-7283-4ead-97d9-922f3f94e547","lat":35.69431860,"long":140.18582520,"status":"done","name":"千代田第15児童公園","address":"千代田第三丁目28番","city":"四街道市","number":"9-1"}, 
 {"id":"0da78a3e-869a-4acb-8e25-176bb6a6e383","lat":35.69674700,"long":140.51689280,"status":"done","name":"豊栄小学校前","address":"飯倉1847","city":"匝瑳市","number":"4-6"}, 
 {"id":"0dac37aa-1f80-48b2-b6af-1b30b0597a42","lat":35.63955100,"long":140.05940000,"status":"done","name":"真砂第3公園","address":"美浜区真砂4-4","city":"千葉市","number":"4-2"}, 
 {"id":"0dacf8d9-1988-4c8a-9e82-ec32fed57d06","lat":35.80486680,"long":140.47653440,"status":"done","name":"旧沢小学校前","address":"沢1813付近旧沢小学校前","city":"香取市","number":"22-7"}, 
 {"id":"0dad72e1-17ac-433f-8fc8-cd15d03d043d","lat":35.83967320,"long":140.24007610,"status":"done","name":"安食小学校体育館入口脇","address":"安食301","city":"栄町","number":"1-3"}, 
 {"id":"0db2b7b7-c1de-4b97-98d7-e00635752311","lat":35.74117890,"long":140.10875590,"status":"done","name":"東電萱丸変電所正門向側土手","address":"萱田438-1","city":"八千代市","number":"20-5-143"},