{
  "type": "FeatureCollection",
  "features": [
    {
      "type": "Feature",
      "geometry": {
        "type": "Point",
        "coordinates": [
          139.2049533,
          35.28899788
        ]
      },
      "properties": {
        "id": "6897b832-9bf2-44be-b502-fa3c29ee2f16",
        "name": "212",
        "address": "国府津鳴沢公園前",
        "city": "小田原市",
        "number": "212",
        "status": "done"
      }
    },
    {
      "type": "Feature",
      "geometry": {
        "type": "Point",
        "coordinates": [
          139.7229382,
          35.25168853
        ]
      },
      "properties": {
        "id": "689823b7-f709-419b-a035-c3a48a750b4a",
        "name": "市営住宅駐車場フェンス",
        "address": "横須賀市二葉1丁目25番",
        "city": "横須賀市",
        "number": "49-8",
        "status": "done"
      }
    },
    {
      "type": "Feature",
      "geometry": {
        "type": "Point",
        "coordinates": [
          139.3427532,
          35.372052
        ]
      },
      "properties": {
        "id": "68a2b526-3b36-46a7-8f6b-02e2ecbc68a8",
        "name": "下島西公園西側",
        "address": "下島999－5",
        "city": "平塚市",
        "number": "29ー1",
        "status": "done"
      }
    },
    {
      "type": "Feature",
      "geometry": {
        "type": "Point",
        "coordinates": [
          139.1055162,
          35.1418649
        ]
      },
      "properties": {
        "id": "68a5102b-9272-4e44-8790-8ba9545ac0bc",
        "name": "万葉荘フェンス",
        "address": "土肥三丁目6番地の1",
        "city": "湯河原町",
        "number": "32",
        "status": "done"
      }
    },
    {
      "type": "Feature",
      "geometry": {
        "type": "Point",
        "coordinates": [
          139.6471332,
          35.49214776
        ]
      },
      "properties": {
        "id": "68aa0be4-202f-4359-b838-70d73bd3082f",
        "name": "入江川沿いのフェンス",
        "address": "神奈川区入江二丁目19番４号先",
        "city": "横浜市",
        "number": "02-037",
        "status": "done"
      }
    },
    {
      "type": "Feature",
      "geometry": {
        "type": "Point",
        "coordinates": [
          139.5653861,
          35.47619566
        ]
      },
      "properties": {
        "id": "68adf694-d40d-4adc-b370-3e066daa0acd",
        "name": "学校橋横ガ−ドレ−ル",
        "address": "保土ケ谷区西谷三丁目1,127番地の4",
        "city": "横浜市",
        "number": "07-221",
        "status": "done"
      }
    },
    {
      "type": "Feature",
      "geometry": {
        "type": "Point",
        "coordinates": [
          139.6328384,
          35.34436629
        ]
      },
      "properties": {
        "id": "68b4bd02-63a7-45a5-ba89-97f1a0600261",
        "name": "バス停称名寺東公園前わき",
        "address": "金沢区金沢町184番地",
        "city": "横浜市",
        "number": "10-061",
        "status": "done"
      }
    },
    {
      "type": "Feature",
      "geometry": {
        "type": "Point",
        "coordinates": [
          139.6035836,
          35.22976672
        ]
      },
      "properties": {
        "id": "68c18edf-22bb-4041-a4e7-c02330c02a57",
        "name": "湘南サニーサイドマリーナフェンス",
        "address": "横須賀市芦名1丁目17番",
        "city": "横須賀市",
        "number": "82-1",
        "status": "done"
      }
    },
    {
      "type": "Feature",
      "geometry": {
        "type": "Point",
        "coordinates": [
          139.585185,
          35.5030728
        ]
      },
      "properties": {
        "id": "68c3fbd8-462f-4585-a140-797f6b1f804c",
        "name": "菅田利倉公園",
        "address": "神奈川区菅田町1,548番地",
        "city": "横浜市",
        "number": "02-277",
        "status": "done"
      }
    },
    {
      "type": "Feature",
      "geometry": {
        "type": "Point",
        "coordinates": [
          139.606345,
          35.39264464
        ]
      },
      "properties": {
        "id": "68c89825-b206-4754-b6e7-d5610b4d8293",
        "name": "masked",
        "address": "磯子区森五丁目13番25号",
        "city": "横浜市",
        "number": "09-127",
        "status": "done"
      }
    },
    {
      "type": "Feature",
      "geometry": {
        "type": "Point",
        "coordinates": [
          139.6419084,
          35.54056315
        ]
      },
      "properties": {
        "id": "68cdf064-bc1b-456e-8faa-f3d7549a8dc4",
        "name": "masked",
        "address": "港北区綱島東四丁目４番",
        "city": "横浜市",
        "number": "11-177",
        "status": "done"
      }
    },
    {
      "type": "Feature",
      "geometry": {
        "type": "Point",
        "coordinates": [
          139.667531,
          35.5827213
        ]
      },
      "properties": {
        "id": "68d5e108-f8c6-4eb7-ac49-de2c2cd1a283",
        "name": "上丸子小学校西門側フェンス",
        "address": "中原区上丸子八幡町815番地",
        "city": "川崎市",
        "number": "55",
        "status": "done"
      }
    },
    {
      "type": "Feature",
      "geometry": {
        "type": "Point",
        "coordinates": [
          139.6650193,
          35.1583263
        ]
      },
      "properties": {
        "id": "68dd492a-9574-4a90-abc5-868b04e5dceb",
        "name": "岩浦バス停脇植込み",
        "address": "南下浦町金田2020番地5",
        "city": "三浦市",
        "number": "86",
        "status": "done"
      }
    },
    {
      "type": "Feature",
      "geometry": {
        "type": "Point",
        "coordinates": [
          139.6428752,
          35.48600997
        ]
      },
      "properties": {
        "id": "68dfd4a4-f080-40af-885b-42a62f7b3d58",
        "name": "ガードレール",
        "address": "神奈川区七島町22番地先",
        "city": "横浜市",
        "number": "02-073",
        "status": "done"
      }
    },
    {
      "type": "Feature",
      "geometry": {
        "type": "Point",
        "coordinates": [
          139.4880118,
          35.53506715
        ]
      },
      "properties": {
        "id": "68e1aa6c-a90b-48c0-af4f-dfc757911e7a",
        "name": "長津田第二小学校通用門脇フェンス",
        "address": "緑区長津田町２４６９−３",
        "city": "横浜市",
        "number": "12-130",
        "status": "done"
      }
    },
    {
      "type": "Feature",
      "geometry": {
        "type": "Point",
        "coordinates": [
          139.0151992,
          35.2720248
        ]
      },
      "properties": {
        "id": "68e3e18a-a0af-49b4-8816-cf61331d532d",
        "name": "町有道路(仙小入口)",
        "address": "仙石原981番地10",
        "city": "箱根町",
        "number": "67",
        "status": "done"
      }
    },
    {
      "type": "Feature",
      "geometry": {
        "type": "Point",
        "coordinates": [
          139.5047599,
          35.54878444
        ]
      },
      "properties": {
        "id": "68e5e837-51ff-459a-a369-f56b1fd49e80",
        "name": "桂台公園南西側",
        "address": "青葉区桂台一丁目７番地",
        "city": "横浜市",
        "number": "13-256",
        "status": "done"
      }
    },
    {
      "type": "Feature",
      "geometry": {
        "type": "Point",
        "coordinates": [
          139.5402997,
          35.4769411
        ]
      },
      "properties": {
        "id": "68f55989-e07c-4420-a391-66f771318cb7",
        "name": "セブンイレブン前横断防止柵",
        "address": "旭区鶴ケ峰本町一丁目12番",
        "city": "横浜市",
        "number": "08-283",
        "status": "done"
      }
    },
    {
      "type": "Feature",
      "geometry": {
        "type": "Point",
        "coordinates": [
          139.2782023,
          35.3815908
        ]
      },
      "properties": {
        "id": "68f92ed7-a780-4dae-a28b-2f96e5fdc3c2",
        "name": "鶴巻温泉駅前市道ガードパイプ",
        "address": "鶴巻北2丁目3番",
        "city": "秦野市",
        "number": "174",
        "status": "done"
      }
    },
    {
      "type": "Feature",
      "geometry": {
        "type": "Point",
        "coordinates": [
          139.506572,
          35.454444
        ]
      },
      "properties": {
        "id": "68ff8112-ed7c-406c-a469-7e07c0014fa5",
        "name": "阿久和小金第三公園北側フェンス",
        "address": "瀬谷区阿久和東二丁目53番地の3",
        "city": "横浜市",
        "number": "18-136",
        "status": "done"
      }
    },
    {
      "type": "Feature",
      "geometry": {
        "type": "Point",
        "coordinates": [
          139.233785,
          35.3703344
        ]
      },
      "properties": {
        "id": "690054b7-9ff9-432f-9a41-985bb66c029a",
        "name": "秦野団地集会所西側ガードレール",
        "address": "本町3丁目13番",
        "city": "秦野市",
        "number": "26",
        "status": "done"
      }
    },
    {
      "type": "Feature",
      "geometry": {
        "type": "Point",
        "coordinates": [
          139.6580536,
          35.51241474
        ]
      },
      "properties": {
        "id": "6906ab1e-1d67-4548-9326-d766be65f83d",
        "name": "馬場四丁目公園入口右側植え込み",
        "address": "鶴見区馬場四丁目40番",
        "city": "横浜市",
        "number": "01-231",
        "status": "done"
      }
    },
    {
      "type": "Feature",
      "geometry": {
        "type": "Point",
        "coordinates": [
          139.6354469,
          35.55302404
        ]
      },
      "properties": {
        "id": "690f9033-8b69-4653-9db8-8b98a177d742",
        "name": "駒林小学校校舎側フェンス",
        "address": "港北区日吉本町二丁目51番１号",
        "city": "横浜市",
        "number": "11-263",
        "status": "done"
      }
    },
    {
      "type": "Feature",
      "geometry": {
        "type": "Point",
        "coordinates": [
          139.1104707,
          35.31935964
        ]
      },
      "properties": {
        "id": "691697b8-437c-41c4-8712-b11390c74cb7",
        "name": "35",
        "address": null,
        "city": "南足柄市",
        "number": "35",
        "status": "done"
      }
    },
    {
      "type": "Feature",
      "geometry": {
        "type": "Point",
        "coordinates": [
          139.3300234,
          35.3497623
        ]
      },
      "properties": {
        "id": "691ba7fa-083d-4813-bd34-2edaf3cfcfac",
        "name": "大縄橋公園北側",
        "address": "御殿三丁目3－3",
        "city": "平塚市",
        "number": "12ー5",
        "status": "done"
      }
    },
    {
      "type": "Feature",
      "geometry": {
        "type": "Point",
        "coordinates": [
          139.6879702,
          35.52288281
        ]
      },
      "properties": {
        "id": "691c6ced-91b2-4103-a231-80e4903e9b38",
        "name": "バードウッド横植え込み",
        "address": "鶴見区市場上町10番",
        "city": "横浜市",
        "number": "01-043",
        "status": "done"
      }
    },
    {
      "type": "Feature",
      "geometry": {
        "type": "Point",
        "coordinates": [
          139.0529843,
          35.2514397
        ]
      },
      "properties": {
        "id": "6920e42b-5a9c-410f-a0b3-c60fd5738a9e",
        "name": "八百豊商店前",
        "address": "宮城野68番地1",
        "city": "箱根町",
        "number": "43",
        "status": "done"
      }
    },
    {
      "type": "Feature",
      "geometry": {
        "type": "Point",
        "coordinates": [
          139.6190899,
          35.34156988
        ]
      },
      "properties": {
        "id": "6924f37b-26da-48ae-a60d-8d0fe631ddab",
        "name": "金沢中学校裏門わきフェンス",
        "address": "金沢区釜利谷東一丁目１番",
        "city": "横浜市",
        "number": "10-216",
        "status": "done"
      }
    },
    {
      "type": "Feature",
      "geometry": {
        "type": "Point",
        "coordinates": [
          139.532697,
          35.46224476
        ]
      },
      "properties": {
        "id": "692c610b-38f9-4a8d-aaed-15bcaf409d05",
        "name": "みずほ銀行前歩道横断防止柵",
        "address": "旭区二俣川２丁目52番地",
        "city": "横浜市",
        "number": "08-075",
        "status": "done"
      }
    },
    {
      "type": "Feature",
      "geometry": {
        "type": "Point",
        "coordinates": [
          139.6865795,
          35.50390765
        ]
      },
      "properties": {
        "id": "692d264e-58b8-4c87-9a3b-442514b71d1a",
        "name": "潮田公園南側植え込み",
        "address": "鶴見区向井町２丁目71番地",
        "city": "横浜市",
        "number": "01-081",
        "status": "done"
      }
    },
    {
      "type": "Feature",
      "geometry": {
        "type": "Point",
        "coordinates": [
          139.2917786,
          35.3532135
        ]
      },
      "properties": {
        "id": "69341328-4c6b-4bc0-860b-1713ca6894a3",
        "name": "千須谷公民館前水路フェンス",
        "address": "千須谷163",
        "city": "平塚市",
        "number": "38ー7",
        "status": "done"
      }
    },
    {
      "type": "Feature",
      "geometry": {
        "type": "Point",
        "coordinates": [
          139.3848896,
          35.5696003
        ]
      },
      "properties": {
        "id": "69344492-b8bc-4095-bd33-9a62de5ce6cb",
        "name": "141学研相模栄光幼稚園駐車場",
        "address": "中央区",
        "city": "相模原市",
        "number": "100",
        "status": "done"
      }
    },
    {
      "type": "Feature",
      "geometry": {
        "type": "Point",
        "coordinates": [
          139.4413579,
          35.4911032
        ]
      },
      "properties": {
        "id": "69347889-c25e-4069-ae9e-b6308a47f98a",
        "name": "南林間1号公園南側",
        "address": "南林間6-6",
        "city": "大和市",
        "number": "90",
        "status": "done"
      }
    },
    {
      "type": "Feature",
      "geometry": {
        "type": "Point",
        "coordinates": [
          139.2199154,
          35.3747429
        ]
      },
      "properties": {
        "id": "693dc56c-aad5-46ed-b519-fda00ba93124",
        "name": "masked",
        "address": "萱蒲58番20",
        "city": "秦野市",
        "number": "266",
        "status": "done"
      }
    },
    {
      "type": "Feature",
      "geometry": {
        "type": "Point",
        "coordinates": [
          139.3528189,
          35.5801411
        ]
      },
      "properties": {
        "id": "69445c6c-d0a8-4c66-8d0b-98fa100c455c",
        "name": "168南橋本駅ロータリー植栽帯",
        "address": "中央区",
        "city": "相模原市",
        "number": "122",
        "status": "done"
      }
    },
    {
      "type": "Feature",
      "geometry": {
        "type": "Point",
        "coordinates": [
          139.5186428,
          35.5256858
        ]
      },
      "properties": {
        "id": "6947d1aa-072f-4e5b-b668-da2fa6312c13",
        "name": "十日市場中里公園鉄柵",
        "address": "緑区十日市場町８９１",
        "city": "横浜市",
        "number": "12-083",
        "status": "done"
      }
    },
    {
      "type": "Feature",
      "geometry": {
        "type": "Point",
        "coordinates": [
          139.5520239,
          35.42008703
        ]
      },
      "properties": {
        "id": "6954cc7e-0ecb-4b63-945b-9eae174df932",
        "name": "masked",
        "address": "戸塚区上柏尾町243番地の2",
        "city": "横浜市",
        "number": "15-308",
        "status": "done"
      }
    },
    {
      "type": "Feature",
      "geometry": {
        "type": "Point",
        "coordinates": [
          139.6771634,
          35.1461517
        ]
      },
      "properties": {
        "id": "695d3dbb-28b5-4bcd-8a6f-c7a4baf68444",
        "name": "民宿一清丸前ガードパイプ",
        "address": "南下浦町松輪551番地",
        "city": "三浦市",
        "number": "89",
        "status": "done"
      }
    },
    {
      "type": "Feature",
      "geometry": {
        "type": "Point",
        "coordinates": [
          139.478408,
          35.5801503
        ]
      },
      "properties": {
        "id": "695e6966-eb1b-44ee-8c7d-ba3ada2ca780",
        "name": "masked",
        "address": "麻生区岡上600番地",
        "city": "川崎市",
        "number": "143",
        "status": "done"
      }
    },
    {
      "type": "Feature",
      "geometry": {
        "type": "Point",
        "coordinates": [
          139.2825588,
          35.3798498
        ]
      },
      "properties": {
        "id": "695fb988-2270-4987-b1e9-6c5e4b23f6dd",
        "name": "ひかりのまちテニスコート向いガードレール",
        "address": "鶴巻南4丁目8番",
        "city": "秦野市",
        "number": "187",
        "status": "done"
      }
    },
    {
      "type": "Feature",
      "geometry": {
        "type": "Point",
        "coordinates": [
          139.6608379,
          35.27147353
        ]
      },
      "properties": {
        "id": "6965fcf7-c6bd-43a9-81ee-582a9446f7c6",
        "name": "不入斗中学校裏門脇石垣",
        "address": "横須賀市坂本町1丁目19番地",
        "city": "横須賀市",
        "number": "13-6",
        "status": "done"
      }
    },
    {
      "type": "Feature",
      "geometry": {
        "type": "Point",
        "coordinates": [
          139.6771901,
          35.50985824
        ]
      },
      "properties": {
        "id": "696b35ad-ebd3-49f4-9dbb-877d8f9fff94",
        "name": "東口駅前通り公園植え込み",
        "address": "鶴見区鶴見中央一丁目12番",
        "city": "横浜市",
        "number": "01-326",
        "status": "done"
      }
    },
    {
      "type": "Feature",
      "geometry": {
        "type": "Point",
        "coordinates": [
          139.2361829,
          35.3971966
        ]
      },
      "properties": {
        "id": "696b37bf-e30e-4bcc-aec7-3ee1cdac0b3f",
        "name": "ごみ捨て場付近フェンス",
        "address": "寺山786番地先",
        "city": "秦野市",
        "number": "92",
        "status": "done"
      }
    },
    {
      "type": "Feature",
      "geometry": {
        "type": "Point",
        "coordinates": [
          139.5846162,
          35.48017503
        ]
      },
      "properties": {
        "id": "696da979-7dc2-44a8-a745-b79374970ad3",
        "name": "ガードパイプ",
        "address": "神奈川区羽沢南二丁目25番先",
        "city": "横浜市",
        "number": "02-289",
        "status": "done"
      }
    },
    {
      "type": "Feature",
      "geometry": {
        "type": "Point",
        "coordinates": [
          139.1597013,
          35.6141407
        ]
      },
      "properties": {
        "id": "6973e324-13ae-4c85-bf90-508041d46deb",
        "name": "453藤野中学校南側間地ブロック",
        "address": "緑区",
        "city": "相模原市",
        "number": "906",
        "status": "done"
      }
    },
    {
      "type": "Feature",
      "geometry": {
        "type": "Point",
        "coordinates": [
          139.5581113,
          35.44996286
        ]
      },
      "properties": {
        "id": "6980adc3-d80e-4db2-8a31-cb9cec4f26b2",
        "name": "バス停「根下」横ガードパイプ",
        "address": "保土ケ谷区今井町830番地先",
        "city": "横浜市",
        "number": "07-253",
        "status": "done"
      }
    },
    {
      "type": "Feature",
      "geometry": {
        "type": "Point",
        "coordinates": [
          139.4548475,
          35.5091701
        ]
      },
      "properties": {
        "id": "6983c144-2f63-461c-bfb5-cad45a5e55d7",
        "name": "つきみ野中学校北側正門横",
        "address": "つきみ野3-5-1",
        "city": "大和市",
        "number": "52",
        "status": "done"
      }
    },
    {
      "type": "Feature",
      "geometry": {
        "type": "Point",
        "coordinates": [
          139.4087084,
          35.56145
        ]
      },
      "properties": {
        "id": "69849fbe-8cfa-4c8e-a604-87f955a7b9d3",
        "name": "272西野工務店前線路沿い",
        "address": "中央区",
        "city": "相模原市",
        "number": "200",
        "status": "done"
      }
    },
    {
      "type": "Feature",
      "geometry": {
        "type": "Point",
        "coordinates": [
          139.5690389,
          35.38771382
        ]
      },
      "properties": {
        "id": "698568b5-79f1-440f-b29d-bd939debeaec",
        "name": "市営野庭住宅B-12号棟植込",
        "address": "港南区野庭町628番地の12",
        "city": "横浜市",
        "number": "06-148",
        "status": "done"
      }
    },
    {
      "type": "Feature",
      "geometry": {
        "type": "Point",
        "coordinates": [
          139.6171199,
          35.3129493
        ]
      },
      "properties": {
        "id": "698ecce4-e3e9-4352-ad6c-c1563dcf560e",
        "name": "湘南鷹取5丁目第2公園たかとりプールバス停側木柵",
        "address": "横須賀市湘南鷹取5丁目20番",
        "city": "横須賀市",
        "number": "2-9",
        "status": "done"
      }
    },
    {
      "type": "Feature",
      "geometry": {
        "type": "Point",
        "coordinates": [
          139.465112,
          35.4127083
        ]
      },
      "properties": {
        "id": "698effbb-065b-4bf1-afa0-a20744e5e5b7",
        "name": "長後駅東口ロータリー前広場",
        "address": "下土棚472",
        "city": "藤沢市",
        "number": "359",
        "status": "done"
      }
    },
    {
      "type": "Feature",
      "geometry": {
        "type": "Point",
        "coordinates": [
          139.2404336,
          35.3068239
        ]
      },
      "properties": {
        "id": "69910184-0e83-47bf-a313-69456a8259b0",
        "name": "こばと遊園地東側",
        "address": "百合が丘1-18-9",
        "city": "二宮町",
        "number": "31",
        "status": "done"
      }
    },
    {
      "type": "Feature",
      "geometry": {
        "type": "Point",
        "coordinates": [
          139.5294214,
          35.58801562
        ]
      },
      "properties": {
        "id": "6991eac3-881d-43dc-aa9e-97b4dc5a3120",
        "name": "美しが丘西保野公園",
        "address": "青葉区美しが丘西二丁目16番地１",
        "city": "横浜市",
        "number": "13-257",
        "status": "done"
      }
    },
    {
      "type": "Feature",
      "geometry": {
        "type": "Point",
        "coordinates": [
          139.6140426,
          35.44703743
        ]
      },
      "properties": {
        "id": "69a26700-cef6-402a-b0fe-08931d06f701",
        "name": "境之谷北公園入口横",
        "address": "西区境之谷１番地先",
        "city": "横浜市",
        "number": "03-138",
        "status": "done"
      }
    },
    {
      "type": "Feature",
      "geometry": {
        "type": "Point",
        "coordinates": [
          139.3696399,
          35.5766492
        ]
      },
      "properties": {
        "id": "69a2f7e2-4087-477a-b011-d6440952afff",
        "name": "177相模原７丁目公園北側",
        "address": "中央区",
        "city": "相模原市",
        "number": "129",
        "status": "done"
      }
    },
    {
      "type": "Feature",
      "geometry": {
        "type": "Point",
        "coordinates": [
          139.6320658,
          35.45845555
        ]
      },
      "properties": {
        "id": "69a67f8c-827a-49d6-994c-d15c5607676a",
        "name": "ＭＭパークビル前植込み",
        "address": "西区みなとみらい三丁目６番先",
        "city": "横浜市",
        "number": "03-157",
        "status": "done"
      }
    },
    {
      "type": "Feature",
      "geometry": {
        "type": "Point",
        "coordinates": [
          139.6178766,
          35.1413054
        ]
      },
      "properties": {
        "id": "69a79e28-cf6e-4118-b22c-c78dfccbde9e",
        "name": "三崎公園内交番前石柱",
        "address": "三崎4丁目14番",
        "city": "三浦市",
        "number": "6",
        "status": "done"
      }
    },
    {
      "type": "Feature",
      "geometry": {
        "type": "Point",
        "coordinates": [
          139.6611525,
          35.559491
        ]
      },
      "properties": {
        "id": "69af76e4-ff06-4b56-ad71-be854d5f6649",
        "name": "武蔵小杉特定目的会社管理フェンス",
        "address": "中原区西加瀬20番",
        "city": "川崎市",
        "number": "98",
        "status": "done"
      }
    },
    {
      "type": "Feature",
      "geometry": {
        "type": "Point",
        "coordinates": [
          139.650903,
          35.48825429
        ]
      },
      "properties": {
        "id": "69b0e5dd-a31b-4b19-b07a-9a2887b142b7",
        "name": "入江町公園",
        "address": "神奈川区入江一丁目27番15号",
        "city": "横浜市",
        "number": "02-047",
        "status": "done"
      }
    },
    {
      "type": "Feature",
      "geometry": {
        "type": "Point",
        "coordinates": [
          139.5460749,
          35.36419187
        ]
      },
      "properties": {
        "id": "69b11af9-6b38-4271-ac23-7f8c16ea7c0c",
        "name": "海里橋脇桂町側川沿いフェンス",
        "address": "栄区桂町13番地",
        "city": "横浜市",
        "number": "16-073",
        "status": "done"
      }
    },
    {
      "type": "Feature",
      "geometry": {
        "type": "Point",
        "coordinates": [
          139.6206352,
          35.1420404
        ]
      },
      "properties": {
        "id": "69b19c52-86a3-4a9c-8398-de51ae7f707b",
        "name": "三崎小学校体育館信号機下ガードパイプ",
        "address": "三崎1丁目19番1号",
        "city": "三浦市",
        "number": "3",
        "status": "done"
      }
    },
    {
      "type": "Feature",
      "geometry": {
        "type": "Point",
        "coordinates": [
          139.4276215,
          35.359629
        ]
      },
      "properties": {
        "id": "69bbd654-4705-49ce-97e6-576778fff595",
        "name": "堤スポーツ広場 入口 南西側空き地",
        "address": "堤1308番地",
        "city": "茅ヶ崎市",
        "number": "269",
        "status": "done"
      }
    },
    {
      "type": "Feature",
      "geometry": {
        "type": "Point",
        "coordinates": [
          139.5766507,
          35.51830985
        ]
      },
      "properties": {
        "id": "69c24672-6eb0-440a-abf9-7991a4b2ed64",
        "name": "大日本印刷（株）横浜工場フェンス",
        "address": "都筑区池辺町3500番地",
        "city": "横浜市",
        "number": "14-082",
        "status": "done"
      }
    },
    {
      "type": "Feature",
      "geometry": {
        "type": "Point",
        "coordinates": [
          139.5857636,
          35.2634976
        ]
      },
      "properties": {
        "id": "69c41346-0433-453a-a040-0f47c7abd09c",
        "name": "どれみ幼稚園フェンス",
        "address": "一色 １８６２番地の１",
        "city": "葉山町",
        "number": "27",
        "status": "done"
      }
    },
    {
      "type": "Feature",
      "geometry": {
        "type": "Point",
        "coordinates": [
          139.6037997,
          35.5980278
        ]
      },
      "properties": {
        "id": "69c4c9f5-fabe-47b2-a65c-2ae358cda08b",
        "name": "つり具上州屋溝口店フェンス",
        "address": "高津区下作延4丁目23番1号",
        "city": "川崎市",
        "number": "60",
        "status": "done"
      }
    },
    {
      "type": "Feature",
      "geometry": {
        "type": "Point",
        "coordinates": [
          139.561112,
          35.40296977
        ]
      },
      "properties": {
        "id": "69c821a5-7e7c-46dd-8d87-e0de5112e176",
        "name": "masked",
        "address": "港南区日限山一丁目58番",
        "city": "横浜市",
        "number": "06-280",
        "status": "done"
      }
    },
    {
      "type": "Feature",
      "geometry": {
        "type": "Point",
        "coordinates": [
          139.1212369,
          35.24106844
        ]
      },
      "properties": {
        "id": "69c85a91-222f-4e3d-a836-dea309a60c50",
        "name": "120",
        "address": "入生田１９１",
        "city": "小田原市",
        "number": "120",
        "status": "done"
      }
    },
    {
      "type": "Feature",
      "geometry": {
        "type": "Point",
        "coordinates": [
          139.639299,
          35.3757673
        ]
      },
      "properties": {
        "id": "69c85e62-6c72-4909-a27a-7d12c22ad0cb",
        "name": "並木地域ケアプラザ向かいフェンス",
        "address": "金沢区並木一丁目２番",
        "city": "横浜市",
        "number": "10-039",
        "status": "done"
      }
    },
    {
      "type": "Feature",
      "geometry": {
        "type": "Point",
        "coordinates": [
          139.5442882,
          35.51488779
        ]
      },
      "properties": {
        "id": "69cb5d87-017d-40cd-b53e-cd7b45d2024f",
        "name": "ライオンズガーデン中山向かい中山北緑道植込み",
        "address": "緑区中山三丁目３９",
        "city": "横浜市",
        "number": "12-098",
        "status": "done"
      }
    },
    {
      "type": "Feature",
      "geometry": {
        "type": "Point",
        "coordinates": [
          139.5005705,
          35.41718214
        ]
      },
      "properties": {
        "id": "69ccb0b5-7b8b-4b67-9871-bb850d466960",
        "name": "立場地区センター前植込",
        "address": "泉区中田北一丁目９番",
        "city": "横浜市",
        "number": "17-088",
        "status": "done"
      }
    },
    {
      "type": "Feature",
      "geometry": {
        "type": "Point",
        "coordinates": [
          139.3552296,
          35.5854389
        ]
      },
      "properties": {
        "id": "69cd2c7f-c075-476a-864d-94490b5417bd",
        "name": "186小原公園",
        "address": "中央区",
        "city": "相模原市",
        "number": "136",
        "status": "done"
      }
    },
    {
      "type": "Feature",
      "geometry": {
        "type": "Point",
        "coordinates": [
          139.5816386,
          35.6136982
        ]
      },
      "properties": {
        "id": "69cd82f8-b92c-498e-be5e-1507bc12f5dd",
        "name": "宿河原南公園フェンス",
        "address": "多摩区宿河原3丁目14番",
        "city": "川崎市",
        "number": "19",
        "status": "done"
      }
    },
    {
      "type": "Feature",
      "geometry": {
        "type": "Point",
        "coordinates": [
          139.6292062,
          35.35322421
        ]
      },
      "properties": {
        "id": "69d342bb-b653-4d82-8671-9c5b3b0be57c",
        "name": "西柴中学校裏門わきフェンス",
        "address": "金沢区西柴一丁目23番",
        "city": "横浜市",
        "number": "10-059",
        "status": "done"
      }
    },
    {
      "type": "Feature",
      "geometry": {
        "type": "Point",
        "coordinates": [
          139.1734093,
          35.5889567
        ]
      },
      "properties": {
        "id": "69d55216-bc00-44ab-a2fd-6f32d873679e",
        "name": "473篠原の里南側玉石積",
        "address": "緑区",
        "city": "相模原市",
        "number": "921",
        "status": "not_yet"
      }
    },
    {
      "type": "Feature",
      "geometry": {
        "type": "Point",
        "coordinates": [
          139.4210674,
          35.5151015
        ]
      },
      "properties": {
        "id": "69d5db76-0bf5-44b4-9462-601a56b341ce",
        "name": "㈱横浜銀行相模台支店西側 フェンス",
        "address": "相模が丘１丁目２４番１６号㈱横浜銀行相模台支店西側 フェンス",
        "city": "座間市",
        "number": "62",
        "status": "done"
      }
    },
    {
      "type": "Feature",
      "geometry": {
        "type": "Point",
        "coordinates": [
          139.5254,
          35.40689072
        ]
      },
      "properties": {
        "id": "69d7278f-185e-4ff6-950e-10db38df277f",
        "name": "鉄塔前（ﾌｪﾝｽ取付）",
        "address": "戸塚区矢部町1666番地の13",
        "city": "横浜市",
        "number": "15-114",
        "status": "done"
      }
    },
    {
      "type": "Feature",
      "geometry": {
        "type": "Point",
        "coordinates": [
          139.6074143,
          35.4431229
        ]
      },
      "properties": {
        "id": "69d7afb5-3d3d-470c-9a27-cdb2815be3b0",
        "name": "久保山墓地管理事務所前フェンス",
        "address": "西区元久保町３番",
        "city": "横浜市",
        "number": "03-067",
        "status": "done"
      }
    },
    {
      "type": "Feature",
      "geometry": {
        "type": "Point",
        "coordinates": [
          139.1019058,
          35.28752395
        ]
      },
      "properties": {
        "id": "69e17d94-7b66-4d88-8866-ae30f74778d8",
        "name": "53",
        "address": null,
        "city": "南足柄市",
        "number": "53",
        "status": "done"
      }
    },
    {
      "type": "Feature",
      "geometry": {
        "type": "Point",
        "coordinates": [
          139.348887,
          35.4464838
        ]
      },
      "properties": {
        "id": "69e34d6a-3ce6-44e2-b60b-2e5306a48388",
        "name": "厚木高校南側フェンス",
        "address": "戸室2-24-1",
        "city": "厚木市",
        "number": "54",
        "status": "done"
      }
    },
    {
      "type": "Feature",
      "geometry": {
        "type": "Point",
        "coordinates": [
          139.0089051,
          35.2702383
        ]
      },
      "properties": {
        "id": "69e85d5d-863e-429a-b703-301e82b0033e",
        "name": "箱根ニコニコ高原学園付近",
        "address": "仙石原185番地8",
        "city": "箱根町",
        "number": "58",
        "status": "done"
      }
    },
    {
      "type": "Feature",
      "geometry": {
        "type": "Point",
        "coordinates": [
          139.5287552,
          35.5468869
        ]
      },
      "properties": {
        "id": "69e9d98e-d55a-412c-929e-2f4906754374",
        "name": "藤が丘第二公園",
        "address": "青葉区藤が丘一丁目10番地",
        "city": "横浜市",
        "number": "13-079",
        "status": "done"
      }
    },
    {
      "type": "Feature",
      "geometry": {
        "type": "Point",
        "coordinates": [
          139.6203286,
          35.30541908
        ]
      },
      "properties": {
        "id": "69f0067d-1f67-41f3-ad25-93061183b07f",
        "name": "湘南鷹取二・三丁目自治会館横",
        "address": "横須賀市湘南鷹取2丁目11番",
        "city": "横須賀市",
        "number": "2-4",
        "status": "done"
      }
    },
    {
      "type": "Feature",
      "geometry": {
        "type": "Point",
        "coordinates": [
          139.4886556,
          35.4072945
        ]
      },
      "properties": {
        "id": "69f62882-37ca-44e8-a6ed-7ad2b7ded470",
        "name": "みなみグラウンド南側ガードレール",
        "address": "泉区和泉町2,457番地",
        "city": "横浜市",
        "number": "17-160",
        "status": "done"
      }
    },
    {
      "type": "Feature",
      "geometry": {
        "type": "Point",
        "coordinates": [
          139.1216498,
          35.6502045
        ]
      },
      "properties": {
        "id": "69f9da78-76a4-4ddb-aafe-0556335c3eba",
        "name": "544船橋電気工場前",
        "address": "緑区",
        "city": "相模原市",
        "number": "967",
        "status": "done"
      }
    },
    {
      "type": "Feature",
      "geometry": {
        "type": "Point",
        "coordinates": [
          139.485774,
          35.444833
        ]
      },
      "properties": {
        "id": "69ff2538-1d7b-4881-a64e-8a0f4e2878fa",
        "name": "日向山下原公園西側入口横植込",
        "address": "瀬谷区南瀬谷二丁目13番地",
        "city": "横浜市",
        "number": "18-177",
        "status": "done"
      }
    },
    {
      "type": "Feature",
      "geometry": {
        "type": "Point",
        "coordinates": [
          139.4795215,
          35.3406852
        ]
      },
      "properties": {
        "id": "6a048d17-706d-4825-81d6-228cac2b40b1",
        "name": "市営サンシルバー藤沢住宅北側",
        "address": "鵠沼1559",
        "city": "藤沢市",
        "number": "37",
        "status": "done"
      }
    },
    {
      "type": "Feature",
      "geometry": {
        "type": "Point",
        "coordinates": [
          139.4795603,
          35.41829365
        ]
      },
      "properties": {
        "id": "6a0526a5-e90e-48d6-ba5e-1f103d5d079b",
        "name": "飯田農協前バス停後鉄柵",
        "address": "泉区上飯田町1,121番地",
        "city": "横浜市",
        "number": "17-104",
        "status": "done"
      }
    },
    {
      "type": "Feature",
      "geometry": {
        "type": "Point",
        "coordinates": [
          139.4984157,
          35.5980125
        ]
      },
      "properties": {
        "id": "6a059848-c38d-42f7-af83-b332b54bc38e",
        "name": "葉積緑地　西側フェンス",
        "address": "麻生区片平1丁目14番",
        "city": "川崎市",
        "number": "114",
        "status": "done"
      }
    },
    {
      "type": "Feature",
      "geometry": {
        "type": "Point",
        "coordinates": [
          139.2309954,
          35.3467004
        ]
      },
      "properties": {
        "id": "6a071df3-6e1a-42b9-94f8-767434cdca54",
        "name": "消防団第七分団詰所前",
        "address": "井ノ口 2446",
        "city": "中井町",
        "number": "19",
        "status": "done"
      }
    },
    {
      "type": "Feature",
      "geometry": {
        "type": "Point",
        "coordinates": [
          139.531992,
          35.6327601
        ]
      },
      "properties": {
        "id": "6a0c7474-6aea-43ed-882b-f226e32c8d46",
        "name": "菅小学校西門左側フェンス",
        "address": "多摩区菅2丁目6番1号",
        "city": "川崎市",
        "number": "88",
        "status": "done"
      }
    },
    {
      "type": "Feature",
      "geometry": {
        "type": "Point",
        "coordinates": [
          139.5875592,
          35.5898965
        ]
      },
      "properties": {
        "id": "6a1697b8-d152-475c-8d15-be42281b3e3b",
        "name": "エル・ビィーナ宮崎台前水路沿いフェンス (位置情報が見つかりませんでした)",
        "address": "宮前区宮崎5丁目1番地28",
        "city": "川崎市",
        "number": "10",
        "status": "done"
      }
    },
    {
      "type": "Feature",
      "geometry": {
        "type": "Point",
        "coordinates": [
          139.6321528,
          35.55930657
        ]
      },
      "properties": {
        "id": "6a1e9a46-6bd3-4da6-9b22-42d19174062a",
        "name": "墓地前ガードレール",
        "address": "港北区下田町三丁目16番",
        "city": "横浜市",
        "number": "11-276",
        "status": "done"
      }
    },
    {
      "type": "Feature",
      "geometry": {
        "type": "Point",
        "coordinates": [
          139.634174,
          35.5803121
        ]
      },
      "properties": {
        "id": "6a2acdf9-ff17-4745-a834-c8dfc0d54e49",
        "name": "新城こども文化センターフェンス",
        "address": "中原区下新城1丁目2番4号",
        "city": "川崎市",
        "number": "150",
        "status": "done"
      }
    },
    {
      "type": "Feature",
      "geometry": {
        "type": "Point",
        "coordinates": [
          139.6781211,
          35.26769613
        ]
      },
      "properties": {
        "id": "6a2de5ed-ef55-467e-8e32-5236a90a5b82",
        "name": "富士見会館回収資源庫脇",
        "address": "横須賀市富士見町1丁目49番地",
        "city": "横須賀市",
        "number": "22-1",
        "status": "done"
      }
    },
    {
      "type": "Feature",
      "geometry": {
        "type": "Point",
        "coordinates": [
          139.5332463,
          35.45284442
        ]
      },
      "properties": {
        "id": "6a31d598-0558-4a20-a927-ff51a4dfb0aa",
        "name": "万騎が原小学校正門フェンス",
        "address": "旭区大池町66番地",
        "city": "横浜市",
        "number": "08-077",
        "status": "done"
      }
    },
    {
      "type": "Feature",
      "geometry": {
        "type": "Point",
        "coordinates": [
          139.6235493,
          35.44308069
        ]
      },
      "properties": {
        "id": "6a33ef94-a9da-466e-bc6a-fdb5ff47f3f9",
        "name": "東小学校正門左側金網",
        "address": "西区東ケ丘59番地",
        "city": "横浜市",
        "number": "03-123",
        "status": "done"
      }
    },
    {
      "type": "Feature",
      "geometry": {
        "type": "Point",
        "coordinates": [
          139.6371253,
          35.5889778
        ]
      },
      "properties": {
        "id": "6a34bdf4-dbb1-4f1f-9d93-684963ed3628",
        "name": "市営上小田中住宅植込み",
        "address": "中原区上小田中2丁目13番12号",
        "city": "川崎市",
        "number": "180",
        "status": "done"
      }
    },
    {
      "type": "Feature",
      "geometry": {
        "type": "Point",
        "coordinates": [
          139.7137758,
          35.5256995
        ]
      },
      "properties": {
        "id": "6a35c262-12b2-40e2-aee3-fd909d3157e0",
        "name": "リブレ川崎前歩道植込み",
        "address": "川崎区大島4丁目5番2号",
        "city": "川崎市",
        "number": "76",
        "status": "done"
      }
    },
    {
      "type": "Feature",
      "geometry": {
        "type": "Point",
        "coordinates": [
          139.1776823,
          35.36807
        ]
      },
      "properties": {
        "id": "6a3958ae-6393-42d0-b15e-407714788c1f",
        "name": "塚原橋バス停前ガードレール(水無川)",
        "address": "三屋台138番3",
        "city": "秦野市",
        "number": "132",
        "status": "done"
      }
    },
    {
      "type": "Feature",
      "geometry": {
        "type": "Point",
        "coordinates": [
          139.4885082,
          35.53392936
        ]
      },
      "properties": {
        "id": "6a453a39-5948-4f1d-95c9-f37c27837365",
        "name": "セジュールエスト弐番館前ガードパイプ",
        "address": "緑区長津田町２４６９−１５",
        "city": "横浜市",
        "number": "12-133",
        "status": "done"
      }
    },
    {
      "type": "Feature",
      "geometry": {
        "type": "Point",
        "coordinates": [
          139.5376504,
          35.48612614
        ]
      },
      "properties": {
        "id": "6a4e1d75-082d-4606-9c13-52d624ad9e14",
        "name": "ふるさと尾根道緑道植栽",
        "address": "旭区上白根一丁目30番",
        "city": "横浜市",
        "number": "08-113",
        "status": "done"
      }
    },
    {
      "type": "Feature",
      "geometry": {
        "type": "Point",
        "coordinates": [
          139.5965605,
          35.4114143
        ]
      },
      "properties": {
        "id": "6a4ece38-a2cc-45c8-b065-cd846a1ca42a",
        "name": "京浜急行鉄橋下ガードレール",
        "address": "港南区上大岡西一丁目４番",
        "city": "横浜市",
        "number": "06-011",
        "status": "done"
      }
    },
    {
      "type": "Feature",
      "geometry": {
        "type": "Point",
        "coordinates": [
          139.5669904,
          35.6040646
        ]
      },
      "properties": {
        "id": "6a533fb9-6e08-4f29-8584-b38d06153eef",
        "name": "生田おし沼公園入口右側フェンス",
        "address": "多摩区東生田4丁目8番",
        "city": "川崎市",
        "number": "101",
        "status": "done"
      }
    },
    {
      "type": "Feature",
      "geometry": {
        "type": "Point",
        "coordinates": [
          139.2082369,
          35.3790104
        ]
      },
      "properties": {
        "id": "6a5373c1-49c2-470a-b37a-f67e97c83125",
        "name": "カルチャーパーク第6駐車場フェンス",
        "address": "曽屋687番65",
        "city": "秦野市",
        "number": "12",
        "status": "done"
      }
    },
    {
      "type": "Feature",
      "geometry": {
        "type": "Point",
        "coordinates": [
          139.6863434,
          35.26116993
        ]
      },
      "properties": {
        "id": "6a58d1e8-267e-4bae-a592-9ba4d30370dd",
        "name": "三輪歯科医院向かい側歩道フェンス",
        "address": "横須賀市三春町5丁目45番地",
        "city": "横須賀市",
        "number": "20-2",
        "status": "done"
      }
    },
    {
      "type": "Feature",
      "geometry": {
        "type": "Point",
        "coordinates": [
          139.5914023,
          35.42389074
        ]
      },
      "properties": {
        "id": "6a598fde-5503-4067-98fa-407fb5f523a1",
        "name": "六ツ川一丁目はなみずき公園北側",
        "address": "南区六ツ川一丁目254番地4",
        "city": "横浜市",
        "number": "05-207",
        "status": "done"
      }
    },
    {
      "type": "Feature",
      "geometry": {
        "type": "Point",
        "coordinates": [
          139.5926544,
          35.38619751
        ]
      },
      "properties": {
        "id": "6a631f73-45f3-495f-b52a-f579f77e1c36",
        "name": "笹下奈良郷第三公園鉄柵",
        "address": "港南区笹下六丁目38番",
        "city": "横浜市",
        "number": "06-060",
        "status": "done"
      }
    },
    {
      "type": "Feature",
      "geometry": {
        "type": "Point",
        "coordinates": [
          139.5439889,
          35.38597672
        ]
      },
      "properties": {
        "id": "6a640691-bf7c-4f0b-bc72-25bb82bc5b77",
        "name": "パルコート四季前(ｶﾞｰﾄﾞﾚｰﾙ）",
        "address": "戸塚区下倉田町1634番地の1",
        "city": "横浜市",
        "number": "15-172",
        "status": "done"
      }
    },
    {
      "type": "Feature",
      "geometry": {
        "type": "Point",
        "coordinates": [
          139.5471363,
          35.51202547
        ]
      },
      "properties": {
        "id": "6a7257d0-cd60-4c1a-b779-f2928d31418b",
        "name": "バス停「中山橋」横緑地帯",
        "address": "緑区中山三丁目９",
        "city": "横浜市",
        "number": "12-099",
        "status": "done"
      }
    },
    {
      "type": "Feature",
      "geometry": {
        "type": "Point",
        "coordinates": [
          139.6652087,
          35.5378188
        ]
      },
      "properties": {
        "id": "6a73cc41-3d7e-4953-8771-f45ea26c91bb",
        "name": "小倉西公園　西側植え込み",
        "address": "幸区小倉5丁目17番9号",
        "city": "川崎市",
        "number": "127",
        "status": "done"
      }
    },
    {
      "type": "Feature",
      "geometry": {
        "type": "Point",
        "coordinates": [
          139.1465438,
          35.30822489
        ]
      },
      "properties": {
        "id": "6a770567-0339-4f49-b5d2-fe8d12d3774b",
        "name": "347",
        "address": null,
        "city": "小田原市",
        "number": "347",
        "status": "done"
      }
    },
    {
      "type": "Feature",
      "geometry": {
        "type": "Point",
        "coordinates": [
          139.6155341,
          35.49715936
        ]
      },
      "properties": {
        "id": "6a78719c-37f1-45f3-a9c1-6da63d672455",
        "name": "ホンダカーズ神奈川東脇路肩ガードフェンス",
        "address": "港北区岸根町435番地",
        "city": "横浜市",
        "number": "11-042",
        "status": "done"
      }
    },
    {
      "type": "Feature",
      "geometry": {
        "type": "Point",
        "coordinates": [
          139.1310272,
          35.3209533
        ]
      },
      "properties": {
        "id": "6a7c75f0-b849-4df8-8006-11e7a5dee299",
        "name": "みなみ中央公園フェンス",
        "address": "みなみ二丁目 3番地1",
        "city": "開成町",
        "number": "43",
        "status": "done"
      }
    },
    {
      "type": "Feature",
      "geometry": {
        "type": "Point",
        "coordinates": [
          139.2886692,
          35.3965153
        ]
      },
      "properties": {
        "id": "6a82ca91-f931-4329-a338-5519023980b0",
        "name": "比々多小学校 西側 金網塀",
        "address": "神戸 521番地の1",
        "city": "伊勢原市",
        "number": "42",
        "status": "done"
      }
    },
    {
      "type": "Feature",
      "geometry": {
        "type": "Point",
        "coordinates": [
          139.3388973,
          35.4128121
        ]
      },
      "properties": {
        "id": "6a86bde1-6bc0-4b0e-8af1-6bd48733e794",
        "name": "にしのまえ第１公園 内",
        "address": "石田 861番地の1",
        "city": "伊勢原市",
        "number": "55",
        "status": "done"
      }
    },
    {
      "type": "Feature",
      "geometry": {
        "type": "Point",
        "coordinates": [
          139.5221194,
          35.39640365
        ]
      },
      "properties": {
        "id": "6a8a00b2-95c8-4318-aa7d-cfa3e56d5312",
        "name": "丘の上保育園前(ｶﾞｰﾄﾞﾚｰﾙ)",
        "address": "戸塚区汲沢一丁目26番",
        "city": "横浜市",
        "number": "15-198",
        "status": "done"
      }
    },
    {
      "type": "Feature",
      "geometry": {
        "type": "Point",
        "coordinates": [
          139.1726401,
          35.2899124
        ]
      },
      "properties": {
        "id": "6a8b757a-4c3c-490a-b23c-9899ec6ce026",
        "name": "171",
        "address": "成田成田公園前（バス）",
        "city": "小田原市",
        "number": "171",
        "status": "done"
      }
    },
    {
      "type": "Feature",
      "geometry": {
        "type": "Point",
        "coordinates": [
          139.4053188,
          35.5476794
        ]
      },
      "properties": {
        "id": "6a8d5ff2-c061-458d-8b29-d089aa6377d7",
        "name": "26大野台４丁目ふれあい公園",
        "address": "南区",
        "city": "相模原市",
        "number": "299",
        "status": "done"
      }
    },
    {
      "type": "Feature",
      "geometry": {
        "type": "Point",
        "coordinates": [
          139.6620719,
          35.5535424
        ]
      },
      "properties": {
        "id": "6a90c819-0ef4-419e-9763-bc26d875c92b",
        "name": "日吉中学校北側　フェンス",
        "address": "幸区北加瀬2丁目3番1号",
        "city": "川崎市",
        "number": "114",
        "status": "done"
      }
    },
    {
      "type": "Feature",
      "geometry": {
        "type": "Point",
        "coordinates": [
          139.5778853,
          35.44715099
        ]
      },
      "properties": {
        "id": "6a95101f-05f5-4489-8ab3-64331e01ab0a",
        "name": "バス停「うぐいす橋」横ＪＲフェンス",
        "address": "保土ケ谷区法泉一丁目2番13号",
        "city": "横浜市",
        "number": "07-025",
        "status": "done"
      }
    },
    {
      "type": "Feature",
      "geometry": {
        "type": "Point",
        "coordinates": [
          139.4754236,
          35.43674674
        ]
      },
      "properties": {
        "id": "6a95856f-cac9-49fe-9e55-2a6112551e32",
        "name": "上飯田クローバー公園鉄柵",
        "address": "泉区上飯田町3,563番地の10",
        "city": "横浜市",
        "number": "17-010",
        "status": "done"
      }
    },
    {
      "type": "Feature",
      "geometry": {
        "type": "Point",
        "coordinates": [
          139.5983517,
          35.3052518
        ]
      },
      "properties": {
        "id": "6a98ba63-a1e3-4022-a471-ad4e73075c9f",
        "name": "アザリエ中公園",
        "address": "逗子市池子3－14－1先",
        "city": "逗子市",
        "number": "7-3",
        "status": "done"
      }
    },
    {
      "type": "Feature",
      "geometry": {
        "type": "Point",
        "coordinates": [
          139.2185817,
          35.3307448
        ]
      },
      "properties": {
        "id": "6a98c454-0958-4808-ad88-17e19a523df9",
        "name": "投票区数は3、ポスター掲示場設置総数は23",
        "address": "中井町開票区",
        "city": "中井町",
        "number": "1",
        "status": "done"
      }
    },
    {
      "type": "Feature",
      "geometry": {
        "type": "Point",
        "coordinates": [
          139.1014192,
          35.31799207
        ]
      },
      "properties": {
        "id": "6a9ab5b4-2f4e-4487-bb86-a8aa5c56c6d6",
        "name": "33",
        "address": null,
        "city": "南足柄市",
        "number": "33",
        "status": "done"
      }
    },
    {
      "type": "Feature",
      "geometry": {
        "type": "Point",
        "coordinates": [
          139.4966148,
          35.40754627
        ]
      },
      "properties": {
        "id": "6aa8ba7f-d66d-46bb-97ec-a70e96606d06",
        "name": "泉が丘公園フェンス",
        "address": "泉区和泉が丘三丁目６番",
        "city": "横浜市",
        "number": "17-158",
        "status": "done"
      }
    },
    {
      "type": "Feature",
      "geometry": {
        "type": "Point",
        "coordinates": [
          139.6212245,
          35.45309218
        ]
      },
      "properties": {
        "id": "6aa96bbc-54bc-4d2d-9858-8649647a4632",
        "name": "戸部小学校西側裏門左側金網",
        "address": "西区伊勢町２丁目115番地",
        "city": "横浜市",
        "number": "03-100",
        "status": "done"
      }
    },
    {
      "type": "Feature",
      "geometry": {
        "type": "Point",
        "coordinates": [
          139.6395427,
          35.54925678
        ]
      },
      "properties": {
        "id": "6aa9e938-b12f-46ec-a28e-6e99a245fccf",
        "name": "日吉本町三丁目公園フェンス",
        "address": "港北区日吉本町三丁目13番11号",
        "city": "横浜市",
        "number": "11-240",
        "status": "done"
      }
    },
    {
      "type": "Feature",
      "geometry": {
        "type": "Point",
        "coordinates": [
          139.2614117,
          35.3111823
        ]
      },
      "properties": {
        "id": "6aad8431-6508-4c22-9562-3a99fe40bbbc",
        "name": "富士見が丘防災コミュニティセンター前",
        "address": "富士見が丘3-1-2",
        "city": "二宮町",
        "number": "55",
        "status": "done"
      }
    },
    {
      "type": "Feature",
      "geometry": {
        "type": "Point",
        "coordinates": [
          139.5316725,
          35.35947715
        ]
      },
      "properties": {
        "id": "6ab24cb4-ec14-4498-b6ad-802cd891c6e6",
        "name": "歩道ガードパイプ",
        "address": "栄区笠間三丁目43番",
        "city": "横浜市",
        "number": "16-063",
        "status": "done"
      }
    },
    {
      "type": "Feature",
      "geometry": {
        "type": "Point",
        "coordinates": [
          139.6169938,
          35.45403389
        ]
      },
      "properties": {
        "id": "6ab2f62c-1132-49a1-a1f2-07b46a990dfe",
        "name": "西区役所東側入口鉄柵",
        "address": "西区中央一丁目５番10号",
        "city": "横浜市",
        "number": "03-088",
        "status": "done"
      }
    },
    {
      "type": "Feature",
      "geometry": {
        "type": "Point",
        "coordinates": [
          139.6951426,
          35.5247152
        ]
      },
      "properties": {
        "id": "6ab76f14-662b-4792-ab87-2b7e93ac1f65",
        "name": "川崎小学校正門右側フェンス",
        "address": "川崎区日進町20番地1",
        "city": "川崎市",
        "number": "29",
        "status": "done"
      }
    },
    {
      "type": "Feature",
      "geometry": {
        "type": "Point",
        "coordinates": [
          139.561878,
          35.41010941
        ]
      },
      "properties": {
        "id": "6ab8f84d-94dc-4d2c-b52f-1d74fbaaf6d0",
        "name": "環２中永谷交差点鉄柵",
        "address": "港南区下永谷三丁目６番",
        "city": "横浜市",
        "number": "06-252",
        "status": "done"
      }
    },
    {
      "type": "Feature",
      "geometry": {
        "type": "Point",
        "coordinates": [
          139.6086004,
          35.46894175
        ]
      },
      "properties": {
        "id": "6ab901b5-6c7a-4469-a06e-8760111ad324",
        "name": "軽井沢中学校西側角フェンス",
        "address": "西区北軽井沢24番地２",
        "city": "横浜市",
        "number": "03-007",
        "status": "done"
      }
    },
    {
      "type": "Feature",
      "geometry": {
        "type": "Point",
        "coordinates": [
          139.4694825,
          35.4082301
        ]
      },
      "properties": {
        "id": "6aba8416-efb0-4864-86cd-b63106550292",
        "name": "長後南歩行者専用道",
        "address": "高倉字槇戸582-4",
        "city": "藤沢市",
        "number": "379",
        "status": "done"
      }
    },
    {
      "type": "Feature",
      "geometry": {
        "type": "Point",
        "coordinates": [
          139.648911,
          35.15000698
        ]
      },
      "properties": {
        "id": "6abbc347-b3fd-4dce-9d32-bddf6753828a",
        "name": "大乗バス停待合所脇ガードレール",
        "address": "南下浦町毘沙門1593番地",
        "city": "三浦市",
        "number": "98",
        "status": "done"
      }
    },
    {
      "type": "Feature",
      "geometry": {
        "type": "Point",
        "coordinates": [
          139.5048631,
          35.51648182
        ]
      },
      "properties": {
        "id": "6abd7591-6892-4407-8de8-824babb308a5",
        "name": "霧の里(旧霧が丘第三小学校)通用門横フェンス",
        "address": "緑区霧が丘三丁目２３",
        "city": "横浜市",
        "number": "12-089",
        "status": "done"
      }
    },
    {
      "type": "Feature",
      "geometry": {
        "type": "Point",
        "coordinates": [
          139.599543,
          35.41867974
        ]
      },
      "properties": {
        "id": "6ac3107d-83ae-4d56-aadd-d64faf1b1fb3",
        "name": "南小学校東側",
        "address": "南区中里一丁目6番16号",
        "city": "横浜市",
        "number": "05-169",
        "status": "done"
      }
    },
    {
      "type": "Feature",
      "geometry": {
        "type": "Point",
        "coordinates": [
          139.49691,
          35.587541
        ]
      },
      "properties": {
        "id": "6acedcb1-d470-4bcf-898d-9711a1b7ace3",
        "name": "麻生区役所柿生分庁舎　西側フェンス",
        "address": "麻生区上麻生6丁目29番18号",
        "city": "川崎市",
        "number": "107",
        "status": "done"
      }
    },
    {
      "type": "Feature",
      "geometry": {
        "type": "Point",
        "coordinates": [
          139.3050879,
          35.4061455
        ]
      },
      "properties": {
        "id": "6acf6540-bf85-4af4-a82e-de0d82a7af55",
        "name": "山王原公民館",
        "address": "上粕屋 1345番地",
        "city": "伊勢原市",
        "number": "34",
        "status": "done"
      }
    },
    {
      "type": "Feature",
      "geometry": {
        "type": "Point",
        "coordinates": [
          139.4375355,
          35.3717783
        ]
      },
      "properties": {
        "id": "6ad1186d-6994-40b2-a606-bc3aa7178c27",
        "name": "遠藤公園西側",
        "address": "遠藤639-2",
        "city": "藤沢市",
        "number": "445",
        "status": "done"
      }
    },
    {
      "type": "Feature",
      "geometry": {
        "type": "Point",
        "coordinates": [
          139.679337,
          35.50991814
        ]
      },
      "properties": {
        "id": "6ad6906b-d4ae-456e-9095-c7975a5182f8",
        "name": "ホテルリブマックス横浜鶴見前ガードパイプ",
        "address": "鶴見区鶴見中央一丁目21番15号",
        "city": "横浜市",
        "number": "01-323",
        "status": "done"
      }
    },
    {
      "type": "Feature",
      "geometry": {
        "type": "Point",
        "coordinates": [
          139.421078,
          35.47552
        ]
      },
      "properties": {
        "id": "6af52192-100e-44dc-9d8a-83344a822830",
        "name": "南中学校北側　フェンス",
        "address": "南栗原３丁目８番１号南中学校北側　フェンス",
        "city": "座間市",
        "number": "67",
        "status": "done"
      }
    },
    {
      "type": "Feature",
      "geometry": {
        "type": "Point",
        "coordinates": [
          139.40562,
          35.4359758
        ]
      },
      "properties": {
        "id": "6afca479-72be-488b-80da-117f17afa2fa",
        "name": "国分寺台樽井児童遊園南側フェンス",
        "address": "国分寺台３丁目5344番56（国分寺台3-12-37付近）",
        "city": "海老名市",
        "number": "17 - ４",
        "status": "done"
      }
    },
    {
      "type": "Feature",
      "geometry": {
        "type": "Point",
        "coordinates": [
          139.6190074,
          35.43396223
        ]
      },
      "properties": {
        "id": "6b037748-207d-41e9-b784-6e5ca2d4d95c",
        "name": "アルコード横濱吉野町前",
        "address": "南区二葉町4丁目32番地",
        "city": "横浜市",
        "number": "05-057",
        "status": "done"
      }
    },
    {
      "type": "Feature",
      "geometry": {
        "type": "Point",
        "coordinates": [
          139.6521635,
          35.52332179
        ]
      },
      "properties": {
        "id": "6b048e33-294c-433b-adcf-f98904e4818e",
        "name": "駒岡内町公園左側入口右側鉄柵",
        "address": "鶴見区駒岡一丁目22番２号",
        "city": "横浜市",
        "number": "01-201",
        "status": "done"
      }
    },
    {
      "type": "Feature",
      "geometry": {
        "type": "Point",
        "coordinates": [
          139.465986,
          35.362315
        ]
      },
      "properties": {
        "id": "6b07810b-65d3-4459-b19d-8d28e66a7dd5",
        "name": "善行唐池公園西側",
        "address": "善行坂1丁目7",
        "city": "藤沢市",
        "number": "15",
        "status": "done"
      }
    },
    {
      "type": "Feature",
      "geometry": {
        "type": "Point",
        "coordinates": [
          139.6050296,
          35.55418686
        ]
      },
      "properties": {
        "id": "6b0cca7e-cc08-4447-9bd4-ead78f97ba25",
        "name": "地下鉄「東山田」駅隣駐輪場フェンス",
        "address": "都筑区東山田町300番地",
        "city": "横浜市",
        "number": "14-034",
        "status": "done"
      }
    },
    {
      "type": "Feature",
      "geometry": {
        "type": "Point",
        "coordinates": [
          139.654619,
          35.52665537
        ]
      },
      "properties": {
        "id": "6b11d376-8330-4043-a484-9e59b9e5b1f8",
        "name": "駒岡三丁目公園前ガードレール",
        "address": "鶴見区駒岡三丁目11番",
        "city": "横浜市",
        "number": "01-195",
        "status": "done"
      }
    },
    {
      "type": "Feature",
      "geometry": {
        "type": "Point",
        "coordinates": [
          139.6666513,
          35.541583
        ]
      },
      "properties": {
        "id": "6b1389a3-bf10-4787-8b19-6dbd77de00f7",
        "name": "masked",
        "address": "幸区小倉2丁目21番33号",
        "city": "川崎市",
        "number": "123",
        "status": "done"
      }
    },
    {
      "type": "Feature",
      "geometry": {
        "type": "Point",
        "coordinates": [
          139.3996407,
          35.3329169
        ]
      },
      "properties": {
        "id": "6b18a1d7-acc6-4e83-b3cb-ffb42f5f0659",
        "name": "市体育館 東側歩道ガードパイプ",
        "address": "十間坂三丁目6番5号",
        "city": "茅ヶ崎市",
        "number": "21",
        "status": "done"
      }
    },
    {
      "type": "Feature",
      "geometry": {
        "type": "Point",
        "coordinates": [
          139.3922644,
          35.4496147
        ]
      },
      "properties": {
        "id": "6b1b81da-c390-43b6-b29a-361aeb903865",
        "name": "まちかど公園北側植栽（南向き）",
        "address": "中央二丁目86番１（中央2-1-21付近）",
        "city": "海老名市",
        "number": "１ - ３",
        "status": "done"
      }
    },
    {
      "type": "Feature",
      "geometry": {
        "type": "Point",
        "coordinates": [
          139.347765,
          35.5764758
        ]
      },
      "properties": {
        "id": "6b1cc498-ddc5-46f1-8d3f-33679c8b6d88",
        "name": "212南橋本３丁目交差点北側",
        "address": "中央区",
        "city": "相模原市",
        "number": "154",
        "status": "done"
      }
    },
    {
      "type": "Feature",
      "geometry": {
        "type": "Point",
        "coordinates": [
          139.6275076,
          35.56176737
        ]
      },
      "properties": {
        "id": "6b2c83b8-374a-425b-860a-15035693fd32",
        "name": "大石医院前ガードレール",
        "address": "港北区下田町六丁目23番",
        "city": "横浜市",
        "number": "11-277",
        "status": "done"
      }
    },
    {
      "type": "Feature",
      "geometry": {
        "type": "Point",
        "coordinates": [
          139.2802837,
          35.3812991
        ]
      },
      "properties": {
        "id": "6b2d784f-285c-46be-8c7a-dddc0aa461ef",
        "name": "塩貝橋ガードレール",
        "address": "鶴巻南4丁目3番19号",
        "city": "秦野市",
        "number": "185",
        "status": "done"
      }
    },
    {
      "type": "Feature",
      "geometry": {
        "type": "Point",
        "coordinates": [
          139.3067429,
          35.6002043
        ]
      },
      "properties": {
        "id": "6b2f165a-4be4-48f5-8c70-bbc302c401b2",
        "name": "184町屋児童公園南側",
        "address": "緑区",
        "city": "相模原市",
        "number": "733",
        "status": "done"
      }
    },
    {
      "type": "Feature",
      "geometry": {
        "type": "Point",
        "coordinates": [
          139.6018813,
          35.3307202
        ]
      },
      "properties": {
        "id": "6b30d628-0ab2-40b6-8a5d-43519940d513",
        "name": "大道中学校裏門わきフェンス",
        "address": "金沢区大道一丁目85番",
        "city": "横浜市",
        "number": "10-157",
        "status": "done"
      }
    },
    {
      "type": "Feature",
      "geometry": {
        "type": "Point",
        "coordinates": [
          139.5207216,
          35.55644325
        ]
      },
      "properties": {
        "id": "6b31f74f-2fa8-44b5-95b5-d3d96a8941e2",
        "name": "みたけ台中学校南側",
        "address": "青葉区みたけ台30番地",
        "city": "横浜市",
        "number": "13-104",
        "status": "done"
      }
    },
    {
      "type": "Feature",
      "geometry": {
        "type": "Point",
        "coordinates": [
          139.6339461,
          35.31396672
        ]
      },
      "properties": {
        "id": "6b3459df-d4c4-4347-a88f-93df5642f3b9",
        "name": "深浦トンネル入口がけ防護柵",
        "address": "横須賀市浦郷町3丁目41番地",
        "city": "横須賀市",
        "number": "4-5",
        "status": "done"
      }
    },
    {
      "type": "Feature",
      "geometry": {
        "type": "Point",
        "coordinates": [
          139.5871737,
          35.55002502
        ]
      },
      "properties": {
        "id": "6b394f25-7c38-4d43-9133-77e310a4459f",
        "name": "中川小学校南側門横フェンス",
        "address": "都筑区牛久保東二丁目21番１号",
        "city": "横浜市",
        "number": "14-017",
        "status": "done"
      }
    },
    {
      "type": "Feature",
      "geometry": {
        "type": "Point",
        "coordinates": [
          139.409515,
          35.468578
        ]
      },
      "properties": {
        "id": "6b3c0ce7-4080-4621-9dad-673496432622",
        "name": "海老名市北部公園体育館テニスコート北側フェンス",
        "address": "上今泉六丁目335番地（上今泉6-14-1付近）",
        "city": "海老名市",
        "number": "19 - ９",
        "status": "done"
      }
    },
    {
      "type": "Feature",
      "geometry": {
        "type": "Point",
        "coordinates": [
          139.6346791,
          35.5685915
        ]
      },
      "properties": {
        "id": "6b3d8842-1c97-45d5-9926-255a1f56b234",
        "name": "橘公園植え込み（南側）",
        "address": "高津区子母口697番地1",
        "city": "川崎市",
        "number": "157",
        "status": "done"
      }
    },
    {
      "type": "Feature",
      "geometry": {
        "type": "Point",
        "coordinates": [
          139.3336035,
          35.3238549
        ]
      },
      "properties": {
        "id": "6b42a605-fb49-47a0-8dcf-b757b81b118d",
        "name": "なか卯湘南大磯店前",
        "address": "高麗3丁目4番16号",
        "city": "大磯町",
        "number": "5",
        "status": "done"
      }
    },
    {
      "type": "Feature",
      "geometry": {
        "type": "Point",
        "coordinates": [
          139.5056703,
          35.5498812
        ]
      },
      "properties": {
        "id": "6b48ae49-e884-4ae7-90a0-7c4c72cb3b3b",
        "name": "桂台公園北東側",
        "address": "青葉区桂台一丁目７番地",
        "city": "横浜市",
        "number": "13-254",
        "status": "done"
      }
    },
    {
      "type": "Feature",
      "geometry": {
        "type": "Point",
        "coordinates": [
          139.5434775,
          35.6345784
        ]
      },
      "properties": {
        "id": "6b4a2c8e-dbdc-4245-a440-addd9048826f",
        "name": "稲田取水所フェンス",
        "address": "多摩区菅稲田堤3丁目21番1号",
        "city": "川崎市",
        "number": "180",
        "status": "done"
      }
    },
    {
      "type": "Feature",
      "geometry": {
        "type": "Point",
        "coordinates": [
          139.382895,
          35.5466202
        ]
      },
      "properties": {
        "id": "6b4ea2c8-a295-4ff4-b3ec-4e1e785cb8dd",
        "name": "84みどりの道",
        "address": "中央区",
        "city": "相模原市",
        "number": "56",
        "status": "done"
      }
    },
    {
      "type": "Feature",
      "geometry": {
        "type": "Point",
        "coordinates": [
          139.1643744,
          35.27954105
        ]
      },
      "properties": {
        "id": "6b5996a5-3bc4-4b57-b643-e0dbdb9bccdf",
        "name": "200",
        "address": "飯泉１１６１",
        "city": "小田原市",
        "number": "200",
        "status": "done"
      }
    },
    {
      "type": "Feature",
      "geometry": {
        "type": "Point",
        "coordinates": [
          139.6324,
          35.37779838
        ]
      },
      "properties": {
        "id": "6b617fda-ad5a-47b0-9b2b-decb020a1e74",
        "name": "富岡総合公園向かいガードレール",
        "address": "金沢区富岡東二丁目９番",
        "city": "横浜市",
        "number": "10-024",
        "status": "done"
      }
    },
    {
      "type": "Feature",
      "geometry": {
        "type": "Point",
        "coordinates": [
          139.3594154,
          35.4445559
        ]
      },
      "properties": {
        "id": "6b61e50e-b0e4-47e5-afdd-80869a69b2e6",
        "name": "厚木中学校正門横フェンス",
        "address": "水引1-1-3",
        "city": "厚木市",
        "number": "39",
        "status": "done"
      }
    },
    {
      "type": "Feature",
      "geometry": {
        "type": "Point",
        "coordinates": [
          139.5678655,
          35.38123065
        ]
      },
      "properties": {
        "id": "6b6cfb20-0d56-4952-b103-376195f587b4",
        "name": "日野藤ヶ沢公園ガードレール",
        "address": "港南区日野南四丁目24番",
        "city": "横浜市",
        "number": "06-273",
        "status": "done"
      }
    },
    {
      "type": "Feature",
      "geometry": {
        "type": "Point",
        "coordinates": [
          139.0482436,
          35.2449449
        ]
      },
      "properties": {
        "id": "6b6f5b71-b2b6-447a-aeea-3ecbb5e97d8e",
        "name": "masked",
        "address": "二ノ平1246番地",
        "city": "箱根町",
        "number": "54",
        "status": "done"
      }
    },
    {
      "type": "Feature",
      "geometry": {
        "type": "Point",
        "coordinates": [
          139.52397,
          35.3034274
        ]
      },
      "properties": {
        "id": "6b76f5f3-7c16-47cc-96c1-ec83cd47680a",
        "name": "極楽寺ポンプ場フェンス",
        "address": "稲村ガ崎一丁目15番32号",
        "city": "鎌倉市",
        "number": "12-7",
        "status": "done"
      }
    },
    {
      "type": "Feature",
      "geometry": {
        "type": "Point",
        "coordinates": [
          139.5581486,
          35.3243984
        ]
      },
      "properties": {
        "id": "6b824aa1-5b0a-4034-90a9-6938c0d9120a",
        "name": "国大附属小学校フェンス",
        "address": "雪ノ下三丁目5番10号",
        "city": "鎌倉市",
        "number": "3-4",
        "status": "done"
      }
    },
    {
      "type": "Feature",
      "geometry": {
        "type": "Point",
        "coordinates": [
          139.6218812,
          35.3594282
        ]
      },
      "properties": {
        "id": "6b8a6233-ab66-4831-bf51-94162b6c5499",
        "name": "能見台千丈公園",
        "address": "金沢区能見台三丁目31番地",
        "city": "横浜市",
        "number": "10-228",
        "status": "done"
      }
    },
    {
      "type": "Feature",
      "geometry": {
        "type": "Point",
        "coordinates": [
          139.2875371,
          35.411624
        ]
      },
      "properties": {
        "id": "6b8fbd98-0ff9-4af1-ab38-1ebcab2b9a8d",
        "name": "masked",
        "address": "上粕屋 3240番地の1",
        "city": "伊勢原市",
        "number": "32",
        "status": "done"
      }
    },
    {
      "type": "Feature",
      "geometry": {
        "type": "Point",
        "coordinates": [
          139.6228251,
          35.1398045
        ]
      },
      "properties": {
        "id": "6b9413ce-9f9c-4fb1-b702-433946275882",
        "name": "向ヶ崎児童公園前ガードパイプ",
        "address": "向ヶ崎町8番",
        "city": "三浦市",
        "number": "51",
        "status": "done"
      }
    },
    {
      "type": "Feature",
      "geometry": {
        "type": "Point",
        "coordinates": [
          139.4619088,
          35.3462507
        ]
      },
      "properties": {
        "id": "6b9728bb-40ea-4d1b-9e40-230c96724582",
        "name": "羽鳥中学校正門右側",
        "address": "羽鳥4丁目13-14",
        "city": "藤沢市",
        "number": "250",
        "status": "done"
      }
    },
    {
      "type": "Feature",
      "geometry": {
        "type": "Point",
        "coordinates": [
          139.560009,
          35.49813576
        ]
      },
      "properties": {
        "id": "6b9e676d-c8cc-423c-8375-68234164ff2e",
        "name": "竹山中公園ガードパイプ（駐車場前）",
        "address": "緑区竹山三丁目１−１",
        "city": "横浜市",
        "number": "12-020",
        "status": "done"
      }
    },
    {
      "type": "Feature",
      "geometry": {
        "type": "Point",
        "coordinates": [
          139.6137872,
          35.5004802
        ]
      },
      "properties": {
        "id": "6ba32633-f7c0-45e9-93f8-55e383fe1230",
        "name": "岸根高等学校正門脇フェンス",
        "address": "港北区岸根町370番地",
        "city": "横浜市",
        "number": "11-040",
        "status": "done"
      }
    },
    {
      "type": "Feature",
      "geometry": {
        "type": "Point",
        "coordinates": [
          139.3894434,
          35.5713571
        ]
      },
      "properties": {
        "id": "6bb77b13-20ac-47c7-a538-da506e976687",
        "name": "144矢部公園",
        "address": "中央区",
        "city": "相模原市",
        "number": "103",
        "status": "done"
      }
    },
    {
      "type": "Feature",
      "geometry": {
        "type": "Point",
        "coordinates": [
          139.4477579,
          35.4896909
        ]
      },
      "properties": {
        "id": "6bbbe2d8-caef-4b9d-b3f1-a59b434c7e36",
        "name": "コミュニティセンター西鶴間会館",
        "address": "西鶴間2-4-20",
        "city": "大和市",
        "number": "106",
        "status": "done"
      }
    },
    {
      "type": "Feature",
      "geometry": {
        "type": "Point",
        "coordinates": [
          139.0297972,
          35.2047054
        ]
      },
      "properties": {
        "id": "6bbeb1a9-e715-4383-9e35-da6c7884a11e",
        "name": "元箱根ポンプ場",
        "address": "元箱根77番地9",
        "city": "箱根町",
        "number": "87",
        "status": "done"
      }
    },
    {
      "type": "Feature",
      "geometry": {
        "type": "Point",
        "coordinates": [
          139.5494157,
          35.41288316
        ]
      },
      "properties": {
        "id": "6bc16a14-c032-44e5-b66d-c9c98f61335c",
        "name": "柏尾町第二公園（ﾌｪﾝｽ取付）",
        "address": "戸塚区柏尾町1411番地の36",
        "city": "横浜市",
        "number": "15-070",
        "status": "done"
      }
    },
    {
      "type": "Feature",
      "geometry": {
        "type": "Point",
        "coordinates": [
          139.3489675,
          35.3502198
        ]
      },
      "properties": {
        "id": "6bccddee-00d2-4d4c-94de-6e0fec18d4c6",
        "name": "市立神明中学校北側",
        "address": "四之宮一丁目10－1",
        "city": "平塚市",
        "number": "47ー3",
        "status": "done"
      }
    },
    {
      "type": "Feature",
      "geometry": {
        "type": "Point",
        "coordinates": [
          139.5961952,
          35.5905741
        ]
      },
      "properties": {
        "id": "6bcd8cce-d0e6-4d1b-a1ea-05c9c1c38861",
        "name": "宮崎こうしん坂公園東側フェンス (位置情報が見つかりませんでした)",
        "address": "宮前区宮崎172番地6",
        "city": "川崎市",
        "number": "30",
        "status": "done"
      }
    },
    {
      "type": "Feature",
      "geometry": {
        "type": "Point",
        "coordinates": [
          139.6472376,
          35.5536198
        ]
      },
      "properties": {
        "id": "6bceebf2-6526-4dd2-934e-2fd75ebda2a7",
        "name": "日吉駅行政サービスコーナー前ガードレール",
        "address": "港北区日吉二丁目１番１号",
        "city": "横浜市",
        "number": "11-222",
        "status": "done"
      }
    },
    {
      "type": "Feature",
      "geometry": {
        "type": "Point",
        "coordinates": [
          139.5601192,
          35.46328961
        ]
      },
      "properties": {
        "id": "6bd18c9b-76d8-4c29-aaf4-bda48c74faa6",
        "name": "バス停「市沢町」横フェンス",
        "address": "旭区市沢町703番地",
        "city": "横浜市",
        "number": "08-034",
        "status": "done"
      }
    },
    {
      "type": "Feature",
      "geometry": {
        "type": "Point",
        "coordinates": [
          139.5986796,
          35.5802744
        ]
      },
      "properties": {
        "id": "6be03f27-bf5b-4bfc-aa67-e94fc0545d84",
        "name": "「クレストシティ宮崎台」向かい側駐車場フェンス",
        "address": "宮前区馬絹4丁目1066番1",
        "city": "川崎市",
        "number": "37",
        "status": "done"
      }
    },
    {
      "type": "Feature",
      "geometry": {
        "type": "Point",
        "coordinates": [
          139.6407822,
          35.5778087
        ]
      },
      "properties": {
        "id": "6be2d061-8f57-45b8-89c9-f82e07bfbad6",
        "name": "中原区役所道路公園センター西門脇鉄柵",
        "address": "中原区下小田中2丁目9番1号",
        "city": "川崎市",
        "number": "198",
        "status": "done"
      }
    },
    {
      "type": "Feature",
      "geometry": {
        "type": "Point",
        "coordinates": [
          139.5996817,
          35.4650302
        ]
      },
      "properties": {
        "id": "6be6f2e1-b552-4865-8bd0-135064ae9f3b",
        "name": "シママンション向いフェンス",
        "address": "保土ケ谷区鎌谷町262番地",
        "city": "横浜市",
        "number": "07-093",
        "status": "done"
      }
    },
    {
      "type": "Feature",
      "geometry": {
        "type": "Point",
        "coordinates": [
          139.3620674,
          35.3240931
        ]
      },
      "properties": {
        "id": "6bf0d326-cd01-4275-96d1-803cbede8025",
        "name": "須賀第１駐車場南側",
        "address": "札場町4",
        "city": "平塚市",
        "number": "9ー1",
        "status": "done"
      }
    },
    {
      "type": "Feature",
      "geometry": {
        "type": "Point",
        "coordinates": [
          139.6296068,
          35.47703951
        ]
      },
      "properties": {
        "id": "6bfa4251-e823-43fe-ac2d-54916936a961",
        "name": "神奈川区総合庁舎前フェンス",
        "address": "神奈川区広台太田町３番地８先",
        "city": "横浜市",
        "number": "02-128",
        "status": "done"
      }
    },
    {
      "type": "Feature",
      "geometry": {
        "type": "Point",
        "coordinates": [
          139.5338383,
          35.40659731
        ]
      },
      "properties": {
        "id": "6bff99fb-30e7-4f53-b2c3-bfd0ad926ba8",
        "name": "蔵坪交差点そば線路脇（ﾌｪﾝｽ取付）",
        "address": "戸塚区矢部町291番地の5",
        "city": "横浜市",
        "number": "15-293",
        "status": "done"
      }
    },
    {
      "type": "Feature",
      "geometry": {
        "type": "Point",
        "coordinates": [
          139.7060833,
          35.5286109
        ]
      },
      "properties": {
        "id": "6c00151e-81d5-4cd8-a1bc-2f5d4985bb9e",
        "name": "宮前小学校東側フェンス",
        "address": "川崎区宮前町8番13号",
        "city": "川崎市",
        "number": "13",
        "status": "done"
      }
    },
    {
      "type": "Feature",
      "geometry": {
        "type": "Point",
        "coordinates": [
          139.7179315,
          35.5153275
        ]
      },
      "properties": {
        "id": "6c036f45-d4c8-487d-95a8-cb897a2a5a8a",
        "name": "曹洞宗観音寺東側フェンス",
        "address": "川崎区浜町1丁目18番3号",
        "city": "川崎市",
        "number": "137",
        "status": "done"
      }
    },
    {
      "type": "Feature",
      "geometry": {
        "type": "Point",
        "coordinates": [
          139.1921557,
          35.6179006
        ]
      },
      "properties": {
        "id": "6c055c8e-3fa1-4e6c-a42c-8b321c3ca55e",
        "name": "407与瀬中丸公園前",
        "address": "緑区",
        "city": "相模原市",
        "number": "874",
        "status": "done"
      }
    },
    {
      "type": "Feature",
      "geometry": {
        "type": "Point",
        "coordinates": [
          139.6818568,
          35.53872184
        ]
      },
      "properties": {
        "id": "6c0683cb-c496-4b1a-ae5d-230a5aff400a",
        "name": "よつ竹前ガードレール",
        "address": "鶴見区矢向五丁目７番７号",
        "city": "横浜市",
        "number": "01-020",
        "status": "done"
      }
    },
    {
      "type": "Feature",
      "geometry": {
        "type": "Point",
        "coordinates": [
          139.6568648,
          35.5865054
        ]
      },
      "properties": {
        "id": "6c09d161-b457-4f73-9b62-97b8890b98a2",
        "name": "住宅大谷石塀",
        "address": "中原区小杉陣屋町2丁目14番1号",
        "city": "川崎市",
        "number": "38",
        "status": "done"
      }
    },
    {
      "type": "Feature",
      "geometry": {
        "type": "Point",
        "coordinates": [
          139.6125208,
          35.37423356
        ]
      },
      "properties": {
        "id": "6c0a4a5a-2c3c-4702-8308-9bb9c306ef27",
        "name": "杉田遠道山公園入口横鉄柵",
        "address": "磯子区杉田八丁目３番",
        "city": "横浜市",
        "number": "09-177",
        "status": "done"
      }
    },
    {
      "type": "Feature",
      "geometry": {
        "type": "Point",
        "coordinates": [
          139.4963856,
          35.5036105
        ]
      },
      "properties": {
        "id": "6c0c9af0-bbd3-4fce-8d5f-6d8d9aa1fa68",
        "name": "バス停「地区公園」前植栽",
        "address": "旭区若葉台三丁目１番",
        "city": "横浜市",
        "number": "08-230",
        "status": "done"
      }
    },
    {
      "type": "Feature",
      "geometry": {
        "type": "Point",
        "coordinates": [
          139.5022465,
          35.41779058
        ]
      },
      "properties": {
        "id": "6c0f19eb-c380-4175-9a48-33e0247766c4",
        "name": "水路横ネットフェンス",
        "address": "泉区中田町2,837番地",
        "city": "横浜市",
        "number": "17-085",
        "status": "done"
      }
    },
    {
      "type": "Feature",
      "geometry": {
        "type": "Point",
        "coordinates": [
          139.4292265,
          35.5442927
        ]
      },
      "properties": {
        "id": "6c10ae1f-de0c-4e08-82de-1dd837f9e418",
        "name": "56鵜野森中学校東側フェンス",
        "address": "南区",
        "city": "相模原市",
        "number": "323",
        "status": "done"
      }
    },
    {
      "type": "Feature",
      "geometry": {
        "type": "Point",
        "coordinates": [
          139.3425661,
          35.3180713
        ]
      },
      "properties": {
        "id": "6c14de81-873b-4a83-93fb-386cb9e9a322",
        "name": "菫平西公園南側",
        "address": "菫平15",
        "city": "平塚市",
        "number": "3ー6",
        "status": "done"
      }
    },
    {
      "type": "Feature",
      "geometry": {
        "type": "Point",
        "coordinates": [
          139.508832,
          35.308114
        ]
      },
      "properties": {
        "id": "6c15f68c-0219-4577-bfd0-6ae0a74f35ed",
        "name": "七里ガ浜かもめ公園フェンス",
        "address": "七里ガ浜二丁目2番",
        "city": "鎌倉市",
        "number": "13-5",
        "status": "done"
      }
    },
    {
      "type": "Feature",
      "geometry": {
        "type": "Point",
        "coordinates": [
          139.1778519,
          35.27270372
        ]
      },
      "properties": {
        "id": "6c19cd9e-450a-465b-b0c2-f98e9b111f06",
        "name": "141",
        "address": "南鴨宮２丁目１９−２１",
        "city": "小田原市",
        "number": "141",
        "status": "done"
      }
    },
    {
      "type": "Feature",
      "geometry": {
        "type": "Point",
        "coordinates": [
          139.3369185,
          35.5507987
        ]
      },
      "properties": {
        "id": "6c1a9894-6ec4-4d17-98fe-4e2d22fc48fa",
        "name": "315三角山公園",
        "address": "中央区",
        "city": "相模原市",
        "number": "234",
        "status": "done"
      }
    },
    {
      "type": "Feature",
      "geometry": {
        "type": "Point",
        "coordinates": [
          139.2472792,
          35.2952426
        ]
      },
      "properties": {
        "id": "6c1b181d-1ea1-4a21-8066-0d21c6f4c85a",
        "name": "等覚院前",
        "address": "山西793番地",
        "city": "二宮町",
        "number": "16",
        "status": "done"
      }
    },
    {
      "type": "Feature",
      "geometry": {
        "type": "Point",
        "coordinates": [
          139.4665423,
          35.3962062
        ]
      },
      "properties": {
        "id": "6c21ca52-a385-43b2-8f25-6d411f7c67f6",
        "name": "湘南台駅ホーム西側",
        "address": "湘南台2丁目15",
        "city": "藤沢市",
        "number": "529",
        "status": "done"
      }
    },
    {
      "type": "Feature",
      "geometry": {
        "type": "Point",
        "coordinates": [
          139.3844727,
          35.3767218
        ]
      },
      "properties": {
        "id": "6c2bd053-1724-49c7-8792-835dc323728b",
        "name": "北部文化福祉会館駐輪場フェンス",
        "address": "宮山2817番地1",
        "city": "寒川町",
        "number": "66",
        "status": "done"
      }
    },
    {
      "type": "Feature",
      "geometry": {
        "type": "Point",
        "coordinates": [
          139.375297,
          35.3332721
        ]
      },
      "properties": {
        "id": "6c308907-2788-433b-8ef2-abe1e9a87945",
        "name": "東側畑 東側",
        "address": "中島235地先",
        "city": "茅ヶ崎市",
        "number": "129",
        "status": "done"
      }
    },
    {
      "type": "Feature",
      "geometry": {
        "type": "Point",
        "coordinates": [
          139.5307582,
          35.56282311
        ]
      },
      "properties": {
        "id": "6c3d3049-eaf0-454f-91c0-d1fc8f3adb39",
        "name": "稲荷前第二公園",
        "address": "青葉区大場町174番地127",
        "city": "横浜市",
        "number": "13-121",
        "status": "done"
      }
    },
    {
      "type": "Feature",
      "geometry": {
        "type": "Point",
        "coordinates": [
          139.5832617,
          35.45023977
        ]
      },
      "properties": {
        "id": "6c3d7b92-84b0-4a33-979a-c776f210b37e",
        "name": "masked",
        "address": "保土ケ谷区初音ケ丘3番",
        "city": "横浜市",
        "number": "07-014",
        "status": "done"
      }
    },
    {
      "type": "Feature",
      "geometry": {
        "type": "Point",
        "coordinates": [
          139.0387879,
          35.2377731
        ]
      },
      "properties": {
        "id": "6c3f4f9c-20ba-41ff-9436-a8657da49304",
        "name": "勝俣月極駐車場(元松屋商店横駐車場)",
        "address": "二ノ平1116番地1",
        "city": "箱根町",
        "number": "52",
        "status": "error_wrong_place"
      }
    },
    {
      "type": "Feature",
      "geometry": {
        "type": "Point",
        "coordinates": [
          139.4922103,
          35.3443102
        ]
      },
      "properties": {
        "id": "6c45f76b-d18f-4763-961c-2e86fec2004b",
        "name": "コンフォール藤沢C－3号棟東側",
        "address": "藤が岡1丁目12",
        "city": "藤沢市",
        "number": "146",
        "status": "done"
      }
    },
    {
      "type": "Feature",
      "geometry": {
        "type": "Point",
        "coordinates": [
          139.3181833,
          35.3115957
        ]
      },
      "properties": {
        "id": "6c465f73-9f07-4c14-bbaa-6d2998984420",
        "name": "三澤川フェンス",
        "address": "大磯1846番地先",
        "city": "大磯町",
        "number": "18",
        "status": "done"
      }
    },
    {
      "type": "Feature",
      "geometry": {
        "type": "Point",
        "coordinates": [
          139.5832511,
          35.43790319
        ]
      },
      "properties": {
        "id": "6c5174ca-862a-48eb-88d2-eed636688b54",
        "name": "グラン・コート保土ケ谷横駐車場フェンス",
        "address": "保土ケ谷区狩場町303番地",
        "city": "横浜市",
        "number": "07-270",
        "status": "done"
      }
    },
    {
      "type": "Feature",
      "geometry": {
        "type": "Point",
        "coordinates": [
          139.2740385,
          35.3667422
        ]
      },
      "properties": {
        "id": "6c56c385-e79a-41a8-a004-1b147cb5ee27",
        "name": "さなだ幼稚園南側フェンス",
        "address": "真田四丁目10－15",
        "city": "平塚市",
        "number": "40ー2",
        "status": "done"
      }
    },
    {
      "type": "Feature",
      "geometry": {
        "type": "Point",
        "coordinates": [
          139.6775164,
          35.26060126
        ]
      },
      "properties": {
        "id": "6c57385c-663a-4c06-90de-1d4cb9180fcc",
        "name": "公郷6丁目公園広報掲示板横フェンス",
        "address": "横須賀市公郷町6丁目20番地",
        "city": "横須賀市",
        "number": "30-5",
        "status": "done"
      }
    },
    {
      "type": "Feature",
      "geometry": {
        "type": "Point",
        "coordinates": [
          139.6679209,
          35.26747258
        ]
      },
      "properties": {
        "id": "6c58f38c-2ea2-42db-a412-2433fac3678c",
        "name": "鶴久保小学校裏門脇植込",
        "address": "横須賀市不入斗町1丁目1番地",
        "city": "横須賀市",
        "number": "24-2",
        "status": "done"
      }
    },
    {
      "type": "Feature",
      "geometry": {
        "type": "Point",
        "coordinates": [
          139.1707221,
          35.3497247
        ]
      },
      "properties": {
        "id": "6c5a85ab-62e2-4852-a2fc-010b462214dd",
        "name": "masked",
        "address": "篠窪４５２番地",
        "city": "大井町",
        "number": "49",
        "status": "done"
      }
    },
    {
      "type": "Feature",
      "geometry": {
        "type": "Point",
        "coordinates": [
          139.5307255,
          35.46371798
        ]
      },
      "properties": {
        "id": "6c68fea1-2398-4151-8708-18f0f9320fd6",
        "name": "二俣川駅北口駐輪場前ガードレール",
        "address": "旭区二俣川１丁目６番地",
        "city": "横浜市",
        "number": "08-071",
        "status": "done"
      }
    },
    {
      "type": "Feature",
      "geometry": {
        "type": "Point",
        "coordinates": [
          139.645546,
          35.25653006
        ]
      },
      "properties": {
        "id": "6c6ae55c-b5ce-4d0a-b8d8-bc30a10a5389",
        "name": "栄地谷遊水池（多目的広場）入口向かい擁壁",
        "address": "横須賀市平作5丁目18番",
        "city": "横須賀市",
        "number": "34-6",
        "status": "done"
      }
    },
    {
      "type": "Feature",
      "geometry": {
        "type": "Point",
        "coordinates": [
          139.4146122,
          35.4920576
        ]
      },
      "properties": {
        "id": "6c74ff3f-fe65-4a44-85b0-49cda33c846f",
        "name": "小池白髪橋西側歩道 フェンス",
        "address": "栗原１５９３番地先小池白髪橋西側歩道 フェンス",
        "city": "座間市",
        "number": "40",
        "status": "done"
      }
    },
    {
      "type": "Feature",
      "geometry": {
        "type": "Point",
        "coordinates": [
          139.2100249,
          35.5643618
        ]
      },
      "properties": {
        "id": "6c787cda-8684-42b6-b264-eca39cbef952",
        "name": "352前戸バス停西",
        "address": "緑区",
        "city": "相模原市",
        "number": "844",
        "status": "done"
      }
    },
    {
      "type": "Feature",
      "geometry": {
        "type": "Point",
        "coordinates": [
          139.4080442,
          35.5233345
        ]
      },
      "properties": {
        "id": "6c7c2966-af0a-4caf-b60e-d8f89fea57d8",
        "name": "334桜台小学校正門横",
        "address": "南区",
        "city": "相模原市",
        "number": "529",
        "status": "done"
      }
    },
    {
      "type": "Feature",
      "geometry": {
        "type": "Point",
        "coordinates": [
          139.4592505,
          35.3932113
        ]
      },
      "properties": {
        "id": "6c851c5f-bdbb-4be6-9845-5362d995c360",
        "name": "円行下原公園北側",
        "address": "円行2丁目15-4",
        "city": "藤沢市",
        "number": "524",
        "status": "done"
      }
    },
    {
      "type": "Feature",
      "geometry": {
        "type": "Point",
        "coordinates": [
          139.1188162,
          35.3321488
        ]
      },
      "properties": {
        "id": "6c8a3295-2db7-42e3-a3b4-1df2d756a8db",
        "name": "円中自治会館フェンス",
        "address": "中之名 384番地",
        "city": "開成町",
        "number": "20",
        "status": "done"
      }
    },
    {
      "type": "Feature",
      "geometry": {
        "type": "Point",
        "coordinates": [
          139.5188027,
          35.3479593
        ]
      },
      "properties": {
        "id": "6c943480-74ea-43fd-94ce-49adaf9d59a2",
        "name": "玉縄中学校正門横フェンス",
        "address": "岡本1100番地",
        "city": "鎌倉市",
        "number": "36-6",
        "status": "done"
      }
    },
    {
      "type": "Feature",
      "geometry": {
        "type": "Point",
        "coordinates": [
          139.4442671,
          35.4870922
        ]
      },
      "properties": {
        "id": "6c9b935f-b9da-4fc6-9ad2-708309a1b9cb",
        "name": "西鶴間小学校南側",
        "address": "西鶴間2-25-43",
        "city": "大和市",
        "number": "97",
        "status": "done"
      }
    },
    {
      "type": "Feature",
      "geometry": {
        "type": "Point",
        "coordinates": [
          139.5061979,
          35.51381199
        ]
      },
      "properties": {
        "id": "6ca09084-402d-4f38-8f0c-2c234caee9bf",
        "name": "バス停「郵便局前」後鉄柵",
        "address": "緑区霧が丘四丁目２",
        "city": "横浜市",
        "number": "12-175",
        "status": "done"
      }
    },
    {
      "type": "Feature",
      "geometry": {
        "type": "Point",
        "coordinates": [
          139.5451842,
          35.6103146
        ]
      },
      "properties": {
        "id": "6ca16d66-9971-4755-a00b-7b984d4427ab",
        "name": "三田第4公園入口右フェンス",
        "address": "多摩区三田3丁目5番",
        "city": "川崎市",
        "number": "131",
        "status": "done"
      }
    },
    {
      "type": "Feature",
      "geometry": {
        "type": "Point",
        "coordinates": [
          139.2687776,
          35.368087
        ]
      },
      "properties": {
        "id": "6ca1f084-1564-4626-bde3-a2667b145af3",
        "name": "大根中学校フェンス (位置情報が見つかりませんでした)",
        "address": "南矢名4丁目28番",
        "city": "秦野市",
        "number": "144",
        "status": "done"
      }
    },
    {
      "type": "Feature",
      "geometry": {
        "type": "Point",
        "coordinates": [
          139.7233723,
          35.5181052
        ]
      },
      "properties": {
        "id": "6ca8b7fb-8400-48fb-8374-17cb263e4902",
        "name": "桜川公園南側入口左側鉄柵",
        "address": "川崎区桜本1丁目14番",
        "city": "川崎市",
        "number": "145",
        "status": "done"
      }
    },
    {
      "type": "Feature",
      "geometry": {
        "type": "Point",
        "coordinates": [
          139.5456745,
          35.3549366
        ]
      },
      "properties": {
        "id": "6cabc942-de53-4c2f-b2a7-832902cb817b",
        "name": "下水路転落防止柵",
        "address": "岩瀬546番地",
        "city": "鎌倉市",
        "number": "32-7",
        "status": "done"
      }
    },
    {
      "type": "Feature",
      "geometry": {
        "type": "Point",
        "coordinates": [
          139.576178,
          35.5801861
        ]
      },
      "properties": {
        "id": "6cb2b2d8-940d-4356-b816-ee26adbce908",
        "name": "小台1丁目こども公園西側フェンス",
        "address": "宮前区小台1丁目14番地3",
        "city": "川崎市",
        "number": "169",
        "status": "done"
      }
    },
    {
      "type": "Feature",
      "geometry": {
        "type": "Point",
        "coordinates": [
          139.6138805,
          35.37869991
        ]
      },
      "properties": {
        "id": "6cb7feda-4cf6-4cf1-88b9-b537dcada7a0",
        "name": "杉田内山公園鉄柵",
        "address": "磯子区杉田三丁目22番",
        "city": "横浜市",
        "number": "09-152",
        "status": "done"
      }
    },
    {
      "type": "Feature",
      "geometry": {
        "type": "Point",
        "coordinates": [
          139.5458735,
          35.49001227
        ]
      },
      "properties": {
        "id": "6cb93156-b7e9-434f-9f67-cff7e1072b5f",
        "name": "日影山公園フェンス",
        "address": "旭区中白根二丁目10番",
        "city": "横浜市",
        "number": "08-275",
        "status": "done"
      }
    },
    {
      "type": "Feature",
      "geometry": {
        "type": "Point",
        "coordinates": [
          139.476476,
          35.3852143
        ]
      },
      "properties": {
        "id": "6cb9e794-74b6-4618-a7f8-59e20e522268",
        "name": "大久保公園東側",
        "address": "亀井野4丁目11",
        "city": "藤沢市",
        "number": "324",
        "status": "done"
      }
    },
    {
      "type": "Feature",
      "geometry": {
        "type": "Point",
        "coordinates": [
          139.332717,
          35.3729797
        ]
      },
      "properties": {
        "id": "6cbc15de-e147-4dbc-936e-e5e0a4f6b100",
        "name": "市立城島公民館西側",
        "address": "小鍋島271－1",
        "city": "平塚市",
        "number": "29ー5",
        "status": "done"
      }
    },
    {
      "type": "Feature",
      "geometry": {
        "type": "Point",
        "coordinates": [
          139.43541,
          35.42097
        ]
      },
      "properties": {
        "id": "6cc19a40-f7aa-4bb7-af5a-2911c0d3305a",
        "name": "落合小学校東門横フェンス",
        "address": "落合北３丁目１０−１",
        "city": "綾瀬市",
        "number": "14",
        "status": "done"
      }
    },
    {
      "type": "Feature",
      "geometry": {
        "type": "Point",
        "coordinates": [
          139.2026615,
          35.28163764
        ]
      },
      "properties": {
        "id": "6cc3103c-e2cc-4a66-8f8e-f1d80da705fa",
        "name": "217",
        "address": "国府津２４８５−５",
        "city": "小田原市",
        "number": "217",
        "status": "done"
      }
    },
    {
      "type": "Feature",
      "geometry": {
        "type": "Point",
        "coordinates": [
          139.6238511,
          35.5941322
        ]
      },
      "properties": {
        "id": "6cd309ac-6bc7-45ec-be06-a84d9188e1e1",
        "name": "市営坂戸住宅坂戸遊園フェンス",
        "address": "高津区坂戸3丁目10番",
        "city": "川崎市",
        "number": "81",
        "status": "done"
      }
    },
    {
      "type": "Feature",
      "geometry": {
        "type": "Point",
        "coordinates": [
          139.5910914,
          35.46053571
        ]
      },
      "properties": {
        "id": "6cd944ee-6c05-4012-a643-707a50fd3dc4",
        "name": "星川中央公園南側歩道植込み",
        "address": "保土ケ谷区星川二丁目16番",
        "city": "横浜市",
        "number": "07-144",
        "status": "done"
      }
    },
    {
      "type": "Feature",
      "geometry": {
        "type": "Point",
        "coordinates": [
          139.2020742,
          35.3898275
        ]
      },
      "properties": {
        "id": "6cddc9dc-028f-4ed2-9865-1952df2b8852",
        "name": "日興電機北側フェンス（三屋入口バス停前）",
        "address": "菩提90番地",
        "city": "秦野市",
        "number": "112",
        "status": "done"
      }
    },
    {
      "type": "Feature",
      "geometry": {
        "type": "Point",
        "coordinates": [
          139.5469576,
          35.56418732
        ]
      },
      "properties": {
        "id": "6cdfd379-cf79-47b5-8acb-be0066c85c1d",
        "name": "あざみ野南鍛冶谷公園",
        "address": "青葉区あざみ野南三丁目12番地20",
        "city": "横浜市",
        "number": "13-288",
        "status": "done"
      }
    },
    {
      "type": "Feature",
      "geometry": {
        "type": "Point",
        "coordinates": [
          139.4772588,
          35.56370967
        ]
      },
      "properties": {
        "id": "6ce3f866-9f8c-4f38-ae7e-c8320270e137",
        "name": "奈良町第五公園",
        "address": "青葉区奈良町1566番地356",
        "city": "横浜市",
        "number": "13-017",
        "status": "done"
      }
    },
    {
      "type": "Feature",
      "geometry": {
        "type": "Point",
        "coordinates": [
          139.4310296,
          35.3402704
        ]
      },
      "properties": {
        "id": "6ceffd3c-6afe-4ae7-9780-0b3425012bfa",
        "name": "小和田地区コミュニティセンター 南側フェンス",
        "address": "小和田一丁目22番60号",
        "city": "茅ヶ崎市",
        "number": "181",
        "status": "done"
      }
    },
    {
      "type": "Feature",
      "geometry": {
        "type": "Point",
        "coordinates": [
          139.5708782,
          35.42381227
        ]
      },
      "properties": {
        "id": "6cf38b48-b3d6-46aa-a16a-f88851db7f3c",
        "name": "六ツ川四丁目公園北側",
        "address": "南区六ツ川四丁目1157番地",
        "city": "横浜市",
        "number": "05-188",
        "status": "done"
      }
    },
    {
      "type": "Feature",
      "geometry": {
        "type": "Point",
        "coordinates": [
          139.4000328,
          35.3552065
        ]
      },
      "properties": {
        "id": "6cf73666-27d8-4cc6-8c3b-0eaf72c0d0b5",
        "name": "香川駅自転車駐車場 中央フェンス",
        "address": "香川四丁目42番5号",
        "city": "茅ヶ崎市",
        "number": "151",
        "status": "done"
      }
    },
    {
      "type": "Feature",
      "geometry": {
        "type": "Point",
        "coordinates": [
          139.6495047,
          35.52074387
        ]
      },
      "properties": {
        "id": "6d0dad6c-d682-4fff-9416-076f2631db93",
        "name": "バス停二ツ池左側ガードパイプ",
        "address": "鶴見区獅子ケ谷二丁目24番",
        "city": "横浜市",
        "number": "01-200",
        "status": "done"
      }
    },
    {
      "type": "Feature",
      "geometry": {
        "type": "Point",
        "coordinates": [
          139.1043344,
          35.31445906
        ]
      },
      "properties": {
        "id": "6d168be6-074e-4b16-a1a0-29922fa3d981",
        "name": "10",
        "address": null,
        "city": "南足柄市",
        "number": "10",
        "status": "done"
      }
    },
    {
      "type": "Feature",
      "geometry": {
        "type": "Point",
        "coordinates": [
          139.4049345,
          35.512785
        ]
      },
      "properties": {
        "id": "6d192aa2-0175-47e4-b432-fe0b12857be0",
        "name": "392もえぎ台小学校南側",
        "address": "南区",
        "city": "相模原市",
        "number": "571",
        "status": "done"
      }
    },
    {
      "type": "Feature",
      "geometry": {
        "type": "Point",
        "coordinates": [
          139.6075782,
          35.6074176
        ]
      },
      "properties": {
        "id": "6d1d94a2-ac3a-487e-beb2-2f99bf76ead7",
        "name": "masked",
        "address": "高津区久地1丁目21番1号",
        "city": "川崎市",
        "number": "15",
        "status": "done"
      }
    },
    {
      "type": "Feature",
      "geometry": {
        "type": "Point",
        "coordinates": [
          139.396576,
          35.437469
        ]
      },
      "properties": {
        "id": "6d2798d0-e8db-46d3-9ba4-1cf621a83646",
        "name": "大谷中学校東側フェンス",
        "address": "大谷南二丁目10番１号",
        "city": "海老名市",
        "number": "２ - ４",
        "status": "done"
      }
    },