{
  "type": "FeatureCollection",
  "features": [
    {
      "type": "Feature",
      "geometry": {
        "type": "Point",
        "coordinates": [
          135.52844882,
          34.59387974
        ]
      },
      "properties": {
        "id": "6b0bef9b-3311-45ac-a8be-b4233d0c60a3",
        "name": "天美ランド児童公園",
        "address": "松原市天美西3丁目3番",
        "city": "松原市",
        "number": "18-1",
        "status": "done"
      }
    },
    {
      "type": "Feature",
      "geometry": {
        "type": "Point",
        "coordinates": [
          135.548615,
          34.536865
        ]
      },
      "properties": {
        "id": "6b15b59c-11da-4c77-b096-c19501321520",
        "name": "西除川高橋北詰ガードレール",
        "address": "美原区北余部483-2先",
        "city": "堺市",
        "number": "7",
        "status": "done"
      }
    },
    {
      "type": "Feature",
      "geometry": {
        "type": "Point",
        "coordinates": [
          135.60359351,
          34.47700904
        ]
      },
      "properties": {
        "id": "6b1b499e-e667-497e-858e-f880169d5d46",
        "name": "中佐備交差点フェンス",
        "address": "佐備676-2",
        "city": "富田林市",
        "number": "119",
        "status": "not_yet"
      }
    },
    {
      "type": "Feature",
      "geometry": {
        "type": "Point",
        "coordinates": [
          135.4856467,
          34.7657065
        ]
      },
      "properties": {
        "id": "6b1f81d4-a849-4e3f-89ef-b7287b228382",
        "name": "北条公園北側金網塀",
        "address": "北条町3丁目17番",
        "city": "豊中市",
        "number": "30_7",
        "status": "done"
      }
    },
    {
      "type": "Feature",
      "geometry": {
        "type": "Point",
        "coordinates": [
          135.6234473,
          34.7956227
        ]
      },
      "properties": {
        "id": "6b22a169-60ed-44c6-a1dd-97ec2e38d632",
        "name": "さだ中学校裏門",
        "address": "出口５丁目40",
        "city": "枚方市",
        "number": "7-5",
        "status": "not_yet"
      }
    },
    {
      "type": "Feature",
      "geometry": {
        "type": "Point",
        "coordinates": [
          135.4728131,
          34.5407193
        ]
      },
      "properties": {
        "id": "6b2570a8-ffa6-4932-815f-10e942eb7195",
        "name": "URサンヴァリエ津久野5号棟南東側",
        "address": "西区津久野町1丁16-16",
        "city": "堺市",
        "number": "6",
        "status": "done"
      }
    },
    {
      "type": "Feature",
      "geometry": {
        "type": "Point",
        "coordinates": [
          135.315018,
          34.390319
        ]
      },
      "properties": {
        "id": "6b2bb5f2-c46b-42e2-856a-a3475d339dc9",
        "name": "第17投票区（長滝）",
        "address": "府営長滝第一住宅　１号棟横",
        "city": "泉佐野市",
        "number": "115",
        "status": "not_yet"
      }
    },
    {
      "type": "Feature",
      "geometry": {
        "type": "Point",
        "coordinates": [
          135.487595,
          34.734043
        ]
      },
      "properties": {
        "id": "6b48717a-bf03-4c0d-854e-6d2b3a73d680",
        "name": "市営三国南住宅西側植え込み",
        "address": "淀川区三国本町２丁目１１番２号",
        "city": "大阪市",
        "number": "1300",
        "status": "done"
      }
    },
    {
      "type": "Feature",
      "geometry": {
        "type": "Point",
        "coordinates": [
          135.6199281,
          34.53931566
        ]
      },
      "properties": {
        "id": "6b4d84f3-6064-4e69-a6dc-6e3a0ab02d77",
        "name": "石川新大黒橋東詰北向側道路ガードレール",
        "address": "大黒",
        "city": "羽曳野市",
        "number": "134",
        "status": "done"
      }
    },
    {
      "type": "Feature",
      "geometry": {
        "type": "Point",
        "coordinates": [
          135.53816,
          34.763048
        ]
      },
      "properties": {
        "id": "6b4ff08b-9c69-4fbf-a8d5-f53eb0cf2be8",
        "name": "府営吹田川園住宅７号棟前ポンプ室西面",
        "address": "川園町６０",
        "city": "吹田市",
        "number": "112-4",
        "status": "done"
      }
    },
    {
      "type": "Feature",
      "geometry": {
        "type": "Point",
        "coordinates": [
          135.6113146,
          34.53091056
        ]
      },
      "properties": {
        "id": "6b5461ba-0063-450c-82f4-6abd69106e60",
        "name": "東阪田会館南側フェンス",
        "address": "東阪田176番地の1",
        "city": "羽曳野市",
        "number": "112",
        "status": "done"
      }
    },
    {
      "type": "Feature",
      "geometry": {
        "type": "Point",
        "coordinates": [
          135.545349,
          34.769968
        ]
      },
      "properties": {
        "id": "6b58cac2-89ea-4a10-bf3b-6c8179251279",
        "name": "緑道西端",
        "address": "南正雀３丁目",
        "city": "吹田市",
        "number": "121-5",
        "status": "done"
      }
    },
    {
      "type": "Feature",
      "geometry": {
        "type": "Point",
        "coordinates": [
          135.4567731,
          34.8102579
        ]
      },
      "properties": {
        "id": "6b59b9ad-69cd-4832-9141-6a0a2b2e857b",
        "name": "霊園 南側",
        "address": "半町４丁目２０番５３号",
        "city": "箕面市",
        "number": "36",
        "status": "done"
      }
    },
    {
      "type": "Feature",
      "geometry": {
        "type": "Point",
        "coordinates": [
          135.564995,
          34.7597923
        ]
      },
      "properties": {
        "id": "6b5e4f22-9e2f-473a-8f72-308ba0cb5972",
        "name": "市立味生小学校北側",
        "address": "一津屋二丁目19番1号",
        "city": "摂津市",
        "number": "6",
        "status": "done"
      }
    },
    {
      "type": "Feature",
      "geometry": {
        "type": "Point",
        "coordinates": [
          135.4986795,
          34.4854783
        ]
      },
      "properties": {
        "id": "6b6333bc-1b0b-45f1-ad70-ede58a9ce2ca",
        "name": "栂自治会館北側",
        "address": "南区栂223",
        "city": "堺市",
        "number": "2",
        "status": "not_yet"
      }
    },
    {
      "type": "Feature",
      "geometry": {
        "type": "Point",
        "coordinates": [
          135.507904,
          34.598167
        ]
      },
      "properties": {
        "id": "6b68d0ac-71c8-428b-876e-6da813c6d9e3",
        "name": "市立依羅小学校 西通用門南側",
        "address": "住吉区我孫子4丁目11番48号",
        "city": "大阪市",
        "number": "244",
        "status": "done"
      }
    },
    {
      "type": "Feature",
      "geometry": {
        "type": "Point",
        "coordinates": [
          135.5630961,
          34.4740397
        ]
      },
      "properties": {
        "id": "6b769b6e-442d-4597-9842-4fc414ba9475",
        "name": "ニシノ商会前国道",
        "address": "松ケ丘中町１２７９−３",
        "city": "河内長野市",
        "number": "6-8",
        "status": "not_yet"
      }
    },
    {
      "type": "Feature",
      "geometry": {
        "type": "Point",
        "coordinates": [
          135.477081,
          34.717731
        ]
      },
      "properties": {
        "id": "6b7ae7c7-7dfb-417d-ab39-844f1ea9a538",
        "name": "十三公園西側入口右側植込み",
        "address": "淀川区十三元今里１丁目１番",
        "city": "大阪市",
        "number": "1241",
        "status": "done"
      }
    },
    {
      "type": "Feature",
      "geometry": {
        "type": "Point",
        "coordinates": [
          135.229568,
          34.341003
        ]
      },
      "properties": {
        "id": "6b8601b7-04c1-45a7-82e5-678646016e2b",
        "name": "舞4丁目13番市道ガードレール",
        "address": "舞4-871-20",
        "city": "阪南市",
        "number": "17-9",
        "status": "done"
      }
    },
    {
      "type": "Feature",
      "geometry": {
        "type": "Point",
        "coordinates": [
          135.513641,
          34.708199
        ]
      },
      "properties": {
        "id": "6b875393-5d8e-403f-84b8-fa825e3aa546",
        "name": "菅北小学校講堂入口横鉄柵",
        "address": "北区池田町１３番",
        "city": "大阪市",
        "number": "296",
        "status": "done"
      }
    },
    {
      "type": "Feature",
      "geometry": {
        "type": "Point",
        "coordinates": [
          135.453918,
          34.729191
        ]
      },
      "properties": {
        "id": "6b87ef9e-b4f9-4e06-a375-990929c7b962",
        "name": "ＪＲ加島駅前東側植込み",
        "address": "淀川区加島３丁目１０番",
        "city": "大阪市",
        "number": "1216",
        "status": "done"
      }
    },
    {
      "type": "Feature",
      "geometry": {
        "type": "Point",
        "coordinates": [
          135.6478198,
          34.8102696
        ]
      },
      "properties": {
        "id": "6b899ad8-9b8b-4a12-a620-ebce193b88e2",
        "name": "サンメゾン枚方ヒルズアイ南端",
        "address": "朝日丘町17",
        "city": "枚方市",
        "number": "2-4",
        "status": "done"
      }
    },
    {
      "type": "Feature",
      "geometry": {
        "type": "Point",
        "coordinates": [
          135.6151782,
          34.7323254
        ]
      },
      "properties": {
        "id": "6b8c3c71-fb41-4df6-b35b-9e28373334f0",
        "name": "水路鉄柵",
        "address": "四宮５丁目３番",
        "city": "門真市",
        "number": "199",
        "status": "done"
      }
    },
    {
      "type": "Feature",
      "geometry": {
        "type": "Point",
        "coordinates": [
          135.4452805,
          34.5345838
        ]
      },
      "properties": {
        "id": "6b8dd88e-e6b5-43a1-92f1-16cf21bce4e5",
        "name": "羽衣学園 南側",
        "address": "東羽衣１－１１－５７",
        "city": "高石市",
        "number": "33",
        "status": "done"
      }
    },
    {
      "type": "Feature",
      "geometry": {
        "type": "Point",
        "coordinates": [
          135.4700414,
          34.8335899
        ]
      },
      "properties": {
        "id": "6b9bd4ea-a3f2-46b1-b815-79d3b0bec165",
        "name": "箕面駅前第一駐車場 東側",
        "address": "箕面６丁目４番１０号",
        "city": "箕面市",
        "number": "110",
        "status": "done"
      }
    },
    {
      "type": "Feature",
      "geometry": {
        "type": "Point",
        "coordinates": [
          135.6444308,
          34.650277
        ]
      },
      "properties": {
        "id": "6b9bf670-ec61-4279-9fca-c0e2aa2c3ac7",
        "name": "永塚工業(株) 南側",
        "address": "六万寺町1丁目5番37号",
        "city": "東大阪市",
        "number": "123-3",
        "status": "done"
      }
    },
    {
      "type": "Feature",
      "geometry": {
        "type": "Point",
        "coordinates": [
          135.4515721,
          34.507282
        ]
      },
      "properties": {
        "id": "6b9c0123-2c77-4e38-879f-825f4af324b3",
        "name": "鶴山台東公園前歩道 石柱",
        "address": "鶴山台一丁目1067",
        "city": "和泉市",
        "number": "49-7",
        "status": "not_yet"
      }
    },
    {
      "type": "Feature",
      "geometry": {
        "type": "Point",
        "coordinates": [
          135.3932228,
          34.4295663
        ]
      },
      "properties": {
        "id": "6ba0f499-551a-48ad-b6d9-672aed358f50",
        "name": "天神山小学校横通路フェンス",
        "address": "天神山町1丁目1-1",
        "city": "岸和田市",
        "number": "299",
        "status": "not_yet"
      }
    },
    {
      "type": "Feature",
      "geometry": {
        "type": "Point",
        "coordinates": [
          135.51796,
          34.748249
        ]
      },
      "properties": {
        "id": "6ba49ec0-4710-4199-8425-d6221476cbbd",
        "name": "市営下新庄第２住宅１号棟北側鉄柵バス停前",
        "address": "東淀川区下新庄4丁目19番",
        "city": "大阪市",
        "number": "988",
        "status": "done"
      }
    },
    {
      "type": "Feature",
      "geometry": {
        "type": "Point",
        "coordinates": [
          135.52901745,
          34.5768765
        ]
      },
      "properties": {
        "id": "6bb4040e-6824-47a7-9c59-914d3d34625a",
        "name": "清水ヶ丘公民館横公園南側道路防護柵",
        "address": "松原市北新町6丁目19番",
        "city": "松原市",
        "number": "28-6",
        "status": "done"
      }
    },
    {
      "type": "Feature",
      "geometry": {
        "type": "Point",
        "coordinates": [
          135.6046963,
          34.7432341
        ]
      },
      "properties": {
        "id": "6bb71dec-c909-4663-a4d5-381a59c191a5",
        "name": "歩道沿い水路鉄柵",
        "address": "野里町4番",
        "city": "門真市",
        "number": "110",
        "status": "done"
      }
    },
    {
      "type": "Feature",
      "geometry": {
        "type": "Point",
        "coordinates": [
          135.510067,
          34.913872
        ]
      },
      "properties": {
        "id": "6bb89bbf-adea-4e33-9160-e0d6ddcb5a4b",
        "name": "希望ヶ丘5号公園対面調整池",
        "address": "希望ヶ丘",
        "city": "豊能町",
        "number": "7-8",
        "status": "done"
      }
    },
    {
      "type": "Feature",
      "geometry": {
        "type": "Point",
        "coordinates": [
          135.4723402,
          34.444988
        ]
      },
      "properties": {
        "id": "6bbc6eef-74d5-4b22-b094-a533ec789b3d",
        "name": "大池 歩道防護柵鉄柵",
        "address": "青葉台三丁目24-4先",
        "city": "和泉市",
        "number": "53-3",
        "status": "not_yet"
      }
    },
    {
      "type": "Feature",
      "geometry": {
        "type": "Point",
        "coordinates": [
          135.6152398,
          34.655316
        ]
      },
      "properties": {
        "id": "6bc4f6f8-0516-403b-9947-25be98459fdd",
        "name": "はなぞの生協診療所 西畑 南側",
        "address": "玉串町西1丁目4番",
        "city": "東大阪市",
        "number": "224-6",
        "status": "done"
      }
    },
    {
      "type": "Feature",
      "geometry": {
        "type": "Point",
        "coordinates": [
          135.6808536,
          34.8674488
        ]
      },
      "properties": {
        "id": "6bc57a21-928c-43f1-b890-460edf6781f6",
        "name": "まつもと歯科前の植え込み",
        "address": "楠葉中町39",
        "city": "枚方市",
        "number": "51-6",
        "status": "done"
      }
    },
    {
      "type": "Feature",
      "geometry": {
        "type": "Point",
        "coordinates": [
          135.4796837,
          34.7460909
        ]
      },
      "properties": {
        "id": "6bd45de9-cb65-4b8e-b816-54b2993383f4",
        "name": "府営豊中豊南住宅2棟北側芝生",
        "address": "豊南町南1丁目8番",
        "city": "豊中市",
        "number": "38_3",
        "status": "done"
      }
    },
    {
      "type": "Feature",
      "geometry": {
        "type": "Point",
        "coordinates": [
          135.586197,
          34.700733
        ]
      },
      "properties": {
        "id": "6bd5d1e6-2f95-4c91-a945-622022e5e9ed",
        "name": "市営中茶屋住宅３号館　東自転車置き場東側フェンス",
        "address": "鶴見区中茶屋１丁目７番３号",
        "city": "大阪市",
        "number": "2005",
        "status": "done"
      }
    },
    {
      "type": "Feature",
      "geometry": {
        "type": "Point",
        "coordinates": [
          135.5917535,
          34.6851226
        ]
      },
      "properties": {
        "id": "6bdbee9d-9478-41b4-a61a-8fd896eaa53f",
        "name": "菱屋東公園 南側",
        "address": "七軒家6番",
        "city": "東大阪市",
        "number": "302-6",
        "status": "done"
      }
    },
    {
      "type": "Feature",
      "geometry": {
        "type": "Point",
        "coordinates": [
          135.5741402,
          34.660632
        ]
      },
      "properties": {
        "id": "6be2253a-c3cb-4c14-aef4-2a2284d5f532",
        "name": "永和公園 北側",
        "address": "永和2丁目13番",
        "city": "東大阪市",
        "number": "331-1",
        "status": "done"
      }
    },
    {
      "type": "Feature",
      "geometry": {
        "type": "Point",
        "coordinates": [
          135.3721856,
          34.4312527
        ]
      },
      "properties": {
        "id": "6be30d42-e021-40e1-9a28-1c1793bd0a78",
        "name": "麻生中コスモスタウン第２児童遊園フェンス",
        "address": "麻生中３７０",
        "city": "貝塚市",
        "number": "42",
        "status": "not_yet"
      }
    },
    {
      "type": "Feature",
      "geometry": {
        "type": "Point",
        "coordinates": [
          135.3623172,
          34.4050615
        ]
      },
      "properties": {
        "id": "6be76261-3654-4323-b431-ffcbcc8796cd",
        "name": null,
        "address": "希望が丘三丁目",
        "city": "熊取町",
        "number": "9-4",
        "status": "not_yet"
      }
    },
    {
      "type": "Feature",
      "geometry": {
        "type": "Point",
        "coordinates": [
          135.2923472,
          34.3588505
        ]
      },
      "properties": {
        "id": "6bf1c073-c244-4836-b4ae-8b07f096643f",
        "name": "バス停　市場青年会場前　（市場老人集会場）",
        "address": "信達市場",
        "city": "泉南市",
        "number": "21",
        "status": "not_yet"
      }
    },
    {
      "type": "Feature",
      "geometry": {
        "type": "Point",
        "coordinates": [
          135.6080458,
          34.8325601
        ]
      },
      "properties": {
        "id": "6bfe2dc1-110b-4f80-9c2c-2c2604e83e0a",
        "name": "第三中学校正門",
        "address": "芝生町2丁目49番",
        "city": "高槻市",
        "number": "19-1",
        "status": "done"
      }
    },
    {
      "type": "Feature",
      "geometry": {
        "type": "Point",
        "coordinates": [
          135.4137181,
          34.5108643
        ]
      },
      "properties": {
        "id": "6bff7ce7-c1fc-46d4-9843-e3fdf24e261c",
        "name": "松之浜自治会館(旧長寿園)東側F",
        "address": "松之浜町1-10-2",
        "city": "泉大津市",
        "number": "9-4",
        "status": "not_yet"
      }
    },
    {
      "type": "Feature",
      "geometry": {
        "type": "Point",
        "coordinates": [
          135.1501128,
          34.2913464
        ]
      },
      "properties": {
        "id": "6c0a906b-26f0-4609-b989-2aec26baf262",
        "name": "孝子駐在所前町道ガードレール",
        "address": "孝子1547番地の2",
        "city": "岬町",
        "number": "6-3",
        "status": "done"
      }
    },
    {
      "type": "Feature",
      "geometry": {
        "type": "Point",
        "coordinates": [
          135.1609304,
          34.3243486
        ]
      },
      "properties": {
        "id": "6c0e9da0-882f-46a8-946b-1c2047e1f40f",
        "name": "みさき公園駅前（公園側）仮設フェンス",
        "address": "淡輪5832番地の1",
        "city": "岬町",
        "number": "11-5",
        "status": "not_yet"
      }
    },
    {
      "type": "Feature",
      "geometry": {
        "type": "Point",
        "coordinates": [
          135.544525,
          34.742062
        ]
      },
      "properties": {
        "id": "6c119761-2993-4efe-86b7-d0de760b76ed",
        "name": "豊里小学校正門左側鉄柵",
        "address": "東淀川区豊里5丁目14番60号",
        "city": "大阪市",
        "number": "1009",
        "status": "done"
      }
    },
    {
      "type": "Feature",
      "geometry": {
        "type": "Point",
        "coordinates": [
          135.5405269,
          34.5185875
        ]
      },
      "properties": {
        "id": "6c12db5a-eebb-474a-98ca-001d5f381b38",
        "name": "西野公園北側",
        "address": "東区西野530",
        "city": "堺市",
        "number": "1",
        "status": "done"
      }
    },
    {
      "type": "Feature",
      "geometry": {
        "type": "Point",
        "coordinates": [
          135.543594,
          34.644051
        ]
      },
      "properties": {
        "id": "6c136c55-c6f5-4093-b8d3-54d7e16de0f5",
        "name": "大阪市立田島南小中一貫校北側鉄柵",
        "address": "生野区田 島5丁目23番7号",
        "city": "大阪市",
        "number": "1451",
        "status": "done"
      }
    },
    {
      "type": "Feature",
      "geometry": {
        "type": "Point",
        "coordinates": [
          135.4576949,
          34.4257438
        ]
      },
      "properties": {
        "id": "6c171a42-cf96-44eb-ba66-0ae699a2e70e",
        "name": "歩道防護柵鉄柵",
        "address": "久井町133先",
        "city": "和泉市",
        "number": "27-4",
        "status": "done"
      }
    },
    {
      "type": "Feature",
      "geometry": {
        "type": "Point",
        "coordinates": [
          135.4683487,
          34.567023
        ]
      },
      "properties": {
        "id": "6c19c828-702b-4441-ba48-a0975d78a6e2",
        "name": "大仙西町団地D棟東側植込",
        "address": "堺区大仙西町1丁",
        "city": "堺市",
        "number": "1",
        "status": "done"
      }
    },
    {
      "type": "Feature",
      "geometry": {
        "type": "Point",
        "coordinates": [
          135.3083789,
          34.3996541
        ]
      },
      "properties": {
        "id": "6c1b6a55-0207-4ff1-bbed-5019c3c63a48",
        "name": "第２７投票区（新安松他）",
        "address": "新安松町末広公園　北側",
        "city": "泉佐野市",
        "number": "182",
        "status": "done"
      }
    },
    {
      "type": "Feature",
      "geometry": {
        "type": "Point",
        "coordinates": [
          135.6060249,
          34.5446679
        ]
      },
      "properties": {
        "id": "6c1c2c8e-1214-4edf-84e0-823f68fa18a7",
        "name": "大乗川下西浦橋東詰北側フェンス",
        "address": "西浦２丁目",
        "city": "羽曳野市",
        "number": "239",
        "status": "done"
      }
    },
    {
      "type": "Feature",
      "geometry": {
        "type": "Point",
        "coordinates": [
          135.548528,
          34.5160686
        ]
      },
      "properties": {
        "id": "6c27b4c4-8fad-4d23-9e53-facbee0319bf",
        "name": "狭山駅 西側",
        "address": "池尻中1丁目1-1先",
        "city": "大阪狭山市",
        "number": "36",
        "status": "done"
      }
    },
    {
      "type": "Feature",
      "geometry": {
        "type": "Point",
        "coordinates": [
          135.434685,
          34.711636
        ]
      },
      "properties": {
        "id": "6c2c48a2-6064-483f-b801-13f2223e0793",
        "name": "佃公園北側",
        "address": "西淀川区佃５丁目７番",
        "city": "大阪市",
        "number": "1762",
        "status": "done"
      }
    },
    {
      "type": "Feature",
      "geometry": {
        "type": "Point",
        "coordinates": [
          135.498154,
          34.64846
        ]
      },
      "properties": {
        "id": "6c32a261-d869-4d8d-9808-5825493e69f2",
        "name": "いまみや小中一貫校 正門横",
        "address": "西成区花園北1丁目8番32号",
        "city": "大阪市",
        "number": "1650",
        "status": "done"
      }
    },
    {
      "type": "Feature",
      "geometry": {
        "type": "Point",
        "coordinates": [
          135.499847,
          34.667591
        ]
      },
      "properties": {
        "id": "6c4076b0-5a3a-447e-b773-f4fbc409d66c",
        "name": "御堂筋難波交差点北西角 道路植樹帯",
        "address": "中央区難波２丁目２番",
        "city": "大阪市",
        "number": "73",
        "status": "done"
      }
    },
    {
      "type": "Feature",
      "geometry": {
        "type": "Point",
        "coordinates": [
          135.3170168,
          34.4135157
        ]
      },
      "properties": {
        "id": "6c45c98c-6f20-45fa-92d7-f0c3b17fc1d7",
        "name": "第３１投票区（本町他）",
        "address": "栄町上善寺",
        "city": "泉佐野市",
        "number": "208",
        "status": "done"
      }
    },
    {
      "type": "Feature",
      "geometry": {
        "type": "Point",
        "coordinates": [
          135.521667,
          34.721714
        ]
      },
      "properties": {
        "id": "6c4c1e3e-97fe-4f78-ae1c-e2f945e4a50e",
        "name": "淀川小学校東側通用門横",
        "address": "都島区毛馬町3-5-39",
        "city": "大阪市",
        "number": "1876",
        "status": "done"
      }
    },
    {
      "type": "Feature",
      "geometry": {
        "type": "Point",
        "coordinates": [
          135.6512182,
          34.8189161
        ]
      },
      "properties": {
        "id": "6c4c267f-0975-4ff2-a045-079f0cf24f35",
        "name": "滝本佛光堂裏広場",
        "address": "西禁野１丁目1",
        "city": "枚方市",
        "number": "28-1",
        "status": "done"
      }
    },
    {
      "type": "Feature",
      "geometry": {
        "type": "Point",
        "coordinates": [
          135.4980904,
          34.5525821
        ]
      },
      "properties": {
        "id": "6c514cf5-aff6-4964-a61b-db29ac162134",
        "name": "城の山公園北側",
        "address": "北区百舌鳥梅町1丁",
        "city": "堺市",
        "number": "1",
        "status": "done"
      }
    },
    {
      "type": "Feature",
      "geometry": {
        "type": "Point",
        "coordinates": [
          135.5201235,
          34.5012901
        ]
      },
      "properties": {
        "id": "6c5289b7-248e-4d43-9908-bc2c06006eff",
        "name": "三原台小学校西側",
        "address": "南区三原台3丁2-1",
        "city": "堺市",
        "number": "1",
        "status": "done"
      }
    },
    {
      "type": "Feature",
      "geometry": {
        "type": "Point",
        "coordinates": [
          135.238983,
          34.342182
        ]
      },
      "properties": {
        "id": "6c55444b-1ae6-43ef-bd3f-329fd1b7e28e",
        "name": "光陽台3丁目市道ガードレール",
        "address": "光陽台3-21",
        "city": "阪南市",
        "number": "16-3",
        "status": "done"
      }
    },
    {
      "type": "Feature",
      "geometry": {
        "type": "Point",
        "coordinates": [
          135.4689375,
          34.563399
        ]
      },
      "properties": {
        "id": "6c5f8ba7-7f90-42d6-b929-1a7c6f087979",
        "name": "協和町中公園東側",
        "address": "堺区協和町2丁",
        "city": "堺市",
        "number": "2",
        "status": "done"
      }
    },
    {
      "type": "Feature",
      "geometry": {
        "type": "Point",
        "coordinates": [
          135.5816738,
          34.5718304
        ]
      },
      "properties": {
        "id": "6c6d87ab-dddb-4f84-a1b2-d288c290aa4e",
        "name": "いずみの里南島泉会館入口西側フェンス",
        "address": "島泉1丁目23番31号",
        "city": "羽曳野市",
        "number": "38",
        "status": "done"
      }
    },
    {
      "type": "Feature",
      "geometry": {
        "type": "Point",
        "coordinates": [
          135.60300216,
          34.45005959
        ]
      },
      "properties": {
        "id": "6c76a85e-a2e2-4fa9-b569-cb048c5191bb",
        "name": "masked",
        "address": "甘南備22-2",
        "city": "富田林市",
        "number": "127",
        "status": "not_yet"
      }
    },
    {
      "type": "Feature",
      "geometry": {
        "type": "Point",
        "coordinates": [
          135.42532397,
          34.63356376
        ]
      },
      "properties": {
        "id": "6c7afdbb-bbc0-4565-be8f-a5d87e700d70",
        "name": "南港太陽のまち公園東側",
        "address": "住之江区南港中4丁目5番",
        "city": "大阪市",
        "number": "136",
        "status": "done"
      }
    },
    {
      "type": "Feature",
      "geometry": {
        "type": "Point",
        "coordinates": [
          135.6058773,
          34.7245856
        ]
      },
      "properties": {
        "id": "6c7e45f3-418c-43ad-8f52-db345af3e23e",
        "name": "守口市門真市消防組合南側敷地フェンス",
        "address": "千石西町１０番",
        "city": "門真市",
        "number": "227",
        "status": "done"
      }
    },
    {
      "type": "Feature",
      "geometry": {
        "type": "Point",
        "coordinates": [
          135.49408,
          34.737862
        ]
      },
      "properties": {
        "id": "6c81c965-c79c-451c-b922-380ec45db934",
        "name": "北中島公園北側鉄柵",
        "address": "淀川区宮原５丁目７番",
        "city": "大阪市",
        "number": "1319",
        "status": "done"
      }
    },
    {
      "type": "Feature",
      "geometry": {
        "type": "Point",
        "coordinates": [
          135.5680896,
          34.4193081
        ]
      },
      "properties": {
        "id": "6c8b5228-af16-428d-91a8-20a7066da618",
        "name": "読売新聞北側防護柵",
        "address": "北青葉台４３−１５",
        "city": "河内長野市",
        "number": "25-1",
        "status": "not_yet"
      }
    },
    {
      "type": "Feature",
      "geometry": {
        "type": "Point",
        "coordinates": [
          135.7128007,
          34.8282656
        ]
      },
      "properties": {
        "id": "6c8d9f51-9673-4d42-948c-ab42f66d3f3c",
        "name": "長尾元町６丁目小規模公園310",
        "address": "長尾元町６丁目18",
        "city": "枚方市",
        "number": "58-1",
        "status": "done"
      }
    },
    {
      "type": "Feature",
      "geometry": {
        "type": "Point",
        "coordinates": [
          135.5700281,
          34.4570002
        ]
      },
      "properties": {
        "id": "6c9f9834-f551-430c-b8e3-6319a512f27a",
        "name": "古野区会館前階段下",
        "address": "古野町５−３３",
        "city": "河内長野市",
        "number": "2-4",
        "status": "not_yet"
      }
    },
    {
      "type": "Feature",
      "geometry": {
        "type": "Point",
        "coordinates": [
          135.5476034,
          34.5329706
        ]
      },
      "properties": {
        "id": "6ca7e0fd-4504-437a-9ee7-34a2fea87273",
        "name": "南河原橋東詰",
        "address": "美原区南余部107付近",
        "city": "堺市",
        "number": "7",
        "status": "not_yet"
      }
    },
    {
      "type": "Feature",
      "geometry": {
        "type": "Point",
        "coordinates": [
          135.4993423,
          34.8423811
        ]
      },
      "properties": {
        "id": "6caa40fe-5d56-40aa-b62b-efd740f54a80",
        "name": "今池遊園 南側",
        "address": "外院３丁目３番先",
        "city": "箕面市",
        "number": "197",
        "status": "done"
      }
    },
    {
      "type": "Feature",
      "geometry": {
        "type": "Point",
        "coordinates": [
          135.5806028,
          34.6422524
        ]
      },
      "properties": {
        "id": "6cad8357-922c-4fff-b8e4-167d5549d5e3",
        "name": "金岡中学校 北側",
        "address": "金岡1丁目23番9号",
        "city": "東大阪市",
        "number": "326-4",
        "status": "done"
      }
    },
    {
      "type": "Feature",
      "geometry": {
        "type": "Point",
        "coordinates": [
          135.2463157,
          34.3584945
        ]
      },
      "properties": {
        "id": "6cb7b09b-11eb-4afc-b1e9-aaa49dc32bf4",
        "name": "下出市道尾崎 白熊線ガードパイプ(西村向かい)",
        "address": "下出684",
        "city": "阪南市",
        "number": "9-5",
        "status": "done"
      }
    },
    {
      "type": "Feature",
      "geometry": {
        "type": "Point",
        "coordinates": [
          135.6082446,
          34.761303
        ]
      },
      "properties": {
        "id": "6cc35209-4f42-4ddc-ad90-f9e62feebc9c",
        "name": "市立第九中学校裏門横",
        "address": "高柳４丁目１６−１６",
        "city": "寝屋川市",
        "number": "302",
        "status": "done"
      }
    },
    {
      "type": "Feature",
      "geometry": {
        "type": "Point",
        "coordinates": [
          135.5281457,
          34.8515543
        ]
      },
      "properties": {
        "id": "6cc42399-8107-43d7-b2d2-9481ce4fce7e",
        "name": "あさぎ里山公園内池の西側木柵",
        "address": "彩都あさぎ五丁目",
        "city": "茨木市",
        "number": "60",
        "status": "done"
      }
    },
    {
      "type": "Feature",
      "geometry": {
        "type": "Point",
        "coordinates": [
          135.6473397,
          34.7889525
        ]
      },
      "properties": {
        "id": "6cc643e4-7f36-4713-9403-d4ebc7bb16e3",
        "name": "公団D９棟近辺",
        "address": "香里ヶ丘９丁目15",
        "city": "枚方市",
        "number": "17-4",
        "status": "done"
      }
    },
    {
      "type": "Feature",
      "geometry": {
        "type": "Point",
        "coordinates": [
          135.495636,
          34.642513
        ]
      },
      "properties": {
        "id": "6ccaaa61-2bd5-4697-8657-0437317bd3b0",
        "name": "弘治南公園 東側柵",
        "address": "西成区梅南1丁目2番",
        "city": "大阪市",
        "number": "1644",
        "status": "done"
      }
    },
    {
      "type": "Feature",
      "geometry": {
        "type": "Point",
        "coordinates": [
          135.4528964,
          34.8267207
        ]
      },
      "properties": {
        "id": "6cd0f9cc-e6e8-432f-b41f-d323102a5a87",
        "name": "新稲西公園 西側",
        "address": "新稲６丁目２１番内",
        "city": "箕面市",
        "number": "44",
        "status": "done"
      }
    },
    {
      "type": "Feature",
      "geometry": {
        "type": "Point",
        "coordinates": [
          135.3610235,
          34.4422509
        ]
      },
      "properties": {
        "id": "6cd454f8-72d1-43a7-bac1-69f7f350bb62",
        "name": "コインパーク（駐車場）フェンス大阪側",
        "address": "海塚２丁目７６－１",
        "city": "貝塚市",
        "number": "151",
        "status": "done"
      }
    },
    {
      "type": "Feature",
      "geometry": {
        "type": "Point",
        "coordinates": [
          135.5457986,
          34.5200256
        ]
      },
      "properties": {
        "id": "6cd5ec0f-3762-46c0-b42f-cedd9dd8b343",
        "name": "南野田くるまゆり公園北側",
        "address": "東区南野田335-1",
        "city": "堺市",
        "number": "7",
        "status": "done"
      }
    },
    {
      "type": "Feature",
      "geometry": {
        "type": "Point",
        "coordinates": [
          135.3389,
          34.40453
        ]
      },
      "properties": {
        "id": "6cd670a6-6004-48b9-9931-094e09eab614",
        "name": "第３５投票区（松風台他）",
        "address": "泉陽ヶ丘泉陽ヶ丘２号線",
        "city": "泉佐野市",
        "number": "227",
        "status": "error_wrong_place"
      }
    },
    {
      "type": "Feature",
      "geometry": {
        "type": "Point",
        "coordinates": [
          135.6399897,
          34.4985772
        ]
      },
      "properties": {
        "id": "6cdbceb2-82bb-43e0-90ca-21641600b660",
        "name": "大宝公園西側植込み",
        "address": "大宝5-9-1",
        "city": "河南町",
        "number": "39",
        "status": "done"
      }
    },
    {
      "type": "Feature",
      "geometry": {
        "type": "Point",
        "coordinates": [
          135.6605281,
          34.8430579
        ]
      },
      "properties": {
        "id": "6ce5dfa1-ed0b-4959-b9d7-34f6b1cc1465",
        "name": "西牧野小学校正門",
        "address": "西牧野２丁目1",
        "city": "枚方市",
        "number": "40-3",
        "status": "done"
      }
    },
    {
      "type": "Feature",
      "geometry": {
        "type": "Point",
        "coordinates": [
          135.5371365,
          34.4792864
        ]
      },
      "properties": {
        "id": "6ce5e922-fcb6-4e69-8a43-07e9a8b70b80",
        "name": "大野台第８公園 東側",
        "address": "大野台6丁目20先",
        "city": "大阪狭山市",
        "number": "88",
        "status": "done"
      }
    },
    {
      "type": "Feature",
      "geometry": {
        "type": "Point",
        "coordinates": [
          135.5847585,
          34.5687908
        ]
      },
      "properties": {
        "id": "6ceae45f-5b9d-4613-8fac-5706086e0f72",
        "name": "大津神社東向側道路ガードパイプ",
        "address": "高鷲2丁目1番街区",
        "city": "羽曳野市",
        "number": "46",
        "status": "not_yet"
      }
    },
    {
      "type": "Feature",
      "geometry": {
        "type": "Point",
        "coordinates": [
          135.4156786,
          34.4867308
        ]
      },
      "properties": {
        "id": "6cf15990-40bd-411c-a702-ca1b80f64b3f",
        "name": "小寺池南側ガードレール",
        "address": "板原町2-13",
        "city": "泉大津市",
        "number": "13-4",
        "status": "done"
      }
    },
    {
      "type": "Feature",
      "geometry": {
        "type": "Point",
        "coordinates": [
          135.5601373,
          34.7236241
        ]
      },
      "properties": {
        "id": "6cf164cb-9bee-4280-93ff-6870946801ac",
        "name": "清水中公園西側植え込み",
        "address": "旭区清水 ３丁目３１番",
        "city": "大阪市",
        "number": "703",
        "status": "done"
      }
    },
    {
      "type": "Feature",
      "geometry": {
        "type": "Point",
        "coordinates": [
          135.291199,
          34.373262
        ]
      },
      "properties": {
        "id": "6cf7d8bf-d157-46c6-b8ac-3810c4e9b2a0",
        "name": "地域福祉創造協会・ウインク（ＮＰＯ法人）付近",
        "address": "信達大苗代２４９",
        "city": "泉南市",
        "number": "134",
        "status": "not_yet"
      }
    },
    {
      "type": "Feature",
      "geometry": {
        "type": "Point",
        "coordinates": [
          135.5701668,
          34.8154886
        ]
      },
      "properties": {
        "id": "6cfaf14b-b916-4e56-a89a-0de2b781ac7e",
        "name": "大手町月極駐車場南側鉄柵",
        "address": "大手町8",
        "city": "茨木市",
        "number": "3",
        "status": "done"
      }
    },
    {
      "type": "Feature",
      "geometry": {
        "type": "Point",
        "coordinates": [
          135.504865,
          34.758324
        ]
      },
      "properties": {
        "id": "6d01ab29-6605-40bd-9093-41e1a9facd82",
        "name": "豊津中学校東面",
        "address": "垂水町３丁目３２−５０",
        "city": "吹田市",
        "number": "141-6",
        "status": "done"
      }
    },
    {
      "type": "Feature",
      "geometry": {
        "type": "Point",
        "coordinates": [
          135.61561682,
          34.63461491
        ]
      },
      "properties": {
        "id": "6d082f33-3d3b-410d-a09e-570001f926bc",
        "name": "堤町１丁目公園（南側）",
        "address": "堤町１丁目地内",
        "city": "八尾市",
        "number": "18-02",
        "status": "done"
      }
    },
    {
      "type": "Feature",
      "geometry": {
        "type": "Point",
        "coordinates": [
          135.4028682,
          34.4320913
        ]
      },
      "properties": {
        "id": "6d0a73e3-e6ed-4876-a714-29a9ef2bc229",
        "name": "masked",
        "address": "八田町260",
        "city": "岸和田市",
        "number": "109",
        "status": "not_yet"
      }
    },
    {
      "type": "Feature",
      "geometry": {
        "type": "Point",
        "coordinates": [
          135.499452,
          34.607916
        ]
      },
      "properties": {
        "id": "6d0ca674-0c7a-4ff5-81b6-1d30297c4075",
        "name": "市立三稜中学校 西門北側",
        "address": "住吉区千躰１丁目５番２２号",
        "city": "大阪市",
        "number": "180",
        "status": "done"
      }
    },
    {
      "type": "Feature",
      "geometry": {
        "type": "Point",
        "coordinates": [
          135.6153259,
          34.7508881
        ]
      },
      "properties": {
        "id": "6d1dc808-d210-4be6-8573-d839852d7905",
        "name": "masked",
        "address": "下木田町２",
        "city": "寝屋川市",
        "number": "154",
        "status": "done"
      }
    },
    {
      "type": "Feature",
      "geometry": {
        "type": "Point",
        "coordinates": [
          135.4489329,
          34.5123741
        ]
      },
      "properties": {
        "id": "6d249513-a2b2-49b9-817f-04d79dd3ef25",
        "name": "公園植え込み(府営北信太住宅7棟西側)杭打ち",
        "address": "上町643",
        "city": "和泉市",
        "number": "40-7",
        "status": "not_yet"
      }
    },
    {
      "type": "Feature",
      "geometry": {
        "type": "Point",
        "coordinates": [
          135.5947951,
          34.5418763
        ]
      },
      "properties": {
        "id": "6d27b0cc-a95d-4e92-88c9-5c5e4f5489ad",
        "name": "白鳩羽曳野幼稚園南側フェンス",
        "address": "羽曳が丘３丁目５番１４号",
        "city": "羽曳野市",
        "number": "176",
        "status": "done"
      }
    },
    {
      "type": "Feature",
      "geometry": {
        "type": "Point",
        "coordinates": [
          135.4263753,
          34.8123514
        ]
      },
      "properties": {
        "id": "6d2909ea-2e37-4b85-bda5-66825effd9ea",
        "name": "神田北会館南",
        "address": "神田１丁目２８－２７",
        "city": "池田市",
        "number": "25_1",
        "status": "done"
      }
    },
    {
      "type": "Feature",
      "geometry": {
        "type": "Point",
        "coordinates": [
          135.5577711,
          34.8156581
        ]
      },
      "properties": {
        "id": "6d2c87a2-53a6-40e6-bafb-48609b4dc759",
        "name": "中穂積南公園南側金網",
        "address": "中穂積一丁目1",
        "city": "茨木市",
        "number": "5",
        "status": "done"
      }
    },
    {
      "type": "Feature",
      "geometry": {
        "type": "Point",
        "coordinates": [
          135.5998252,
          34.7458667
        ]
      },
      "properties": {
        "id": "6d303cd7-01b6-4ed5-ae58-ad8fe9b5de94",
        "name": "府営守口藤田住宅北側",
        "address": "藤田町5丁目9番",
        "city": "守口市",
        "number": "30-2",
        "status": "done"
      }
    },
    {
      "type": "Feature",
      "geometry": {
        "type": "Point",
        "coordinates": [
          135.522693,
          34.4946776
        ]
      },
      "properties": {
        "id": "6d305279-7a65-44c3-8e04-0b08a56d3dd0",
        "name": "高蔵寺第2公園",
        "address": "南区高倉台2丁20-4",
        "city": "堺市",
        "number": "6",
        "status": "not_yet"
      }
    },
    {
      "type": "Feature",
      "geometry": {
        "type": "Point",
        "coordinates": [
          135.464154,
          34.7649662
        ]
      },
      "properties": {
        "id": "6d32a749-e081-4443-bc90-99f814924640",
        "name": "北部農協南豊島支店前駐車場金網塀",
        "address": "利倉東1丁目6番",
        "city": "豊中市",
        "number": "51_6",
        "status": "done"
      }
    },
    {
      "type": "Feature",
      "geometry": {
        "type": "Point",
        "coordinates": [
          135.548538,
          34.673866
        ]
      },
      "properties": {
        "id": "6d39c72f-dcb7-4d56-86a7-09894c0059bc",
        "name": "今里モータープール西側フェンス",
        "address": "東成区大今里１丁目１１番",
        "city": "大阪市",
        "number": "912",
        "status": "not_yet"
      }
    },
    {
      "type": "Feature",
      "geometry": {
        "type": "Point",
        "coordinates": [
          135.24353,
          34.333256
        ]
      },
      "properties": {
        "id": "6d3f57d7-4cd7-4cc8-a680-0a33007ce33e",
        "name": "下川橋北側ガードレール",
        "address": "桑畑399先",
        "city": "阪南市",
        "number": "6-3",
        "status": "not_yet"
      }
    },
    {
      "type": "Feature",
      "geometry": {
        "type": "Point",
        "coordinates": [
          135.3663104,
          34.4229826
        ]
      },
      "properties": {
        "id": "6d4c348f-a20d-445d-bf0a-9369b590ccda",
        "name": "masked",
        "address": "橋本地内",
        "city": "貝塚市",
        "number": "103",
        "status": "not_yet"
      }
    },
    {
      "type": "Feature",
      "geometry": {
        "type": "Point",
        "coordinates": [
          135.534271,
          34.64436
        ]
      },
      "properties": {
        "id": "6d74f638-c0a1-4c6b-abca-5407d3c5ac01",
        "name": "成恩寺大阪別院北側ブロック塀",
        "address": "生野区林 寺3丁目10番16号",
        "city": "大阪市",
        "number": "1447",
        "status": "done"
      }
    },
    {
      "type": "Feature",
      "geometry": {
        "type": "Point",
        "coordinates": [
          135.3851135,
          34.4004612
        ]
      },
      "properties": {
        "id": "6d782cd6-b038-4850-988e-43689372d25a",
        "name": "水間郵便局向かい側フェンス",
        "address": "水間７５４－１",
        "city": "貝塚市",
        "number": "123",
        "status": "not_yet"
      }
    },
    {
      "type": "Feature",
      "geometry": {
        "type": "Point",
        "coordinates": [
          135.4482178,
          34.5382524
        ]
      },
      "properties": {
        "id": "6d78eaee-d2ea-4382-b748-a4109085baa4",
        "name": "東羽衣高架下ちびっこ広場",
        "address": "東羽衣１－１４－１付近",
        "city": "高石市",
        "number": "35",
        "status": "done"
      }
    },
    {
      "type": "Feature",
      "geometry": {
        "type": "Point",
        "coordinates": [
          135.4521141,
          34.4744775
        ]
      },
      "properties": {
        "id": "6d7d2d57-7d73-44b2-99da-cdafc1f7664c",
        "name": "道路柵（和泉文化会館駐車場前）鉄柵",
        "address": "阪本町376先",
        "city": "和泉市",
        "number": "16-2",
        "status": "done"
      }
    },
    {
      "type": "Feature",
      "geometry": {
        "type": "Point",
        "coordinates": [
          135.3984553,
          34.4460123
        ]
      },
      "properties": {
        "id": "6d891706-6901-40b8-9bb5-d407a571f941",
        "name": "山下町公民館前フェンス",
        "address": "上松町441-2",
        "city": "岸和田市",
        "number": "307",
        "status": "not_yet"
      }
    },
    {
      "type": "Feature",
      "geometry": {
        "type": "Point",
        "coordinates": [
          135.5762806,
          34.7755277
        ]
      },
      "properties": {
        "id": "6da0c6d6-5419-4379-8ff9-9d459bec26e0",
        "name": "市立新野々集会所",
        "address": "鳥飼野々三丁目20番1号",
        "city": "摂津市",
        "number": "5",
        "status": "done"
      }
    },
    {
      "type": "Feature",
      "geometry": {
        "type": "Point",
        "coordinates": [
          135.6578603,
          34.8318848
        ]
      },
      "properties": {
        "id": "6da187ce-a5aa-4412-af1a-46ac1dbe0a5c",
        "name": "渚元町ちびっこ広場25（渚の院会館横）",
        "address": "渚元町9",
        "city": "枚方市",
        "number": "72-3",
        "status": "done"
      }
    },
    {
      "type": "Feature",
      "geometry": {
        "type": "Point",
        "coordinates": [
          135.6019609,
          34.4452124
        ]
      },
      "properties": {
        "id": "6da91238-c79d-42f5-a64c-10e5c97186a3",
        "name": "甘南備集会所",
        "address": "甘南備861",
        "city": "富田林市",
        "number": "128",
        "status": "not_yet"
      }
    },
    {
      "type": "Feature",
      "geometry": {
        "type": "Point",
        "coordinates": [
          135.534139,
          34.762105
        ]
      },
      "properties": {
        "id": "6daa8ec4-938d-4a9a-a469-3c6b7745c0f1",
        "name": "済生会吹田病院前遊歩道",
        "address": "日の出町２７",
        "city": "吹田市",
        "number": "112-1",
        "status": "done"
      }
    },
    {
      "type": "Feature",
      "geometry": {
        "type": "Point",
        "coordinates": [
          135.4227422,
          34.8489862
        ]
      },
      "properties": {
        "id": "6daacc4b-a492-41b7-a8d6-d44348c01592",
        "name": "masked",
        "address": "古江町９５２",
        "city": "池田市",
        "number": "7_4",
        "status": "done"
      }
    },
    {
      "type": "Feature",
      "geometry": {
        "type": "Point",
        "coordinates": [
          135.51607658,
          34.73405864
        ]
      },
      "properties": {
        "id": "6daf801b-7114-44eb-ac08-f64767c894c8",
        "name": "水道局くにじまスポーツインドアテニス側フェンス",
        "address": "東淀川区柴島3丁目11番",
        "city": "大阪市",
        "number": "969",
        "status": "done"
      }
    },
    {
      "type": "Feature",
      "geometry": {
        "type": "Point",
        "coordinates": [
          135.5530589,
          34.785959
        ]
      },
      "properties": {
        "id": "6dbbebf5-d812-4291-91bd-b026f999f971",
        "name": "阪急電鉄踏切横道路沿",
        "address": "千里丘東四丁目2番先",
        "city": "摂津市",
        "number": "2",
        "status": "done"
      }
    },
    {
      "type": "Feature",
      "geometry": {
        "type": "Point",
        "coordinates": [
          135.5589575,
          34.7219704
        ]
      },
      "properties": {
        "id": "6dbff40f-36ee-4d65-b991-aa3cf5cdfbaf",
        "name": "清水南公園西側植え込み",
        "address": "旭区清水 ２丁目１３番",
        "city": "大阪市",
        "number": "702",
        "status": "done"
      }
    },
    {
      "type": "Feature",
      "geometry": {
        "type": "Point",
        "coordinates": [
          135.4559865,
          34.809143
        ]
      },
      "properties": {
        "id": "6dc0c83e-e3de-485f-bfed-f71d0fd4b91c",
        "name": "瀬川南公園 南側",
        "address": "瀬川４丁目１９番内",
        "city": "箕面市",
        "number": "18",
        "status": "done"
      }
    },
    {
      "type": "Feature",
      "geometry": {
        "type": "Point",
        "coordinates": [
          135.558548,
          34.670673
        ]
      },
      "properties": {
        "id": "6dcdb376-e0dd-46d0-a6dd-f93e15b17834",
        "name": "南深江公園北側（中央寄り）",
        "address": "東成区深江南２丁目９番",
        "city": "大阪市",
        "number": "923",
        "status": "done"
      }
    },
    {
      "type": "Feature",
      "geometry": {
        "type": "Point",
        "coordinates": [
          135.506454,
          34.498264
        ]
      },
      "properties": {
        "id": "6dd34ff5-ef56-4319-875e-98e5c4ff295a",
        "name": "UR1-15棟北側",
        "address": "南区竹城台2丁1",
        "city": "堺市",
        "number": "4",
        "status": "not_yet"
      }
    },
    {
      "type": "Feature",
      "geometry": {
        "type": "Point",
        "coordinates": [
          135.566055,
          34.701965
        ]
      },
      "properties": {
        "id": "6dd373cb-6e8b-477e-9b3f-432a1f31ba9a",
        "name": "グリーンビュー鶴見　北東角公園北側植え込み",
        "address": "鶴見区鶴見３丁目１３番",
        "city": "大阪市",
        "number": "1971",
        "status": "done"
      }
    },
    {
      "type": "Feature",
      "geometry": {
        "type": "Point",
        "coordinates": [
          135.5473943,
          34.7812251
        ]
      },
      "properties": {
        "id": "6dda9c73-97a5-4cb1-9bb7-b74676888199",
        "name": "大阪精密鋼業(株)摂津工場",
        "address": "庄屋一丁目7番10号",
        "city": "摂津市",
        "number": "1",
        "status": "done"
      }
    },
    {
      "type": "Feature",
      "geometry": {
        "type": "Point",
        "coordinates": [
          135.5557366,
          34.8087328
        ]
      },
      "properties": {
        "id": "6ddb61d3-8911-4ef1-a625-585cddddf70b",
        "name": "穂積小学校正門東側鉄柵",
        "address": "下穂積二丁目6-22",
        "city": "茨木市",
        "number": "35",
        "status": "done"
      }
    },
    {
      "type": "Feature",
      "geometry": {
        "type": "Point",
        "coordinates": [
          135.6308336,
          34.6528991
        ]
      },
      "properties": {
        "id": "6dde7c4e-d54b-4938-9845-40cd61f3bcbe",
        "name": "池島学園(前期) 南側",
        "address": "池島町3丁目6番30号",
        "city": "東大阪市",
        "number": "121-4",
        "status": "done"
      }
    },
    {
      "type": "Feature",
      "geometry": {
        "type": "Point",
        "coordinates": [
          135.458725,
          34.667591
        ]
      },
      "properties": {
        "id": "6de510e7-0efe-40f5-8caa-e0b92ab83d36",
        "name": "（旧）港区民センター 南側",
        "address": "港区弁天２丁目１番５号",
        "city": "大阪市",
        "number": "1345",
        "status": "done"
      }
    },
    {
      "type": "Feature",
      "geometry": {
        "type": "Point",
        "coordinates": [
          135.6391329,
          34.7665403
        ]
      },
      "properties": {
        "id": "6dee0b17-632a-4b4c-9b73-1c9b1f990242",
        "name": "打上川治水緑地北東入口前　寝屋川沿い遊歩道",
        "address": "太秦桜が丘２５",
        "city": "寝屋川市",
        "number": "91",
        "status": "done"
      }
    },
    {
      "type": "Feature",
      "geometry": {
        "type": "Point",
        "coordinates": [
          135.5949547,
          34.7440499
        ]
      },
      "properties": {
        "id": "6def2696-6705-453e-b54d-26cc26cdbe76",
        "name": "保健福祉センター建物北側植込み",
        "address": "御堂町14番",
        "city": "門真市",
        "number": "80",
        "status": "done"
      }
    },
    {
      "type": "Feature",
      "geometry": {
        "type": "Point",
        "coordinates": [
          135.60791536,
          34.62204599
        ]
      },
      "properties": {
        "id": "6df3643a-047a-445c-a965-06e36225a194",
        "name": "南本町第2公園",
        "address": "南本町４丁目６番地内",
        "city": "八尾市",
        "number": "43-06",
        "status": "done"
      }
    },
    {
      "type": "Feature",
      "geometry": {
        "type": "Point",
        "coordinates": [
          135.647351,
          34.7634354
        ]
      },
      "properties": {
        "id": "6df3eda5-ad5b-4819-bb2c-73a22aafb1c7",
        "name": "市立クリーンセンター西側",
        "address": "寝屋南１丁目２－１",
        "city": "寝屋川市",
        "number": "335",
        "status": "done"
      }
    },
    {
      "type": "Feature",
      "geometry": {
        "type": "Point",
        "coordinates": [
          135.525787,
          34.745983
        ]
      },
      "properties": {
        "id": "6dfc2030-e564-4225-b8d6-df701c863a2a",
        "name": "NTT西日本市制側鉄柵除草下フェンス",
        "address": "東淀川区下新庄6丁目6番",
        "city": "大阪市",
        "number": "992",
        "status": "done"
      }
    },
    {
      "type": "Feature",
      "geometry": {
        "type": "Point",
        "coordinates": [
          135.61748544,
          34.70488087
        ]
      },
      "properties": {
        "id": "6e094a86-6c98-4911-a55e-b8140214eaa8",
        "name": "イズミヤ東南入口ガードパイプ",
        "address": "イズミヤ東南入口ガードパイプ",
        "city": "大東市",
        "number": "21-7",
        "status": "done"
      }
    },
    {
      "type": "Feature",
      "geometry": {
        "type": "Point",
        "coordinates": [
          135.6394646,
          34.6874881
        ]
      },
      "properties": {
        "id": "6e15d9c9-e7f1-440b-a1dc-be8f6bc4c227",
        "name": "芝水防倉庫 北側",
        "address": "中石切町3丁目8番",
        "city": "東大阪市",
        "number": "106-5",
        "status": "done"
      }
    },
    {
      "type": "Feature",
      "geometry": {
        "type": "Point",
        "coordinates": [
          135.51384,
          34.684822
        ]
      },
      "properties": {
        "id": "6e17827e-4f40-4274-921e-6d6c985d6945",
        "name": "中大江公園 東側南寄りコンクリート擁護壁鉄柵",
        "address": "中央区南新町2丁目1番",
        "city": "大阪市",
        "number": "18",
        "status": "done"
      }
    },
    {
      "type": "Feature",
      "geometry": {
        "type": "Point",
        "coordinates": [
          135.530875,
          34.761538
        ]
      },
      "properties": {
        "id": "6e19d4e2-0ebe-489f-a1fc-cfa9b0f9a146",
        "name": "ひまわり遊園",
        "address": "高城町１９",
        "city": "吹田市",
        "number": "109-1",
        "status": "done"
      }
    },
    {
      "type": "Feature",
      "geometry": {
        "type": "Point",
        "coordinates": [
          135.5327146,
          34.832145
        ]
      },
      "properties": {
        "id": "6e28c1a2-946e-464a-98dd-87c604301d8b",
        "name": "豊川いのち愛ゆめセンター正門東側歩道鉄柵",
        "address": "豊川四丁目4",
        "city": "茨木市",
        "number": "33",
        "status": "done"
      }
    },
    {
      "type": "Feature",
      "geometry": {
        "type": "Point",
        "coordinates": [
          135.404512,
          34.4288691
        ]
      },
      "properties": {
        "id": "6e33d9f7-531a-4028-88fc-d6140f681d63",
        "name": "府道岸和田港塔原線真上町下りバス停横歩道",
        "address": "真上町209－2",
        "city": "岸和田市",
        "number": "111",
        "status": "not_yet"
      }
    },
    {
      "type": "Feature",
      "geometry": {
        "type": "Point",
        "coordinates": [
          135.61053169,
          34.62106152
        ]
      },
      "properties": {
        "id": "6e35a22d-9fe0-4401-9feb-8caa8298482f",
        "name": "青山第2公園",
        "address": "山町４丁目６番９号",
        "city": "八尾市",
        "number": "21-01",
        "status": "not_yet"
      }
    },
    {
      "type": "Feature",
      "geometry": {
        "type": "Point",
        "coordinates": [
          135.49556,
          34.681053
        ]
      },
      "properties": {
        "id": "6e3f42c4-811d-428d-9e7e-0a44967b38f4",
        "name": "新町浜公園 南側",
        "address": "西区阿波座１－８",
        "city": "大阪市",
        "number": "1579",
        "status": "done"
      }
    },
    {
      "type": "Feature",
      "geometry": {
        "type": "Point",
        "coordinates": [
          135.2744045,
          34.3675266
        ]
      },
      "properties": {
        "id": "6e416f82-6d7b-4652-904e-7537435cb75d",
        "name": "大阪広域水道企業団 泉南水道センター",
        "address": "樽井７３７",
        "city": "泉南市",
        "number": "84",
        "status": "done"
      }
    },
    {
      "type": "Feature",
      "geometry": {
        "type": "Point",
        "coordinates": [
          135.5886752,
          34.4272434
        ]
      },
      "properties": {
        "id": "6e4286f1-4f11-470b-9861-dd032df003fb",
        "name": "美加の台第二公園前防護柵",
        "address": "美加の台３丁目２４−５",
        "city": "河内長野市",
        "number": "36-2",
        "status": "not_yet"
      }
    },
    {
      "type": "Feature",
      "geometry": {
        "type": "Point",
        "coordinates": [
          135.5887193,
          34.8075606
        ]
      },
      "properties": {
        "id": "6e44ef3e-c89d-47fe-a113-18f589c5bc3e",
        "name": "NTT星見ビル北側フェンス",
        "address": "星見町19-11",
        "city": "茨木市",
        "number": "21",
        "status": "done"
      }
    },
    {
      "type": "Feature",
      "geometry": {
        "type": "Point",
        "coordinates": [
          135.4203895,
          34.4166779
        ]
      },
      "properties": {
        "id": "6e4511cc-e069-4345-b7df-dbb7be42227a",
        "name": "北阪町八幡池側面",
        "address": "北阪町555",
        "city": "岸和田市",
        "number": "115",
        "status": "not_yet"
      }
    },
    {
      "type": "Feature",
      "geometry": {
        "type": "Point",
        "coordinates": [
          135.4829135,
          34.524592
        ]
      },
      "properties": {
        "id": "6e471704-9408-4a46-a5d8-70c0cbe596df",
        "name": "八田北町会ミニスポーツ広場",
        "address": "中区八田北町853",
        "city": "堺市",
        "number": "6",
        "status": "not_yet"
      }
    },
    {
      "type": "Feature",
      "geometry": {
        "type": "Point",
        "coordinates": [
          135.4626659,
          34.8178056
        ]
      },
      "properties": {
        "id": "6e48a45c-347c-4c21-aefd-89f6f445c0ea",
        "name": "大阪北部農協本店箕面支店西側駐車場フェンス",
        "address": "桜井２丁目８番８号",
        "city": "箕面市",
        "number": "54",
        "status": "done"
      }
    },
    {
      "type": "Feature",
      "geometry": {
        "type": "Point",
        "coordinates": [
          135.6602325,
          34.8348612
        ]
      },
      "properties": {
        "id": "6e4f0e93-dea5-4661-8387-cff06933f031",
        "name": "渚栄公園（北側）",
        "address": "渚栄町27",
        "city": "枚方市",
        "number": "38-7",
        "status": "not_yet"
      }
    },
    {
      "type": "Feature",
      "geometry": {
        "type": "Point",
        "coordinates": [
          135.635191,
          34.71598429
        ]
      },
      "properties": {
        "id": "6e4f7cf0-80cd-49f1-acc1-c370b2c93654",
        "name": "トップワールド南側歩道パイプ(道路向け)ガードレール",
        "address": "トップワールド南側歩道パイプ(道路向け)ガードレール",
        "city": "大東市",
        "number": "22-2",
        "status": "done"
      }
    },
    {
      "type": "Feature",
      "geometry": {
        "type": "Point",
        "coordinates": [
          135.5428752,
          34.8307992
        ]
      },
      "properties": {
        "id": "6e4fd612-87fb-4925-a906-565d5c695810",
        "name": "郡山小学校正門南側植栽",
        "address": "新郡山二丁目30-18",
        "city": "茨木市",
        "number": "42",
        "status": "done"
      }
    },
    {
      "type": "Feature",
      "geometry": {
        "type": "Point",
        "coordinates": [
          135.666367,
          34.873848
        ]
      },
      "properties": {
        "id": "6e5a630c-5955-4a70-8073-5eb9f496b3db",
        "name": "高浜公会堂横",
        "address": "高浜二丁目14番",
        "city": "島本町",
        "number": "9-3",
        "status": "done"
      }
    },
    {
      "type": "Feature",
      "geometry": {
        "type": "Point",
        "coordinates": [
          135.6505604,
          34.7003129
        ]
      },
      "properties": {
        "id": "6e65fb08-9999-421a-bc6b-240d0f8df5cb",
        "name": "masked",
        "address": "善根寺町1丁目3番",
        "city": "東大阪市",
        "number": "101-1",
        "status": "done"
      }
    },
    {
      "type": "Feature",
      "geometry": {
        "type": "Point",
        "coordinates": [
          135.6495968,
          34.8651752
        ]
      },
      "properties": {
        "id": "6e6b6098-4477-4c25-a6c4-c357dc1c7bbb",
        "name": "かえで公園（バス停梶原）",
        "address": "梶原1丁目5番",
        "city": "高槻市",
        "number": "26-2",
        "status": "done"
      }
    },
    {
      "type": "Feature",
      "geometry": {
        "type": "Point",
        "coordinates": [
          135.6203462,
          34.7234276
        ]
      },
      "properties": {
        "id": "6e6fce7a-0ecb-4b8e-89c1-9c6cf083d1c6",
        "name": "東江端町２号公園東側フェンス",
        "address": "東江端町４番",
        "city": "門真市",
        "number": "204",
        "status": "done"
      }
    },
    {
      "type": "Feature",
      "geometry": {
        "type": "Point",
        "coordinates": [
          135.470566,
          34.711334
        ]
      },
      "properties": {
        "id": "6e7545a5-4513-48af-a3dd-f63b9db33168",
        "name": "コ・ス・パ塚本北側駐輪場入口横フェンス",
        "address": "淀川区塚本１丁目１９番１２号",
        "city": "大阪市",
        "number": "1219",
        "status": "done"
      }
    },
    {
      "type": "Feature",
      "geometry": {
        "type": "Point",
        "coordinates": [
          135.6035154,
          34.7424145
        ]
      },
      "properties": {
        "id": "6e76b9dc-3bac-4dec-bfd8-c89d64fe5524",
        "name": "三菱UFJ銀行大和田支店跡地西側植込み",
        "address": "野里町6番",
        "city": "門真市",
        "number": "107",
        "status": "done"
      }
    },
    {
      "type": "Feature",
      "geometry": {
        "type": "Point",
        "coordinates": [
          135.61232321,
          34.64551882
        ]
      },
      "properties": {
        "id": "6e784565-4cd8-4ffc-8fa3-6490ade0b6c7",
        "name": "市営住宅21棟（東側鉄柵）",
        "address": "桂町６丁目６４番地内",
        "city": "八尾市",
        "number": "24-02",
        "status": "not_yet"
      }
    },
    {
      "type": "Feature",
      "geometry": {
        "type": "Point",
        "coordinates": [
          135.432041,
          34.905199
        ]
      },
      "properties": {
        "id": "6e7ca68f-92ae-4e16-857d-18cb5d996a00",
        "name": "新光風台5丁目1番地付近",
        "address": "新光風台保の谷",
        "city": "豊能町",
        "number": "12-1",
        "status": "done"
      }
    },
    {
      "type": "Feature",
      "geometry": {
        "type": "Point",
        "coordinates": [
          135.510361,
          34.4986132
        ]
      },
      "properties": {
        "id": "6e8470ab-968f-4c73-a0a9-c1be074050dd",
        "name": "UR2-18棟東側",
        "address": "南区竹城台1丁2",
        "city": "堺市",
        "number": "6",
        "status": "not_yet"
      }
    },
    {
      "type": "Feature",
      "geometry": {
        "type": "Point",
        "coordinates": [
          135.38126,
          34.4589839
        ]
      },
      "properties": {
        "id": "6e86f4c7-6292-4269-b3ae-e6d67e287254",
        "name": "東光小学校西側体育館入口横フェンス",
        "address": "別所町2丁目1－30",
        "city": "岸和田市",
        "number": "79",
        "status": "done"
      }
    },
    {
      "type": "Feature",
      "geometry": {
        "type": "Point",
        "coordinates": [
          135.2782722,
          34.3612605
        ]
      },
      "properties": {
        "id": "6e926f81-0fd0-4cd9-b81a-9f2d533a5b25",
        "name": "砂川みずほタウン公園裏手（ミズホ山側出口入口前丘の池付近）",
        "address": "信達牧野",
        "city": "泉南市",
        "number": "34",
        "status": "not_yet"
      }
    },
    {
      "type": "Feature",
      "geometry": {
        "type": "Point",
        "coordinates": [
          135.5623495,
          34.7461832
        ]
      },
      "properties": {
        "id": "6e9550f8-f674-4e6f-a047-ea88a68d70df",
        "name": "阪神高速道路下 八雲中央公園",
        "address": "八雲西町1丁目210番地",
        "city": "守口市",
        "number": "18-6",
        "status": "done"
      }
    },
    {
      "type": "Feature",
      "geometry": {
        "type": "Point",
        "coordinates": [
          135.517166,
          34.621983
        ]
      },
      "properties": {
        "id": "6e9baa0f-d92f-4e0c-b2f7-bba6f7d29368",
        "name": "市立長池小学校西面",
        "address": "阿倍野区長池町２０－２６",
        "city": "大阪市",
        "number": "1928",
        "status": "done"
      }
    },
    {
      "type": "Feature",
      "geometry": {
        "type": "Point",
        "coordinates": [
          135.494125,
          34.634983
        ]
      },
      "properties": {
        "id": "6e9eadc0-09da-4c4b-b361-e93ca02094a4",
        "name": "西成区役所 西側植込み",
        "address": "西成区岸里1丁目5番20号",
        "city": "大阪市",
        "number": "1681",
        "status": "done"
      }
    },
    {
      "type": "Feature",
      "geometry": {
        "type": "Point",
        "coordinates": [
          135.54241776,
          34.57690301
        ]
      },
      "properties": {
        "id": "6ebfc291-2a46-418a-9f20-f61a03371847",
        "name": "アーバンコンフォート南側道路防護柵",
        "address": "松原市東新町3丁目5番",
        "city": "松原市",
        "number": "10-3",
        "status": "done"
      }
    },
    {
      "type": "Feature",
      "geometry": {
        "type": "Point",
        "coordinates": [
          135.380724,
          34.4224735
        ]
      },
      "properties": {
        "id": "6ec17ad2-a613-43b2-9809-93276e682e2e",
        "name": "名越北交差点ファミリーマート前パイプフェンス",
        "address": "名越２１３－２",
        "city": "貝塚市",
        "number": "201",
        "status": "not_yet"
      }
    },
    {
      "type": "Feature",
      "geometry": {
        "type": "Point",
        "coordinates": [
          135.53840096,
          34.7443082
        ]
      },
      "properties": {
        "id": "6ec18719-cc01-4dad-9a51-f62c15d78a2f",
        "name": "東淀中学校東門右側鉄柵",
        "address": "東淀川区豊里6丁目25番19号",
        "city": "大阪市",
        "number": "1011",
        "status": "done"
      }
    },
    {
      "type": "Feature",
      "geometry": {
        "type": "Point",
        "coordinates": [
          135.5322724,
          34.918379
        ]
      },
      "properties": {
        "id": "6ec63f51-a965-432d-bd7b-ed6eed00b268",
        "name": "銭原バス停北側鉄柵",
        "address": "銭原",
        "city": "茨木市",
        "number": "28",
        "status": "done"
      }
    },
    {
      "type": "Feature",
      "geometry": {
        "type": "Point",
        "coordinates": [
          135.521729,
          34.64621
        ]
      },
      "properties": {
        "id": "6ec6e746-3f7d-46e9-add0-9269be727d8a",
        "name": "ＪＲ天王寺鉄道東側北面",
        "address": "阿倍野区天王寺町北１－４－２",
        "city": "大阪市",
        "number": "1880",
        "status": "done"
      }
    },
    {
      "type": "Feature",
      "geometry": {
        "type": "Point",
        "coordinates": [
          135.5844182,
          34.697302
        ]
      },
      "properties": {
        "id": "6ecc8566-0c15-4cf1-89f1-869d612c3219",
        "name": "masked",
        "address": "鴻池徳庵町7番",
        "city": "東大阪市",
        "number": "201-4",
        "status": "done"
      }
    },
    {
      "type": "Feature",
      "geometry": {
        "type": "Point",
        "coordinates": [
          135.542526,
          34.656082
        ]
      },
      "properties": {
        "id": "6eccf8a8-5eae-4d81-b27c-104827069b47",
        "name": "大阪市立大池中学校東側鉄柵",
        "address": "生野区中 川6丁目 3番 6号",
        "city": "大阪市",
        "number": "1462",
        "status": "done"
      }
    },
    {
      "type": "Feature",
      "geometry": {
        "type": "Point",
        "coordinates": [
          135.6243887,
          34.7676429
        ]
      },
      "properties": {
        "id": "6ecf22a1-d685-48ce-a6b5-d2c9fbd3678c",
        "name": "京阪電車高架下",
        "address": "平池町２－２０",
        "city": "寝屋川市",
        "number": "282",
        "status": "done"
      }
    },
    {
      "type": "Feature",
      "geometry": {
        "type": "Point",
        "coordinates": [
          135.5895807,
          34.7765388
        ]
      },
      "properties": {
        "id": "6ed0a781-ee03-4468-b422-6a53fb626601",
        "name": "市立鳥飼小学校東側",
        "address": "鳥飼下一丁目7番4号",
        "city": "摂津市",
        "number": "3",
        "status": "done"
      }
    },
    {
      "type": "Feature",
      "geometry": {
        "type": "Point",
        "coordinates": [
          135.4614828,
          34.8061338
        ]
      },
      "properties": {
        "id": "6ed1a153-3574-4939-883c-802b32bb96ae",
        "name": "第二中学校南側金網塀",
        "address": "宮山町2丁目1番1号",
        "city": "豊中市",
        "number": "55_1",
        "status": "done"
      }
    },
    {
      "type": "Feature",
      "geometry": {
        "type": "Point",
        "coordinates": [
          135.5900358,
          34.8237898
        ]
      },
      "properties": {
        "id": "6ed3508f-41ff-461f-809a-24b41834b77f",
        "name": "46棟南側",
        "address": "南総持寺町8番",
        "city": "高槻市",
        "number": "31-6",
        "status": "done"
      }
    },
    {
      "type": "Feature",
      "geometry": {
        "type": "Point",
        "coordinates": [
          135.5843994,
          34.7512519
        ]
      },
      "properties": {
        "id": "6ed4f1cb-a1c6-49b9-9573-ac2098654599",
        "name": "梶ポンプ場",
        "address": "梶町1丁目47番3号",
        "city": "守口市",
        "number": "26-6",
        "status": "done"
      }
    },
    {
      "type": "Feature",
      "geometry": {
        "type": "Point",
        "coordinates": [
          135.5431805,
          34.5345646
        ]
      },
      "properties": {
        "id": "6ed60739-fe03-44da-be0e-282801ecf803",
        "name": "府営美原南余部住宅集会所東側植込",
        "address": "美原区南余部西1丁目",
        "city": "堺市",
        "number": "4",
        "status": "done"
      }
    },
    {
      "type": "Feature",
      "geometry": {
        "type": "Point",
        "coordinates": [
          135.4174636,
          34.4952612
        ]
      },
      "properties": {
        "id": "6edf2561-83ff-4546-b310-740e2f40631e",
        "name": "穴師小学校正門横鉄柵",
        "address": "我孫子1-12-10",
        "city": "泉大津市",
        "number": "6-1",
        "status": "not_yet"
      }
    },
    {
      "type": "Feature",
      "geometry": {
        "type": "Point",
        "coordinates": [
          135.5810836,
          34.8174483
        ]
      },
      "properties": {
        "id": "6edfff12-be75-42b6-9db3-fb9b6625f469",
        "name": "イオン第3駐車場北側金網",
        "address": "中津町4",
        "city": "茨木市",
        "number": "41",
        "status": "done"
      }
    },
    {
      "type": "Feature",
      "geometry": {
        "type": "Point",
        "coordinates": [
          135.506607,
          34.703056
        ]
      },
      "properties": {
        "id": "6ee16040-9f81-41ab-afff-26f7d5c26b6b",
        "name": "天満中学校西側ブロック塀",
        "address": "北区神山町12番9号",
        "city": "大阪市",
        "number": "301",
        "status": "done"
      }
    },
    {
      "type": "Feature",
      "geometry": {
        "type": "Point",
        "coordinates": [
          135.5919292,
          34.7456512
        ]
      },
      "properties": {
        "id": "6ee71e30-3b90-4143-957e-db11f008bb04",
        "name": "石原町2号チビッコ広場南側フェンス",
        "address": "石原町28番",
        "city": "門真市",
        "number": "63",
        "status": "done"
      }
    },
    {
      "type": "Feature",
      "geometry": {
        "type": "Point",
        "coordinates": [
          135.532532,
          34.712963
        ]
      },
      "properties": {
        "id": "6efdd98c-3d8c-428d-a88d-72baaef59d72",
        "name": "高倉中学校東側",
        "address": "都島区御幸町1-1-10",
        "city": "大阪市",
        "number": "1849",
        "status": "done"
      }
    },
    {
      "type": "Feature",
      "geometry": {
        "type": "Point",
        "coordinates": [
          135.6028496,
          34.6963741
        ]
      },
      "properties": {
        "id": "6f07ae98-fe48-4244-adca-12cbb839c378",
        "name": "中鴻池住宅9号棟東側歩道柵 西側",
        "address": "中鴻池町3丁目9番",
        "city": "東大阪市",
        "number": "203-2",
        "status": "done"
      }
    },
    {
      "type": "Feature",
      "geometry": {
        "type": "Point",
        "coordinates": [
          135.291223,
          34.3721345
        ]
      },
      "properties": {
        "id": "6f090cd4-e466-49a5-87fd-7ed7fcf17e32",
        "name": "ローソン 泉南信達大苗代店　付近",
        "address": "信達大苗代224‐2",
        "city": "泉南市",
        "number": "135",
        "status": "not_yet"
      }
    },
    {
      "type": "Feature",
      "geometry": {
        "type": "Point",
        "coordinates": [
          135.4327424,
          34.4986268
        ]
      },
      "properties": {
        "id": "6f0a0bd5-9311-4d58-9c4f-eda0ef488271",
        "name": "信太山駅前ロータリー 歩道柵鉄柵",
        "address": "池上町一丁目595先",
        "city": "和泉市",
        "number": "12-7",
        "status": "done"
      }
    },
    {
      "type": "Feature",
      "geometry": {
        "type": "Point",
        "coordinates": [
          135.4745495,
          34.4476194
        ]
      },
      "properties": {
        "id": "6f0b04c8-5bf7-473e-9c66-b3b08293013e",
        "name": "南池田小学校(市道側)金網",
        "address": "納花町181",
        "city": "和泉市",
        "number": "19-5",
        "status": "not_yet"
      }
    },
    {
      "type": "Feature",
      "geometry": {
        "type": "Point",
        "coordinates": [
          135.3735155,
          34.3904923
        ]
      },
      "properties": {
        "id": "6f15af4b-f73b-451a-89fc-9af4dc341dad",
        "name": null,
        "address": "小谷南四丁目",
        "city": "熊取町",
        "number": "1-3",
        "status": "not_yet"
      }
    },
    {
      "type": "Feature",
      "geometry": {
        "type": "Point",
        "coordinates": [
          135.4327468,
          34.4997298
        ]
      },
      "properties": {
        "id": "6f1fcc1e-14d8-43d0-80c9-2fd0f2f4c8c8",
        "name": "信太山駅北1番踏切 南 道路柵金網",
        "address": "池上町一丁目6",
        "city": "和泉市",
        "number": "12-4",
        "status": "done"
      }
    },
    {
      "type": "Feature",
      "geometry": {
        "type": "Point",
        "coordinates": [
          135.493884,
          34.766064
        ]
      },
      "properties": {
        "id": "6f200c8e-c96b-482e-9ce2-052343223a46",
        "name": "江坂町公民館西面",
        "address": "江坂町３丁目１２−１",
        "city": "吹田市",
        "number": "144-1",
        "status": "done"
      }
    },
    {
      "type": "Feature",
      "geometry": {
        "type": "Point",
        "coordinates": [
          135.5771739,
          34.8329435
        ]
      },
      "properties": {
        "id": "6f24298a-a7f5-45cb-ac46-2437361a2b92",
        "name": "疣水神社西側道路鉄柵",
        "address": "三島丘一丁目4",
        "city": "茨木市",
        "number": "12",
        "status": "done"
      }
    },
    {
      "type": "Feature",
      "geometry": {
        "type": "Point",
        "coordinates": [
          135.5755441,
          34.6727151
        ]
      },
      "properties": {
        "id": "6f24cb2a-b71d-4c74-996c-c8ec2fed6f11",
        "name": "新喜多中学校 南寄 東側",
        "address": "新喜多2丁目5番32号",
        "city": "東大阪市",
        "number": "313-5",
        "status": "done"
      }
    },
    {
      "type": "Feature",
      "geometry": {
        "type": "Point",
        "coordinates": [
          135.5890474,
          34.8317834
        ]
      },
      "properties": {
        "id": "6f2919ab-5ce9-469e-957b-adb71c7ccff7",
        "name": "富寿栄団地15棟西側フェンス",
        "address": "富田町2丁目7番",
        "city": "高槻市",
        "number": "30-6",
        "status": "done"
      }
    },
    {
      "type": "Feature",
      "geometry": {
        "type": "Point",
        "coordinates": [
          135.4820393,
          34.5406201
        ]
      },
      "properties": {
        "id": "6f292604-cdcc-4fc5-9057-2bd33b97053e",
        "name": "市営上野芝団地3号棟東側",
        "address": "西区上野芝向ヶ丘町6丁9",
        "city": "堺市",
        "number": "2",
        "status": "done"
      }
    },
    {
      "type": "Feature",
      "geometry": {
        "type": "Point",
        "coordinates": [
          135.465492,
          34.8255161
        ]
      },
      "properties": {
        "id": "6f2a0f24-a18e-400b-b723-f4d359727474",
        "name": "相和電気工業（株）西側",
        "address": "桜１丁目１番６号先",
        "city": "箕面市",
        "number": "75",
        "status": "done"
      }
    },
    {
      "type": "Feature",
      "geometry": {
        "type": "Point",
        "coordinates": [
          135.5536487,
          34.7870635
        ]
      },
      "properties": {
        "id": "6f3a9c8e-ca6c-4c51-897d-b1769b702484",
        "name": "阪急摂津市駅北側道路沿",
        "address": "千里丘東四丁目1番先",
        "city": "摂津市",
        "number": "6",
        "status": "done"
      }
    },
    {
      "type": "Feature",
      "geometry": {
        "type": "Point",
        "coordinates": [
          135.6194183,
          34.8719946
        ]
      },
      "properties": {
        "id": "6f4137fb-a794-4e49-84f7-08b6b6b4aaa7",
        "name": "新日吉台北公園",
        "address": "日吉台七番町14番",
        "city": "高槻市",
        "number": "35-2",
        "status": "done"
      }
    },
    {
      "type": "Feature",
      "geometry": {
        "type": "Point",
        "coordinates": [
          135.5742704,
          34.8491105
        ]
      },
      "properties": {
        "id": "6f4bf38f-0753-493c-b595-7a7fba4a4334",
        "name": "すいせん公園",
        "address": "塚原6丁目25番",
        "city": "高槻市",
        "number": "7-4",
        "status": "done"
      }
    },
    {
      "type": "Feature",
      "geometry": {
        "type": "Point",
        "coordinates": [
          135.5316828,
          34.5429395
        ]
      },
      "properties": {
        "id": "6f4f6821-aea4-4d6c-8f77-e7f8417e86f7",
        "name": "初芝駅前東第1駐輪場南側",
        "address": "東区日置荘西町2",
        "city": "堺市",
        "number": "2",
        "status": "done"
      }
    },
    {
      "type": "Feature",
      "geometry": {
        "type": "Point",
        "coordinates": [
          135.4301491,
          34.8141008
        ]
      },
      "properties": {
        "id": "6f532185-8b77-440d-8d05-7035fb74e768",
        "name": "宇保第２公園南マンション側道路柵",
        "address": "神田１丁目１９−９",
        "city": "池田市",
        "number": "25_4",
        "status": "done"
      }
    },
    {
      "type": "Feature",
      "geometry": {
        "type": "Point",
        "coordinates": [
          135.3757495,
          34.456081
        ]
      },
      "properties": {
        "id": "6f56b772-9959-4898-a7d7-ee445c4ac9f0",
        "name": "masked",
        "address": "上町20-3",
        "city": "岸和田市",
        "number": "40",
        "status": "done"
      }
    },
    {
      "type": "Feature",
      "geometry": {
        "type": "Point",
        "coordinates": [
          135.62240153,
          34.62767112
        ]
      },
      "properties": {
        "id": "6f5869b8-a47d-46bf-9c9a-7ebec677d7cc",
        "name": "近鉄山本駅東自転車駐車場",
        "address": "東山本町１丁目１番地内",
        "city": "八尾市",
        "number": "19-03",
        "status": "done"
      }
    },
    {
      "type": "Feature",
      "geometry": {
        "type": "Point",
        "coordinates": [
          135.514679,
          34.676285
        ]
      },
      "properties": {
        "id": "6f5dd099-4f33-474d-a01e-818d4b71c602",
        "name": "マストタワー安堂寺 南側道路植樹帯",
        "address": "中央区安堂寺町2丁目3番",
        "city": "大阪市",
        "number": "44",
        "status": "done"
      }
    },
    {
      "type": "Feature",
      "geometry": {
        "type": "Point",
        "coordinates": [
          135.535583,
          34.697433
        ]
      },
      "properties": {
        "id": "6f5f1aa6-3f98-4fb5-8955-68e599e06ea6",
        "name": "市営都島住宅1号棟側フェンス",
        "address": "都島区東野田町3-3-30",
        "city": "大阪市",
        "number": "1822",
        "status": "done"
      }
    },
    {
      "type": "Feature",
      "geometry": {
        "type": "Point",
        "coordinates": [
          135.6647403,
          34.8431116
        ]
      },
      "properties": {
        "id": "6f60289a-a17b-46dc-a1d1-df33cb29f2a5",
        "name": "京阪電鉄高架下（牧野坂1丁目14-18近辺）",
        "address": "牧野阪１丁目14",
        "city": "枚方市",
        "number": "40-1",
        "status": "done"
      }
    },
    {
      "type": "Feature",
      "geometry": {
        "type": "Point",
        "coordinates": [
          135.6196546,
          34.8283727
        ]
      },
      "properties": {
        "id": "6f6d126e-f81f-4570-9bfb-e83d40d1de00",
        "name": "A20棟西水路花壇",
        "address": "登町3番",
        "city": "高槻市",
        "number": "62-5",
        "status": "done"
      }
    },
    {
      "type": "Feature",
      "geometry": {
        "type": "Point",
        "coordinates": [
          135.509613,
          34.516674
        ]
      },
      "properties": {
        "id": "6f7e245c-1a8d-4c30-9e7d-beb2221bac47",
        "name": "つくもりざか公園",
        "address": "中区東山880",
        "city": "堺市",
        "number": "2",
        "status": "not_yet"
      }
    },
    {
      "type": "Feature",
      "geometry": {
        "type": "Point",
        "coordinates": [
          135.2500436,
          34.3666027
        ]
      },
      "properties": {
        "id": "6f824c37-f976-442c-af88-e4d09aff8039",
        "name": "山陽製紙株式会社 本社（工場）南付近",
        "address": "男里６丁目４−２５",
        "city": "泉南市",
        "number": "133",
        "status": "done"
      }
    },
    {
      "type": "Feature",
      "geometry": {
        "type": "Point",
        "coordinates": [
          135.2344904,
          34.3590365
        ]
      },
      "properties": {
        "id": "6f82d5e3-d495-4a49-abf1-6b6dfa25e5f5",
        "name": "新町児遊園ブロック塀",
        "address": "新町296",
        "city": "阪南市",
        "number": "14-3",
        "status": "done"
      }
    },
    {
      "type": "Feature",
      "geometry": {
        "type": "Point",
        "coordinates": [
          135.5994562,
          34.7370076
        ]
      },
      "properties": {
        "id": "6f840fab-cb9b-4740-a530-bcc4578d2a70",
        "name": "大橋町公園植込み",
        "address": "大橋町10番",
        "city": "門真市",
        "number": "95",
        "status": "done"
      }
    },
    {
      "type": "Feature",
      "geometry": {
        "type": "Point",
        "coordinates": [
          135.5703999,
          34.61671829
        ]
      },
      "properties": {
        "id": "6f86735f-2a1c-4721-a5b6-522f792dd9d3",
        "name": "竹渕小学校（西門）",
        "address": "竹渕東４丁目１番地",
        "city": "八尾市",
        "number": "08-07",
        "status": "done"
      }
    },
    {
      "type": "Feature",
      "geometry": {
        "type": "Point",
        "coordinates": [
          135.514977,
          34.78994
        ]
      },
      "properties": {
        "id": "6f8d63c7-2c44-4184-9716-e1325db84628",
        "name": "佐竹公園東面",
        "address": "佐竹台３丁目４",
        "city": "吹田市",
        "number": "161-4",
        "status": "done"
      }
    },
    {
      "type": "Feature",
      "geometry": {
        "type": "Point",
        "coordinates": [
          135.6454559,
          34.5686815
        ]
      },
      "properties": {
        "id": "6f983c26-9c9a-4d12-899b-53d2663854f6",
        "name": "masked",
        "address": "国分市場1丁目5番",
        "city": "柏原市",
        "number": "19-6",
        "status": "done"
      }
    },
    {
      "type": "Feature",
      "geometry": {
        "type": "Point",
        "coordinates": [
          135.321279,
          34.410064
        ]
      },
      "properties": {
        "id": "6f9e826f-160d-4268-adcf-10aef71d3a6d",
        "name": "第１９投票区（上町）",
        "address": "上町ハローワーク泉佐野前",
        "city": "泉佐野市",
        "number": "130",
        "status": "done"
      }
    },
    {
      "type": "Feature",
      "geometry": {
        "type": "Point",
        "coordinates": [
          135.6683616,
          34.8073053
        ]
      },
      "properties": {
        "id": "6f9ea512-2bc9-47d1-9c6e-c4a42172b42d",
        "name": "公団桜丘団地入口（黒い低フェンス）",
        "address": "桜丘町5",
        "city": "枚方市",
        "number": "25-4",
        "status": "done"
      }
    },
    {
      "type": "Feature",
      "geometry": {
        "type": "Point",
        "coordinates": [
          135.54633379,
          34.56851935
        ]
      },
      "properties": {
        "id": "6fa76d1b-a826-4276-8053-56a58dfcb83e",
        "name": "河合公園北道路植栽フェンス",
        "address": "松原市河合1丁目7番",
        "city": "松原市",
        "number": "25-7",
        "status": "done"
      }
    },
    {
      "type": "Feature",
      "geometry": {
        "type": "Point",
        "coordinates": [
          135.5750232,
          34.8138731
        ]
      },
      "properties": {
        "id": "6fa7f4dd-a049-48d3-bbca-969b720cf7e1",
        "name": "クレール舟木南側水路鉄柵",
        "address": "舟木町18",
        "city": "茨木市",
        "number": "39",
        "status": "done"
      }
    },
    {
      "type": "Feature",
      "geometry": {
        "type": "Point",
        "coordinates": [
          135.5906749,
          34.5019759
        ]
      },
      "properties": {
        "id": "6fad1d33-dafc-4b6d-979c-83c3d2b37572",
        "name": "富美ケ丘町入り口フェンス",
        "address": "富美ケ丘町７１７",
        "city": "富田林市",
        "number": "8",
        "status": "not_yet"
      }
    },
    {
      "type": "Feature",
      "geometry": {
        "type": "Point",
        "coordinates": [
          135.7351469,
          34.796603
        ]
      },
      "properties": {
        "id": "6fb20b52-adaf-48fd-99a7-f37127fe586f",
        "name": "宗谷２丁目27-14近辺",
        "address": "宗谷２丁目27",
        "city": "枚方市",
        "number": "78-9",
        "status": "done"
      }
    },
    {
      "type": "Feature",
      "geometry": {
        "type": "Point",
        "coordinates": [
          135.6919855,
          34.7233689
        ]
      },
      "properties": {
        "id": "6fbcbedd-9abf-4762-a6dc-332f62f20453",
        "name": "オクダパーキング東側の鉄製フェンス",
        "address": "四條畷市田原台五丁目15番7号の南",
        "city": "四條畷市",
        "number": "6-11",
        "status": "done"
      }
    },
    {
      "type": "Feature",
      "geometry": {
        "type": "Point",
        "coordinates": [
          135.435776,
          34.858486
        ]
      },
      "properties": {
        "id": "6fc79df2-7e9f-4bdc-a132-a659e0dc02df",
        "name": "阪急バス営業所北 西公園",
        "address": "伏尾台４丁目１５",
        "city": "池田市",
        "number": "29_4",
        "status": "done"
      }
    },
    {
      "type": "Feature",
      "geometry": {
        "type": "Point",
        "coordinates": [
          135.57002306,
          34.57806022
        ]
      },
      "properties": {
        "id": "6fc7dfe0-9ac6-420f-9b77-683c76cf264b",
        "name": "恵我南小学校東側フェンス",
        "address": "松原市一津屋1丁目15番",
        "city": "松原市",
        "number": "34-2",
        "status": "done"
      }
    },
    {
      "type": "Feature",
      "geometry": {
        "type": "Point",
        "coordinates": [
          135.552104,
          34.4841679
        ]
      },
      "properties": {
        "id": "6fc84111-a5af-4db0-b3e7-08891af7ce4f",
        "name": "市立南青少年運動場 北東側",
        "address": "茱萸木6丁目985-2先",
        "city": "大阪狭山市",
        "number": "53",
        "status": "not_yet"
      }
    },
    {
      "type": "Feature",
      "geometry": {
        "type": "Point",
        "coordinates": [
          135.543732,
          34.709366
        ]
      },
      "properties": {
        "id": "6fcb1912-0038-4eec-ba17-e56c6ece455b",
        "name": "成育公園(通称三角公園) 北東側植込み",
        "address": "城東区成育3丁目18番",
        "city": "大阪市",
        "number": "424",
        "status": "done"
      }
    },
    {
      "type": "Feature",
      "geometry": {
        "type": "Point",
        "coordinates": [
          135.5889451,
          34.4150167
        ]
      },
      "properties": {
        "id": "6fd3706f-e048-40fe-aad8-9ef29d1bad7a",
        "name": "流谷１０付近カーブミラー横",
        "address": "岩瀬５７４",
        "city": "河内長野市",
        "number": "14-4",
        "status": "not_yet"
      }
    },
    {
      "type": "Feature",
      "geometry": {
        "type": "Point",
        "coordinates": [
          135.52775733,
          34.43881654
        ]
      },
      "properties": {
        "id": "6fd921d7-46ce-4d36-9c55-1310cba7250b",
        "name": "天野町７７８付近住宅フェンス",
        "address": "下里町１１４９",
        "city": "河内長野市",
        "number": "8-6",
        "status": "not_yet"
      }
    },
    {
      "type": "Feature",
      "geometry": {
        "type": "Point",
        "coordinates": [
          135.526184,
          34.647408
        ]
      },
      "properties": {
        "id": "6fe15056-37e9-4c74-afce-ec7b26b9cbeb",
        "name": "源ヶ橋児童遊園北側フェンス",
        "address": "生野区生野西2丁目7番",
        "city": "大阪市",
        "number": "1427",
        "status": "done"
      }
    },
    {
      "type": "Feature",
      "geometry": {
        "type": "Point",
        "coordinates": [
          135.5368417,
          34.8370979
        ]
      },
      "properties": {
        "id": "6feca4ac-b950-47a6-b21b-fb609c49b854",
        "name": "豊川コミュニティセンター南側フェンス",
        "address": "藤の里二丁目16",
        "city": "茨木市",
        "number": "33",
        "status": "done"
      }
    },
    {
      "type": "Feature",
      "geometry": {
        "type": "Point",
        "coordinates": [
          135.58926051,
          34.61122365
        ]
      },
      "properties": {
        "id": "6fefecbe-c060-482e-a0a3-c09b204331a4",
        "name": "南太子堂２丁目内公園",
        "address": "南太子堂２丁目地内",
        "city": "八尾市",
        "number": "39-02",
        "status": "done"
      }
    },
    {
      "type": "Feature",
      "geometry": {
        "type": "Point",
        "coordinates": [
          135.4520136,
          34.7816431
        ]
      },
      "properties": {
        "id": "6ff55682-0b4f-45bf-9308-e11ed07b77fc",
        "name": "浄行寺西側ｶﾞｰﾄﾞﾚｰﾙ",
        "address": "走井1丁目2番",
        "city": "豊中市",
        "number": "3_5",
        "status": "done"
      }
    },
    {
      "type": "Feature",
      "geometry": {
        "type": "Point",
        "coordinates": [
          135.463654,
          34.728424
        ]
      },
      "properties": {
        "id": "700693b1-6017-4940-8bda-3e3fadf1fc4e",
        "name": "市立美津島中学校正門左側鉄柵",
        "address": "淀川区加島１丁目５４番４１号",
        "city": "大阪市",
        "number": "1218",
        "status": "done"
      }
    },
    {
      "type": "Feature",
      "geometry": {
        "type": "Point",
        "coordinates": [
          135.5693555,
          34.4723651
        ]
      },
      "properties": {
        "id": "7007d91d-b7fe-435d-adc3-9b12696c623d",
        "name": "千代田小学校（正門前フェンス）",
        "address": "木戸１丁目４４",
        "city": "河内長野市",
        "number": "5-3",
        "status": "not_yet"
      }
    },
    {
      "type": "Feature",
      "geometry": {
        "type": "Point",
        "coordinates": [
          135.5030983,
          34.8042141
        ]
      },
      "properties": {
        "id": "70129eef-9c37-4a69-bfb6-c2544ab9efd2",
        "name": "新田配水場入口金網塀",
        "address": "上新田4丁目6番",
        "city": "豊中市",
        "number": "19_8",
        "status": "done"
      }
    },
    {
      "type": "Feature",
      "geometry": {
        "type": "Point",
        "coordinates": [
          135.2086097,
          34.341162
        ]
      },
      "properties": {
        "id": "7013e906-cc93-4baf-b294-e80b140f5626",
        "name": "明治橋左側道路沿ガードパイプ",
        "address": "箱作1383-1",
        "city": "阪南市",
        "number": "19-7",
        "status": "done"
      }
    },
    {
      "type": "Feature",
      "geometry": {
        "type": "Point",
        "coordinates": [
          135.452515,
          34.659798
        ]
      },
      "properties": {
        "id": "701bd0af-1140-47d6-a9fb-c9feeeea2f18",
        "name": "三先公園 南西側",
        "address": "港区三先２丁目３番",
        "city": "大阪市",
        "number": "1378",
        "status": "done"
      }
    },
    {
      "type": "Feature",
      "geometry": {
        "type": "Point",
        "coordinates": [
          135.6449117,
          34.7326247
        ]
      },
      "properties": {
        "id": "7021d562-71b3-4c34-a9df-50362d3b8c79",
        "name": "安井モータープール北側の金網フェンス",
        "address": "四條畷市南野二丁目12番3号の西",
        "city": "四條畷市",
        "number": "1-7",
        "status": "not_yet"
      }
    },
    {
      "type": "Feature",
      "geometry": {
        "type": "Point",
        "coordinates": [
          135.659622,
          34.877239
        ]
      },
      "properties": {
        "id": "702439a4-d8c0-4eab-bb23-e1c3b79e55c1",
        "name": "町立第三小学校",
        "address": "桜井二丁目25番",
        "city": "島本町",
        "number": "6-7",
        "status": "done"
      }
    },
    {
      "type": "Feature",
      "geometry": {
        "type": "Point",
        "coordinates": [
          135.7126158,
          34.8182711
        ]
      },
      "properties": {
        "id": "70297ffc-ad15-4f87-ae91-07ce8896e4b7",
        "name": "はっぴーらいふ枚方前ガードレール",
        "address": "藤阪東町４丁目15",
        "city": "枚方市",
        "number": "59-4",
        "status": "done"
      }
    },
    {
      "type": "Feature",
      "geometry": {
        "type": "Point",
        "coordinates": [
          135.5047597,
          34.4500626
        ]
      },
      "properties": {
        "id": "7029f049-aa47-4f80-8d29-dba0bd5b0bef",
        "name": "元(株)泉建設工業出入口南側空地",
        "address": "南区別所425-3",
        "city": "堺市",
        "number": "8",
        "status": "not_yet"
      }
    },
    {
      "type": "Feature",
      "geometry": {
        "type": "Point",
        "coordinates": [
          135.3008599,
          34.3627918
        ]
      },
      "properties": {
        "id": "702a3574-0f40-48dd-a13c-61016a195451",
        "name": "海の見える公園",
        "address": "新家７２５−８",
        "city": "泉南市",
        "number": "152",
        "status": "not_yet"
      }
    },
    {
      "type": "Feature",
      "geometry": {
        "type": "Point",
        "coordinates": [
          135.6605281,
          34.753512
        ]
      },
      "properties": {
        "id": "702a5172-037f-4d73-9691-c04456548324",
        "name": "星田西体育施設前 交差点歩道柵",
        "address": "星田西４－１２",
        "city": "交野市",
        "number": "137",
        "status": "done"
      }
    },
    {
      "type": "Feature",
      "geometry": {
        "type": "Point",
        "coordinates": [
          135.549041,
          34.5527405
        ]
      },
      "properties": {
        "id": "702b8e56-8c6b-4924-ae33-2f3b8366eb80",
        "name": "masked",
        "address": "美原区今井492",
        "city": "堺市",
        "number": "3",
        "status": "not_yet"
      }
    },
    {
      "type": "Feature",
      "geometry": {
        "type": "Point",
        "coordinates": [
          135.5834987,
          34.7561728
        ]
      },
      "properties": {
        "id": "7037a7da-15e8-41fa-b4bb-c335933ac409",
        "name": "奥村機械㈱南側",
        "address": "佐太中町2丁目5番3号",
        "city": "守口市",
        "number": "22-7",
        "status": "done"
      }
    },
    {
      "type": "Feature",
      "geometry": {
        "type": "Point",
        "coordinates": [
          135.580641,
          34.4611477
        ]
      },
      "properties": {
        "id": "703c2591-c7ca-481a-b3cb-a813e74216e1",
        "name": "嬉桜ヶ丘入り口ガードレール",
        "address": "嬉633-2",
        "city": "富田林市",
        "number": "115",
        "status": "not_yet"
      }
    },
    {
      "type": "Feature",
      "geometry": {
        "type": "Point",
        "coordinates": [
          135.632009,
          34.5894658
        ]
      },
      "properties": {
        "id": "703e319f-9484-4bd9-a897-21fcf6f287c7",
        "name": "masked",
        "address": "大県４丁目１０番１５号",
        "city": "柏原市",
        "number": "12-6",
        "status": "done"
      }
    },
    {
      "type": "Feature",
      "geometry": {
        "type": "Point",
        "coordinates": [
          135.662745,
          34.7699669
        ]
      },
      "properties": {
        "id": "7040ba7e-f1ef-4fe7-9c52-60db03350f0d",
        "name": "JR「星田」駅裏 道路沿い歩道柵",
        "address": "星田北７",
        "city": "交野市",
        "number": "114",
        "status": "not_yet"
      }
    },
    {
      "type": "Feature",
      "geometry": {
        "type": "Point",
        "coordinates": [
          135.427122,
          34.70565
        ]
      },
      "properties": {
        "id": "7043491f-22b6-4e3d-8e49-7d21be28760d",
        "name": "開発公園・中央南側",
        "address": "西淀川区中島１丁目２３番",
        "city": "大阪市",
        "number": "1802",
        "status": "done"
      }
    },
    {
      "type": "Feature",
      "geometry": {
        "type": "Point",
        "coordinates": [
          135.495659,
          34.763887
        ]
      },
      "properties": {
        "id": "704365cb-4e28-4c73-829e-b7f36b075687",
        "name": "名神沿いフェンス",
        "address": "江坂町２丁目２の前",
        "city": "吹田市",
        "number": "145-1",
        "status": "done"
      }
    },
    {
      "type": "Feature",
      "geometry": {
        "type": "Point",
        "coordinates": [
          135.4972067,
          34.4822963
        ]
      },
      "properties": {
        "id": "704c03dc-89cb-4b17-b025-d10aedb2fa89",
        "name": "原山台B団地1棟西側(3-1棟西側)",
        "address": "南区原山台5丁3",
        "city": "堺市",
        "number": "4",
        "status": "done"
      }
    },
    {
      "type": "Feature",
      "geometry": {
        "type": "Point",
        "coordinates": [
          135.6451559,
          34.4176104
        ]
      },
      "properties": {
        "id": "704cb081-fe43-4600-8736-61a1e53fe694",
        "name": "千早老人憩いの家前",
        "address": "村道千早大橋脇谷線（民有地）",
        "city": "千早赤阪村",
        "number": "3-2",
        "status": "done"
      }
    },
    {
      "type": "Feature",
      "geometry": {
        "type": "Point",
        "coordinates": [
          135.506022,
          34.782254
        ]
      },
      "properties": {
        "id": "704f7690-5dce-451e-88ce-a1ec37c58371",
        "name": "吹田市消防団千二分団西面",
        "address": "千里山西５丁目２９",
        "city": "吹田市",
        "number": "153-5",
        "status": "done"
      }
    },
    {
      "type": "Feature",
      "geometry": {
        "type": "Point",
        "coordinates": [
          135.6819625,
          34.8024064
        ]
      },
      "properties": {
        "id": "7053e0d7-219d-4a81-a9db-70ccfaf614be",
        "name": "北商陸運（株）春日倉庫近辺",
        "address": "春日西町３丁目30",
        "city": "枚方市",
        "number": "63-6",
        "status": "done"
      }
    },
    {
      "type": "Feature",
      "geometry": {
        "type": "Point",
        "coordinates": [
          135.6312567,
          34.4657193
        ]
      },
      "properties": {
        "id": "705f7ae4-6032-48e0-bb09-58724abd37fc",
        "name": "川野邊２３０番地１",
        "address": "村道水分北川野辺線（村道敷）",
        "city": "千早赤阪村",
        "number": "1-4",
        "status": "done"
      }
    },
    {
      "type": "Feature",
      "geometry": {
        "type": "Point",
        "coordinates": [
          135.4745495,
          34.4476194
        ]
      },
      "properties": {
        "id": "70646641-344e-4dc8-83fd-15809a21ca18",
        "name": "南池田小学校(南門側)鉄柵",
        "address": "納花町181",
        "city": "和泉市",
        "number": "19-4",
        "status": "not_yet"
      }
    },
    {
      "type": "Feature",
      "geometry": {
        "type": "Point",
        "coordinates": [
          135.2132768,
          34.3415743
        ]
      },
      "properties": {
        "id": "7064ec42-8bde-4ffb-aafc-f99720cd2b32",
        "name": "南海箱作駅山側自転車置場フェンス",
        "address": "箱作251-1",
        "city": "阪南市",
        "number": "19-3",
        "status": "error_wrong_place"
      }
    },
    {
      "type": "Feature",
      "geometry": {
        "type": "Point",
        "coordinates": [
          135.48603447,
          34.61565059
        ]
      },