{
  "type": "FeatureCollection",
  "features": [
    {
      "type": "Feature",
      "geometry": {
        "type": "Point",
        "coordinates": [
          143.1323949,
          42.6976121
        ]
      },
      "properties": {
        "id": "cb366f51-231e-4f4a-b4bd-bd00060806b8",
        "name": "中札内村",
        "address": null,
        "city": "中札内村",
        "number": "16",
        "status": "not_yet"
      }
    },
    {
      "type": "Feature",
      "geometry": {
        "type": "Point",
        "coordinates": [
          141.298091,
          43.0929242
        ]
      },
      "properties": {
        "id": "cb397449-f7f4-47eb-8717-0172591c51c0",
        "name": "発寒いたどり公園",
        "address": "西区発寒１１条１丁目９番 発寒いたどり公園",
        "city": "札幌市",
        "number": "27-06",
        "status": "done"
      }
    },
    {
      "type": "Feature",
      "geometry": {
        "type": "Point",
        "coordinates": [
          143.24790001,
          43.17238422
        ]
      },
      "properties": {
        "id": "cb39a993-d394-4a5f-b9c7-d110d4db6fcf",
        "name": "町立病院前",
        "address": "町立病院前",
        "city": "士幌町",
        "number": "2",
        "status": "not_yet"
      }
    },
    {
      "type": "Feature",
      "geometry": {
        "type": "Point",
        "coordinates": [
          141.894989,
          43.541344
        ]
      },
      "properties": {
        "id": "cb3b01be-0709-442a-8ccb-5cbbbe0d0351",
        "name": "中央児童センター横（文化通側）",
        "address": "中央児童センタ-横(文化通側)",
        "city": "滝川市",
        "number": "15-5",
        "status": "not_yet"
      }
    },
    {
      "type": "Feature",
      "geometry": {
        "type": "Point",
        "coordinates": [
          141.279593,
          43.1192779
        ]
      },
      "properties": {
        "id": "cb3f0062-91fe-44be-b4c3-e3b8c58d6908",
        "name": "新発寒さつき公園",
        "address": "手稲区新発寒７条４丁目 新発寒さつき公園",
        "city": "札幌市",
        "number": "19-07",
        "status": "done"
      }
    },
    {
      "type": "Feature",
      "geometry": {
        "type": "Point",
        "coordinates": [
          141.393326,
          43.095852
        ]
      },
      "properties": {
        "id": "cb404501-bc1c-4b9d-bcaf-4fe7641c7ab1",
        "name": "伏古りんどう公園　北側",
        "address": "東区伏古１０条２丁目６番 伏古りんどう公園　北側",
        "city": "札幌市",
        "number": "21-05",
        "status": "done"
      }
    },
    {
      "type": "Feature",
      "geometry": {
        "type": "Point",
        "coordinates": [
          143.7549,
          44.0027
        ]
      },
      "properties": {
        "id": "cb474b9f-e14e-4473-a3eb-a4db8e67cfa9",
        "name": "字永代町166番地の2",
        "address": "佐呂間町立図書館前",
        "city": "佐呂間町",
        "number": "7",
        "status": "not_yet"
      }
    },
    {
      "type": "Feature",
      "geometry": {
        "type": "Point",
        "coordinates": [
          143.61903191,
          43.7474131
        ]
      },
      "properties": {
        "id": "cb5035ab-00d5-44d8-80af-0712a56c4acf",
        "name": "幸岡会館前",
        "address": null,
        "city": "置戸町",
        "number": "1-3",
        "status": "not_yet"
      }
    },
    {
      "type": "Feature",
      "geometry": {
        "type": "Point",
        "coordinates": [
          141.5249587,
          43.0845814
        ]
      },
      "properties": {
        "id": "cb6227a5-6054-4a0f-bfff-7b466446e68f",
        "name": "とちの木公園",
        "address": "野幌若葉町３２",
        "city": "江別市",
        "number": "102",
        "status": "done"
      }
    },
    {
      "type": "Feature",
      "geometry": {
        "type": "Point",
        "coordinates": [
          141.347061,
          43.105568
        ]
      },
      "properties": {
        "id": "cb6561ad-b91c-4a2c-b2b8-3651ad50daff",
        "name": "北３７条さくら公園　北側",
        "address": "東区北３７条東１丁目６番 北３７条さくら公園　北側",
        "city": "札幌市",
        "number": "08-01",
        "status": "done"
      }
    },
    {
      "type": "Feature",
      "geometry": {
        "type": "Point",
        "coordinates": [
          141.432339,
          42.587279
        ]
      },
      "properties": {
        "id": "cb6cec89-49fd-4927-8fa6-737cbfb2dd68",
        "name": "樽前交流センター正面東側駐車場西面",
        "address": "字樽前85-3樽前交流センター正面東側駐車場西面",
        "city": "苫小牧市",
        "number": "167",
        "status": "not_yet"
      }
    },
    {
      "type": "Feature",
      "geometry": {
        "type": "Point",
        "coordinates": [
          141.3535692,
          43.6497883
        ]
      },
      "properties": {
        "id": "cb77fe21-279a-4666-a35c-b0fb50514a82",
        "name": "幌郵便局",
        "address": "浜益区幌幌郵便局",
        "city": "石狩市",
        "number": "84",
        "status": "not_yet"
      }
    },
    {
      "type": "Feature",
      "geometry": {
        "type": "Point",
        "coordinates": [
          140.9366392,
          43.2112771
        ]
      },
      "properties": {
        "id": "cb7939ba-93cd-4435-9b42-43aa303c85f9",
        "name": "小樽市建設部建設事業室前",
        "address": "塩谷2-5",
        "city": "小樽市",
        "number": "23",
        "status": "not_yet"
      }
    },
    {
      "type": "Feature",
      "geometry": {
        "type": "Point",
        "coordinates": [
          141.4204332,
          43.0263575
        ]
      },
      "properties": {
        "id": "cb79efa7-bf4c-4726-8ca9-e2d082ccecb7",
        "name": "東月寒向ヶ丘公園",
        "address": "豊平区月寒東４条１５丁目 東月寒向ヶ丘公園",
        "city": "札幌市",
        "number": "09-02",
        "status": "done"
      }
    },
    {
      "type": "Feature",
      "geometry": {
        "type": "Point",
        "coordinates": [
          141.7625221,
          43.2077687
        ]
      },
      "properties": {
        "id": "cb7d55ad-b12a-40ea-960d-afcb6c0424a1",
        "name": "元町バス停横",
        "address": "元町2条西1丁目",
        "city": "岩見沢市",
        "number": "92",
        "status": "done"
      }
    },
    {
      "type": "Feature",
      "geometry": {
        "type": "Point",
        "coordinates": [
          141.4194808,
          43.0360763
        ]
      },
      "properties": {
        "id": "cb854791-3afd-4764-8198-f4c242e4bda7",
        "name": "あおい公園",
        "address": "白石区南郷通１２丁目南 あおい公園",
        "city": "札幌市",
        "number": "24-03",
        "status": "done"
      }
    },
    {
      "type": "Feature",
      "geometry": {
        "type": "Point",
        "coordinates": [
          141.232464,
          43.1311006
        ]
      },
      "properties": {
        "id": "cb890a28-7653-4208-bc52-5090ba579fec",
        "name": "曙中央公園",
        "address": "手稲区曙４条３丁目 曙中央公園",
        "city": "札幌市",
        "number": "17-08",
        "status": "done"
      }
    },
    {
      "type": "Feature",
      "geometry": {
        "type": "Point",
        "coordinates": [
          141.4001976,
          43.0340873
        ]
      },
      "properties": {
        "id": "cb8fbf63-8c8f-463c-8e10-279a794d060b",
        "name": "月寒かつら公園",
        "address": "豊平区月寒東２条６丁目 月寒かつら公園",
        "city": "札幌市",
        "number": "07-07",
        "status": "done"
      }
    },
    {
      "type": "Feature",
      "geometry": {
        "type": "Point",
        "coordinates": [
          141.776733,
          43.197178
        ]
      },
      "properties": {
        "id": "cb91dc2f-aa70-487c-8efe-e0c0ea5bf4e1",
        "name": "市役所前（正面駐車場）",
        "address": "鳩が丘1丁目",
        "city": "岩見沢市",
        "number": "15",
        "status": "done"
      }
    },
    {
      "type": "Feature",
      "geometry": {
        "type": "Point",
        "coordinates": [
          141.3324104,
          43.1280526
        ]
      },
      "properties": {
        "id": "cb95d20b-cf37-454d-b60b-3e93a4b3d97f",
        "name": "屯田バンビ公園",
        "address": "北区屯田４条５丁目 屯田バンビ公園",
        "city": "札幌市",
        "number": "41-08",
        "status": "done"
      }
    },
    {
      "type": "Feature",
      "geometry": {
        "type": "Point",
        "coordinates": [
          140.9861355,
          42.3721096
        ]
      },
      "properties": {
        "id": "cb9b0941-1d68-4824-b5db-0d648d8b7729",
        "name": "旧本輪西小学校前川フェンス",
        "address": "本輪西町4丁目16番",
        "city": "室蘭市",
        "number": "22-7",
        "status": "not_yet"
      }
    },
    {
      "type": "Feature",
      "geometry": {
        "type": "Point",
        "coordinates": [
          144.01857376,
          43.72186213
        ]
      },
      "properties": {
        "id": "cb9cb583-a21e-43cd-aff5-6d34007fc86c",
        "name": "東達美公民館前",
        "address": "東達美公民館前",
        "city": "津別町",
        "number": "27",
        "status": "not_yet"
      }
    },
    {
      "type": "Feature",
      "geometry": {
        "type": "Point",
        "coordinates": [
          143.5236654,
          44.0644197
        ]
      },
      "properties": {
        "id": "cba9c47e-2bc7-4b8e-a153-2352a22370e0",
        "name": "岩見通北４丁目",
        "address": "遠軽町岩見通北４丁目",
        "city": "遠軽町",
        "number": "15",
        "status": "not_yet"
      }
    },
    {
      "type": "Feature",
      "geometry": {
        "type": "Point",
        "coordinates": [
          143.51202,
          43.231613
        ]
      },
      "properties": {
        "id": "cbb7ae0f-88f3-45f8-b5a2-c73205aa393b",
        "name": null,
        "address": "足寄町中矢４６",
        "city": "足寄町",
        "number": "9",
        "status": "done"
      }
    },
    {
      "type": "Feature",
      "geometry": {
        "type": "Point",
        "coordinates": [
          145.14413649,
          43.36438624
        ]
      },
      "properties": {
        "id": "cbcaf5de-00ea-48e5-8584-a3cd409d1063",
        "name": "東矢地区会館前",
        "address": "別海252-22",
        "city": "別海町",
        "number": "45",
        "status": "not_yet"
      }
    },
    {
      "type": "Feature",
      "geometry": {
        "type": "Point",
        "coordinates": [
          141.240082,
          43.126896
        ]
      },
      "properties": {
        "id": "cbcdb02d-7312-4ee2-8d77-a4092b7d4a6e",
        "name": "手稲区体育館正面",
        "address": "手稲区曙２条１丁目 手稲区体育館正面",
        "city": "札幌市",
        "number": "17-01",
        "status": "done"
      }
    },
    {
      "type": "Feature",
      "geometry": {
        "type": "Point",
        "coordinates": [
          142.455415,
          43.698618
        ]
      },
      "properties": {
        "id": "cbd6a6d3-1a65-4106-a934-b0be28f09163",
        "name": null,
        "address": "北１条東１丁目",
        "city": "東神楽町",
        "number": "2-22",
        "status": "done"
      }
    },
    {
      "type": "Feature",
      "geometry": {
        "type": "Point",
        "coordinates": [
          141.349106,
          43.001904
        ]
      },
      "properties": {
        "id": "cbdba5f6-e240-42a0-9b7c-ae62b152476b",
        "name": "都市機構あけぼの団地７号棟",
        "address": "南区真駒内曙町１丁目１ 都市機構あけぼの団地７号棟",
        "city": "札幌市",
        "number": "06-05",
        "status": "done"
      }
    },
    {
      "type": "Feature",
      "geometry": {
        "type": "Point",
        "coordinates": [
          141.3172852,
          43.0613275
        ]
      },
      "properties": {
        "id": "cbe0a632-7d35-4109-8217-4115dd38faaa",
        "name": "共栄公園",
        "address": "中央区北４条西２６丁目 共栄公園",
        "city": "札幌市",
        "number": "20-02",
        "status": "done"
      }
    },
    {
      "type": "Feature",
      "geometry": {
        "type": "Point",
        "coordinates": [
          142.43598226,
          44.37662116
        ]
      },
      "properties": {
        "id": "cbea891d-1edc-4859-ac94-69499dda3060",
        "name": "R40号6号取付西側",
        "address": "内淵",
        "city": "名寄市",
        "number": "17-1",
        "status": "done"
      }
    },
    {
      "type": "Feature",
      "geometry": {
        "type": "Point",
        "coordinates": [
          141.84697,
          42.641518
        ]
      },
      "properties": {
        "id": "cbeb0e24-2a34-48c5-bf07-12aacbb1b998",
        "name": "厚南会館前",
        "address": "字上厚真２１９番の７ 厚南会館前",
        "city": "厚真町",
        "number": "25",
        "status": "done"
      }
    },
    {
      "type": "Feature",
      "geometry": {
        "type": "Point",
        "coordinates": [
          140.960251,
          42.36269
        ]
      },
      "properties": {
        "id": "cbf3cdff-a30b-4973-a613-4908cd59c1c6",
        "name": "土手",
        "address": "幌萌町18番地",
        "city": "室蘭市",
        "number": "24-2",
        "status": "not_yet"
      }
    },
    {
      "type": "Feature",
      "geometry": {
        "type": "Point",
        "coordinates": [
          140.31723678,
          42.66755454
        ]
      },
      "properties": {
        "id": "cbf54a2e-6b34-4c13-b05b-2eaa54ab8aa0",
        "name": "総合町民センター前",
        "address": "字黒松内",
        "city": "黒松内町",
        "number": "7",
        "status": "not_yet"
      }
    },
    {
      "type": "Feature",
      "geometry": {
        "type": "Point",
        "coordinates": [
          140.7433569,
          43.1733861
        ]
      },
      "properties": {
        "id": "cbf726d0-d063-4e52-97c7-8775177faa63",
        "name": "豊丘老人寿の家前",
        "address": "豊丘町644番地",
        "city": "余市町",
        "number": "25",
        "status": "not_yet"
      }
    },
    {
      "type": "Feature",
      "geometry": {
        "type": "Point",
        "coordinates": [
          142.415756,
          43.720577
        ]
      },
      "properties": {
        "id": "cc00d4ee-2cda-47aa-9c22-802b721cc327",
        "name": null,
        "address": "ひじり野北１条２丁目",
        "city": "東神楽町",
        "number": "1-9",
        "status": "done"
      }
    },
    {
      "type": "Feature",
      "geometry": {
        "type": "Point",
        "coordinates": [
          140.41620107,
          42.63496906
        ]
      },
      "properties": {
        "id": "cc064a92-4530-44a2-8598-fe06e05f1778",
        "name": "東栄橋前",
        "address": "字大成",
        "city": "黒松内町",
        "number": "16",
        "status": "not_yet"
      }
    },
    {
      "type": "Feature",
      "geometry": {
        "type": "Point",
        "coordinates": [
          142.993293,
          43.103001
        ]
      },
      "properties": {
        "id": "cc108eb6-fb9f-48fa-908e-41fb6f496f2b",
        "name": "緑町芝生広場（緑町中央団地）",
        "address": "緑町2丁目1-1",
        "city": "鹿追町",
        "number": "10-6",
        "status": "done"
      }
    },
    {
      "type": "Feature",
      "geometry": {
        "type": "Point",
        "coordinates": [
          141.7210286,
          43.0480684
        ]
      },
      "properties": {
        "id": "cc128229-9a72-4ef2-98cb-73452855355d",
        "name": "nan",
        "address": "東２線北１２番地",
        "city": "長沼町",
        "number": "7",
        "status": "done"
      }
    },
    {
      "type": "Feature",
      "geometry": {
        "type": "Point",
        "coordinates": [
          142.8973246,
          43.01089221
        ]
      },
      "properties": {
        "id": "cc13b7ef-c557-49e7-8b8d-fde94042ead0",
        "name": "旧田村食品横",
        "address": null,
        "city": "清水町",
        "number": "2-17",
        "status": "not_yet"
      }
    },
    {
      "type": "Feature",
      "geometry": {
        "type": "Point",
        "coordinates": [
          142.3710537,
          44.02244657
        ]
      },
      "properties": {
        "id": "cc15218c-12ee-4e53-a052-94304f35e321",
        "name": null,
        "address": null,
        "city": "和寒町",
        "number": "3-5",
        "status": "not_yet"
      }
    },
    {
      "type": "Feature",
      "geometry": {
        "type": "Point",
        "coordinates": [
          145.225891,
          43.480556
        ]
      },
      "properties": {
        "id": "cc1aa8c2-b972-4de2-965b-5dca553c7917",
        "name": "道道中春別床丹線国道交差点横",
        "address": "床丹4-7",
        "city": "別海町",
        "number": "8",
        "status": "not_yet"
      }
    },
    {
      "type": "Feature",
      "geometry": {
        "type": "Point",
        "coordinates": [
          142.4684083,
          44.3457328
        ]
      },
      "properties": {
        "id": "cc1bbeac-b4fc-416c-ba17-30e75c458514",
        "name": "名寄公園入口西側",
        "address": "東2条南10丁目41-8",
        "city": "名寄市",
        "number": "5-6",
        "status": "not_yet"
      }
    },
    {
      "type": "Feature",
      "geometry": {
        "type": "Point",
        "coordinates": [
          140.80895662,
          42.04162802
        ]
      },
      "properties": {
        "id": "cc20f698-a2b8-4bc7-8dde-e1145163c8c8",
        "name": "平野廣美倉庫前  ",
        "address": null,
        "city": "鹿部町",
        "number": "25",
        "status": "not_yet"
      }
    },
    {
      "type": "Feature",
      "geometry": {
        "type": "Point",
        "coordinates": [
          144.51576,
          43.01208
        ]
      },
      "properties": {
        "id": "cc24b76d-f2f4-4d01-bb94-42c4e4928e4f",
        "name": "上別保会館敷地",
        "address": "字別保原野東5線35番地6",
        "city": "釧路町",
        "number": "1-8",
        "status": "done"
      }
    },
    {
      "type": "Feature",
      "geometry": {
        "type": "Point",
        "coordinates": [
          142.56297112,
          43.83712709
        ]
      },
      "properties": {
        "id": "cc25a698-4f39-4022-9603-b77efa4c13f0",
        "name": "清水川道路、開明北２号道路交差点",
        "address": null,
        "city": "当麻町",
        "number": "5-1  ",
        "status": "not_yet"
      }
    },
    {
      "type": "Feature",
      "geometry": {
        "type": "Point",
        "coordinates": [
          141.0527546,
          43.171073
        ]
      },
      "properties": {
        "id": "cc3118b0-6574-40c6-af83-5f835a3326ff",
        "name": "新光西公園",
        "address": "新光1-30",
        "city": "小樽市",
        "number": "168",
        "status": "done"
      }
    },
    {
      "type": "Feature",
      "geometry": {
        "type": "Point",
        "coordinates": [
          141.302505,
          43.064285
        ]
      },
      "properties": {
        "id": "cc399f8b-7ca6-49c6-9987-f9fc36854007",
        "name": "宮の森小学校東側",
        "address": "中央区宮の森４条６丁目 宮の森小学校東側",
        "city": "札幌市",
        "number": "28-05",
        "status": "done"
      }
    },
    {
      "type": "Feature",
      "geometry": {
        "type": "Point",
        "coordinates": [
          143.37166786,
          43.16377664
        ]
      },
      "properties": {
        "id": "cc3d0134-022b-40e6-96f4-64f17a1c148d",
        "name": "朝陽道三差路",
        "address": "朝陽道三差路",
        "city": "士幌町",
        "number": "30",
        "status": "not_yet"
      }
    },
    {
      "type": "Feature",
      "geometry": {
        "type": "Point",
        "coordinates": [
          142.87689686,
          44.66007592
        ]
      },
      "properties": {
        "id": "cc4ee12e-28de-403b-abfa-1d2628022eb3",
        "name": "幌内浜町　（株）成瀬食品横  ",
        "address": null,
        "city": "雄武町",
        "number": "12",
        "status": "not_yet"
      }
    },
    {
      "type": "Feature",
      "geometry": {
        "type": "Point",
        "coordinates": [
          141.246538,
          43.122062
        ]
      },
      "properties": {
        "id": "cc576e25-b00d-47b4-b058-17f4e8169ae6",
        "name": "手稲区役所正面玄関横",
        "address": "手稲区前田１条１１丁目 手稲区役所正面玄関横",
        "city": "札幌市",
        "number": "05-04",
        "status": "done"
      }
    },
    {
      "type": "Feature",
      "geometry": {
        "type": "Point",
        "coordinates": [
          143.2133746,
          42.9185286
        ]
      },
      "properties": {
        "id": "cc6ab632-c1e9-4db3-8ec5-80e791172fd1",
        "name": "看護専門学校北側やすらぎ公園西側西南大通沿",
        "address": "看護専門学校北側やすらぎ公園西側西南大通沿",
        "city": "帯広市",
        "number": "61",
        "status": "not_yet"
      }
    },
    {
      "type": "Feature",
      "geometry": {
        "type": "Point",
        "coordinates": [
          140.77180156,
          42.54458926
        ]
      },
      "properties": {
        "id": "cc6abf9d-1a9c-463d-8956-8a6a1a56bad0",
        "name": "母と子の館下",
        "address": "高砂町４４−１２",
        "city": "洞爺湖町",
        "number": "21",
        "status": "not_yet"
      }
    },
    {
      "type": "Feature",
      "geometry": {
        "type": "Point",
        "coordinates": [
          145.20274576,
          44.02727274
        ]
      },
      "properties": {
        "id": "cc6ddf21-33e2-4649-8aa2-385c46d8b264",
        "name": "masked",
        "address": "共栄町",
        "city": "羅臼町",
        "number": "24",
        "status": "not_yet"
      }
    },
    {
      "type": "Feature",
      "geometry": {
        "type": "Point",
        "coordinates": [
          141.363983,
          43.120354
        ]
      },
      "properties": {
        "id": "cc717e76-3a3f-4e5b-b72a-dcce08b19ac0",
        "name": "北４８条第４新和公園　南側",
        "address": "東区北４８条東１５丁目１番 北４８条第４新和公園　南側",
        "city": "札幌市",
        "number": "11-06",
        "status": "done"
      }
    },
    {
      "type": "Feature",
      "geometry": {
        "type": "Point",
        "coordinates": [
          142.3834569,
          43.7255332
        ]
      },
      "properties": {
        "id": "cc7bc849-6ec3-4d93-8894-b28b2e8ca9ed",
        "name": "中小企業大学校旭川校さく(南高バス停後方)",
        "address": "緑が丘東3条2丁目",
        "city": "旭川市",
        "number": "6140",
        "status": "done"
      }
    },
    {
      "type": "Feature",
      "geometry": {
        "type": "Point",
        "coordinates": [
          142.186853,
          43.522784
        ]
      },
      "properties": {
        "id": "cc7c88a6-6883-4af3-a86f-54eee6c308e2",
        "name": "こがね公園西側",
        "address": "北３条東１丁目６",
        "city": "芦別市",
        "number": "7",
        "status": "not_yet"
      }
    },
    {
      "type": "Feature",
      "geometry": {
        "type": "Point",
        "coordinates": [
          143.12477589,
          44.46845871
        ]
      },
      "properties": {
        "id": "cc7cd187-7586-40ac-9366-daecb26b8ad5",
        "name": "興部・北興　緑ヶ丘公営住宅前（緑ヶ丘）",
        "address": null,
        "city": "興部町",
        "number": "1-5",
        "status": "done"
      }
    },
    {
      "type": "Feature",
      "geometry": {
        "type": "Point",
        "coordinates": [
          140.0652678,
          42.7112879
        ]
      },
      "properties": {
        "id": "cc81fefd-cb17-44a1-a0b3-a114be61aff1",
        "name": "None",
        "address": "字永豊町86番地地先",
        "city": "島牧村",
        "number": "4",
        "status": "not_yet"
      }
    },
    {
      "type": "Feature",
      "geometry": {
        "type": "Point",
        "coordinates": [
          141.3567622,
          43.13356662
        ]
      },
      "properties": {
        "id": "cc84374d-a066-4c38-bc67-96afa188146d",
        "name": "太平こども公園",
        "address": "北区太平９条５丁目 太平こども公園",
        "city": "札幌市",
        "number": "35-02",
        "status": "done"
      }
    },
    {
      "type": "Feature",
      "geometry": {
        "type": "Point",
        "coordinates": [
          140.7495198,
          41.7812736
        ]
      },
      "properties": {
        "id": "cc85c476-7dd2-4823-9f82-fc33e43d621b",
        "name": "JRアパート601号棟前（時任町7番向かい面）",
        "address": "函館市千代台町9",
        "city": "函館市",
        "number": "189",
        "status": "done"
      }
    },
    {
      "type": "Feature",
      "geometry": {
        "type": "Point",
        "coordinates": [
          142.3543663,
          43.7683382
        ]
      },
      "properties": {
        "id": "cc8f809e-cd5c-463a-bf95-7b6b7cd3777c",
        "name": "道北バス駐車場さく(休憩の建物の隣)",
        "address": "2条通4丁目",
        "city": "旭川市",
        "number": "360",
        "status": "done"
      }
    },
    {
      "type": "Feature",
      "geometry": {
        "type": "Point",
        "coordinates": [
          141.4564201,
          43.0502519
        ]
      },
      "properties": {
        "id": "cc9de25c-58a7-4d5c-90a8-f605edacbf2e",
        "name": "厚別いなり公園東側",
        "address": "厚別区厚別西４条２丁目 厚別いなり公園東側",
        "city": "札幌市",
        "number": "02-05",
        "status": "done"
      }
    },
    {
      "type": "Feature",
      "geometry": {
        "type": "Point",
        "coordinates": [
          142.4361563,
          43.3407953
        ]
      },
      "properties": {
        "id": "cca087a8-b1ce-4b64-a5fe-de71cd2b61b5",
        "name": "鳥沼会館前東鳥沼",
        "address": null,
        "city": "富良野市",
        "number": "12-1",
        "status": "not_yet"
      }
    },
    {
      "type": "Feature",
      "geometry": {
        "type": "Point",
        "coordinates": [
          144.40481186,
          43.53834492
        ]
      },
      "properties": {
        "id": "cca3cf30-2709-4e85-9631-d79c40e4c8f0",
        "name": "川湯郵便局交差点  ",
        "address": null,
        "city": "弟子屈町",
        "number": "4-20",
        "status": "not_yet"
      }
    },
    {
      "type": "Feature",
      "geometry": {
        "type": "Point",
        "coordinates": [
          140.7030049,
          42.8565935
        ]
      },
      "properties": {
        "id": "cca4d51d-3abd-4c48-be7c-11e7ef535ec9",
        "name": "サン・スポーツランドくっちゃん",
        "address": null,
        "city": "倶知安町",
        "number": "34",
        "status": "not_yet"
      }
    },
    {
      "type": "Feature",
      "geometry": {
        "type": "Point",
        "coordinates": [
          143.2163961,
          42.9195916
        ]
      },
      "properties": {
        "id": "ccafe3ec-6028-4ccd-ab5e-13055558aeac",
        "name": "翔陽中学校グラウンド西側フェンス前",
        "address": "翔陽中学校グラウンド西側フェンス前",
        "city": "帯広市",
        "number": "33",
        "status": "done"
      }
    },
    {
      "type": "Feature",
      "geometry": {
        "type": "Point",
        "coordinates": [
          142.346024,
          43.771049
        ]
      },
      "properties": {
        "id": "ccb57cfc-4bda-4d6d-92af-88a41bba97f9",
        "name": "頌栄保育園さく",
        "address": "2条西3丁目",
        "city": "旭川市",
        "number": "120",
        "status": "not_yet"
      }
    },
    {
      "type": "Feature",
      "geometry": {
        "type": "Point",
        "coordinates": [
          141.173111,
          42.447387
        ]
      },
      "properties": {
        "id": "ccb9c1f9-af5b-466e-8203-b478348c2b51",
        "name": "登別本町3丁目25番地2",
        "address": "登別小学校前",
        "city": "登別市",
        "number": "登別中学校",
        "status": "not_yet"
      }
    },
    {
      "type": "Feature",
      "geometry": {
        "type": "Point",
        "coordinates": [
          141.91037,
          43.557777
        ]
      },
      "properties": {
        "id": "ccbb2f74-6b16-4ae5-a8f2-d311dc97cb6b",
        "name": "開西中学校前（西側）",
        "address": "開西中学校前(西側)",
        "city": "滝川市",
        "number": "7-5",
        "status": "done"
      }
    },
    {
      "type": "Feature",
      "geometry": {
        "type": "Point",
        "coordinates": [
          141.559636,
          42.9838141
        ]
      },
      "properties": {
        "id": "ccc355d8-dc8e-41b0-9d70-cfa636c34a09",
        "name": "北進通・北進通入口バス停（北広島駅方面）階段横",
        "address": "美沢2丁目9番地10",
        "city": "北広島市",
        "number": "3",
        "status": "done"
      }
    },
    {
      "type": "Feature",
      "geometry": {
        "type": "Point",
        "coordinates": [
          142.2689389,
          44.8525507
        ]
      },
      "properties": {
        "id": "ccc43106-e4ac-431f-be96-589b6311788e",
        "name": "宗像宏史　私有地",
        "address": "上頓別432番",
        "city": "中頓別町",
        "number": "2-21",
        "status": "not_yet"
      }
    },
    {
      "type": "Feature",
      "geometry": {
        "type": "Point",
        "coordinates": [
          143.67828446,
          43.58854966
        ]
      },
      "properties": {
        "id": "ccd6728f-5cab-41fb-ad0a-cd66c2b8a1ef",
        "name": "小利別集会所前",
        "address": "小利別",
        "city": "陸別町",
        "number": "2-16",
        "status": "not_yet"
      }
    },
    {
      "type": "Feature",
      "geometry": {
        "type": "Point",
        "coordinates": [
          143.048056,
          43.054588
        ]
      },
      "properties": {
        "id": "ccdc882e-8cf0-4691-b4c6-5074b8a37ee1",
        "name": "公民館新然別分館",
        "address": "上然別西11線17-16",
        "city": "鹿追町",
        "number": "6-1",
        "status": "not_yet"
      }
    },
    {
      "type": "Feature",
      "geometry": {
        "type": "Point",
        "coordinates": [
          141.9256735,
          42.5723898
        ]
      },
      "properties": {
        "id": "ccde825b-6796-415c-888b-c3efbfb651fd",
        "name": "若草団地前若草",
        "address": "若草4番地2",
        "city": "むかわ町",
        "number": "1-10",
        "status": "done"
      }
    },
    {
      "type": "Feature",
      "geometry": {
        "type": "Point",
        "coordinates": [
          142.4588747,
          44.352158
        ]
      },
      "properties": {
        "id": "cce72164-e8e3-4588-8100-4f12c3b5b82c",
        "name": "カトリック幼稚園東側柵",
        "address": "西3条南4丁目",
        "city": "名寄市",
        "number": "2-3",
        "status": "not_yet"
      }
    },
    {
      "type": "Feature",
      "geometry": {
        "type": "Point",
        "coordinates": [
          142.4704734,
          43.4480961
        ]
      },
      "properties": {
        "id": "cce7a220-a7b6-4c05-b7bc-4b7c7581d3d5",
        "name": "駐屯地東門前",
        "address": "南町４丁目",
        "city": "上富良野町",
        "number": "2-7",
        "status": "not_yet"
      }
    },
    {
      "type": "Feature",
      "geometry": {
        "type": "Point",
        "coordinates": [
          142.2024129,
          42.7711867
        ]
      },
      "properties": {
        "id": "cced9a7b-1603-4d52-9bbc-37d04c6ebe98",
        "name": "平丘入口穂別平丘",
        "address": "穂別平丘64番地15",
        "city": "むかわ町",
        "number": "11-72",
        "status": "not_yet"
      }
    },
    {
      "type": "Feature",
      "geometry": {
        "type": "Point",
        "coordinates": [
          141.6511812,
          42.831971
        ]
      },
      "properties": {
        "id": "ccedecea-daa8-4385-b70e-8a4ecdb3b88d",
        "name": "市営住宅いずみ団地２号棟前（サツドラ向）",
        "address": "末広８丁目",
        "city": "千歳市",
        "number": "15-3",
        "status": "not_yet"
      }
    },
    {
      "type": "Feature",
      "geometry": {
        "type": "Point",
        "coordinates": [
          142.8808451,
          43.01305744
        ]
      },
      "properties": {
        "id": "ccee5f2d-48b6-46be-b6ea-b40c481de9d7",
        "name": "サツドラ駐車場",
        "address": null,
        "city": "清水町",
        "number": "1-5",
        "status": "not_yet"
      }
    },
    {
      "type": "Feature",
      "geometry": {
        "type": "Point",
        "coordinates": [
          142.4855824,
          43.251971
        ]
      },
      "properties": {
        "id": "ccf37609-8c1c-490c-8cb2-5a746121f779",
        "name": "家畜センター前共栄",
        "address": null,
        "city": "富良野市",
        "number": "17-2",
        "status": "not_yet"
      }
    },
    {
      "type": "Feature",
      "geometry": {
        "type": "Point",
        "coordinates": [
          142.4636484,
          44.3591502
        ]
      },
      "properties": {
        "id": "ccf85f15-41a4-44c3-a524-91ff9ba15ad0",
        "name": "masked",
        "address": "大通北3",
        "city": "名寄市",
        "number": "1-5",
        "status": "not_yet"
      }
    },
    {
      "type": "Feature",
      "geometry": {
        "type": "Point",
        "coordinates": [
          140.8622746,
          41.7674436
        ]
      },
      "properties": {
        "id": "cd012452-8f20-4e41-9244-e780ff5894a7",
        "name": "銭亀沢中学校",
        "address": "函館市豊原町140",
        "city": "函館市",
        "number": "354",
        "status": "not_yet"
      }
    },
    {
      "type": "Feature",
      "geometry": {
        "type": "Point",
        "coordinates": [
          141.0644514,
          42.375782
        ]
      },
      "properties": {
        "id": "cd064885-6a2b-4b6b-8c53-49d65a97d3ce",
        "name": "新生町1丁目24番地",
        "address": "ことぶき公園前",
        "city": "登別市",
        "number": "千代の台集会所",
        "status": "done"
      }
    },
    {
      "type": "Feature",
      "geometry": {
        "type": "Point",
        "coordinates": [
          143.35437,
          44.356373
        ]
      },
      "properties": {
        "id": "cd0fc7cb-3f98-46da-a4d9-36d4d0712b03",
        "name": "masked",
        "address": "masked",
        "city": "紋別市",
        "number": "73",
        "status": "not_yet"
      }
    },
    {
      "type": "Feature",
      "geometry": {
        "type": "Point",
        "coordinates": [
          140.78231,
          41.7842563
        ]
      },
      "properties": {
        "id": "cd15c798-5130-487b-9665-8a667f27160e",
        "name": "市営住宅深堀団地",
        "address": "函館市深堀町31",
        "city": "函館市",
        "number": "297",
        "status": "not_yet"
      }
    },
    {
      "type": "Feature",
      "geometry": {
        "type": "Point",
        "coordinates": [
          141.39856,
          43.067799
        ]
      },
      "properties": {
        "id": "cd1618ca-b18f-4ee3-b6a1-738140bf053b",
        "name": "菊水元町青空公園",
        "address": "白石区菊水元町２条１丁目 菊水元町青空公園",
        "city": "札幌市",
        "number": "05-08",
        "status": "done"
      }
    },
    {
      "type": "Feature",
      "geometry": {
        "type": "Point",
        "coordinates": [
          144.960434,
          43.185276
        ]
      },
      "properties": {
        "id": "cd16fe92-3741-45db-8a67-518c0855eda1",
        "name": "付近",
        "address": "茶内西15線111番地",
        "city": "浜中町",
        "number": "53",
        "status": "not_yet"
      }
    },
    {
      "type": "Feature",
      "geometry": {
        "type": "Point",
        "coordinates": [
          142.39387855,
          44.29639522
        ]
      },
      "properties": {
        "id": "cd183266-397d-4fa0-9a2a-ea2ff320bf74",
        "name": "25線基線北西角新井田敷地",
        "address": "風連町瑞生",
        "city": "名寄市",
        "number": "28-2",
        "status": "not_yet"
      }
    },
    {
      "type": "Feature",
      "geometry": {
        "type": "Point",
        "coordinates": [
          143.53950977,
          42.81577172
        ]
      },
      "properties": {
        "id": "cd189759-b426-4130-b2ab-12a7f814ca1b",
        "name": "豊頃消防団",
        "address": null,
        "city": "豊頃町",
        "number": "5-3",
        "status": "done"
      }
    },
    {
      "type": "Feature",
      "geometry": {
        "type": "Point",
        "coordinates": [
          141.371769,
          43.1389201
        ]
      },
      "properties": {
        "id": "cd1feef6-9a8a-4caa-b9c9-0fdb480378f9",
        "name": "篠路開拓公園",
        "address": "北区篠路１条１０丁目 篠路開拓公園",
        "city": "札幌市",
        "number": "26-03",
        "status": "done"
      }
    },
    {
      "type": "Feature",
      "geometry": {
        "type": "Point",
        "coordinates": [
          140.119202,
          42.429665
        ]
      },
      "properties": {
        "id": "cd231f22-803b-4e1e-b6b2-34d367baee7e",
        "name": "4",
        "address": "住吉２７０番地の４８",
        "city": "今金町",
        "number": "4",
        "status": "not_yet"
      }
    },
    {
      "type": "Feature",
      "geometry": {
        "type": "Point",
        "coordinates": [
          141.5995421,
          42.6465402
        ]
      },
      "properties": {
        "id": "cd24640b-f93c-4b9f-b926-6569fc130409",
        "name": "春日2丁目公園北面中央",
        "address": "春日町2丁目1春日2丁目公園北面中央",
        "city": "苫小牧市",
        "number": "56",
        "status": "done"
      }
    },
    {
      "type": "Feature",
      "geometry": {
        "type": "Point",
        "coordinates": [
          141.92425301,
          43.68430807
        ]
      },
      "properties": {
        "id": "cd27f786-f85d-4f90-84f4-204badee0d37",
        "name": "7区研修センター前",
        "address": "メム",
        "city": "妹背牛町",
        "number": "6",
        "status": "not_yet"
      }
    },
    {
      "type": "Feature",
      "geometry": {
        "type": "Point",
        "coordinates": [
          141.521111,
          43.0960761
        ]
      },
      "properties": {
        "id": "cd2a9042-6ba4-4215-99fa-3f741fbe7e38",
        "name": "江別第二小学校前",
        "address": "野幌代々木町３９",
        "city": "江別市",
        "number": "118",
        "status": "done"
      }
    },
    {
      "type": "Feature",
      "geometry": {
        "type": "Point",
        "coordinates": [
          141.3544422,
          43.0618912
        ]
      },
      "properties": {
        "id": "cd2f54be-dedd-4f35-b916-e7c210448b93",
        "name": "札幌市役所西側駐車場",
        "address": "中央区北１条西２丁目 札幌市役所西側駐車場",
        "city": "札幌市",
        "number": "16-07",
        "status": "done"
      }
    },
    {
      "type": "Feature",
      "geometry": {
        "type": "Point",
        "coordinates": [
          140.7580865,
          41.8002864
        ]
      },
      "properties": {
        "id": "cd3a19bb-e1e2-4bec-8245-d281a1c5535f",
        "name": "本通町会遊園地",
        "address": "函館市本通１丁目26",
        "city": "函館市",
        "number": "220",
        "status": "done"
      }
    },
    {
      "type": "Feature",
      "geometry": {
        "type": "Point",
        "coordinates": [
          142.053851,
          43.7237
        ]
      },
      "properties": {
        "id": "cd4229c7-9049-4232-a369-ed23599eb2d2",
        "name": "nan",
        "address": "市役所前",
        "city": "深川市",
        "number": "42",
        "status": "not_yet"
      }
    },
    {
      "type": "Feature",
      "geometry": {
        "type": "Point",
        "coordinates": [
          142.170709,
          43.531509
        ]
      },
      "properties": {
        "id": "cd437fc4-26cf-44df-bf31-287dca13b64d",
        "name": "渓水湯向",
        "address": "北７条西４丁目４−７",
        "city": "芦別市",
        "number": "34",
        "status": "not_yet"
      }
    },
    {
      "type": "Feature",
      "geometry": {
        "type": "Point",
        "coordinates": [
          143.0709,
          44.19412
        ]
      },
      "properties": {
        "id": "cd469431-e25d-4672-9ad3-9153a0397313",
        "name": "文化センター前",
        "address": "栄町",
        "city": "滝上町",
        "number": "6-1",
        "status": "done"
      }
    },
    {
      "type": "Feature",
      "geometry": {
        "type": "Point",
        "coordinates": [
          141.20817661,
          45.1139961
        ]
      },
      "properties": {
        "id": "cd481e64-5f8f-46e6-a220-d796f8050913",
        "name": "政泊消防格納庫横",
        "address": "政泊",
        "city": "利尻町",
        "number": "19",
        "status": "not_yet"
      }
    },
    {
      "type": "Feature",
      "geometry": {
        "type": "Point",
        "coordinates": [
          141.57675,
          42.88032
        ]
      },
      "properties": {
        "id": "cd4a1bae-b826-4b08-bc18-e5110e5a4376",
        "name": "さかえ公園内",
        "address": "漁町",
        "city": "恵庭市",
        "number": "40",
        "status": "done"
      }
    },
    {
      "type": "Feature",
      "geometry": {
        "type": "Point",
        "coordinates": [
          140.8224148,
          42.9478932
        ]
      },
      "properties": {
        "id": "cd54294b-1cc7-4222-9788-8af66160e9ea",
        "name": "大和会館入口",
        "address": null,
        "city": "倶知安町",
        "number": "48",
        "status": "done"
      }
    },
    {
      "type": "Feature",
      "geometry": {
        "type": "Point",
        "coordinates": [
          141.285431,
          43.100311
        ]
      },
      "properties": {
        "id": "cd54d43d-551e-45f8-bb99-c5122744391f",
        "name": "鉄興公園",
        "address": "西区発寒１２条１１丁目４番 鉄興公園",
        "city": "札幌市",
        "number": "26-04",
        "status": "done"
      }
    },
    {
      "type": "Feature",
      "geometry": {
        "type": "Point",
        "coordinates": [
          142.3957739,
          43.3465852
        ]
      },
      "properties": {
        "id": "cd586e5c-108a-4ab0-acd3-ec48a93b906d",
        "name": "瑞穂コミュニティセンター瑞穂町2番",
        "address": null,
        "city": "富良野市",
        "number": "6-3",
        "status": "not_yet"
      }
    },
    {
      "type": "Feature",
      "geometry": {
        "type": "Point",
        "coordinates": [
          143.6121623,
          43.7845747
        ]
      },
      "properties": {
        "id": "cd5a63c9-34a2-4d3a-9b48-a0a5ee5f98a8",
        "name": "さかえ会館",
        "address": "留辺蘂町栄町92番地5",
        "city": "北見市",
        "number": "留辺蘂第4",
        "status": "not_yet"
      }
    },
    {
      "type": "Feature",
      "geometry": {
        "type": "Point",
        "coordinates": [
          140.7400058,
          41.7962758
        ]
      },
      "properties": {
        "id": "cd5ef294-d759-47f0-8e02-84a248981df5",
        "name": "道営住宅大川町団地（新興通面）",
        "address": "函館市大川町１",
        "city": "函館市",
        "number": "63",
        "status": "done"
      }
    },
    {
      "type": "Feature",
      "geometry": {
        "type": "Point",
        "coordinates": [
          141.3606024,
          43.019158
        ]
      },
      "properties": {
        "id": "cd6202ac-3cdf-487c-afae-65134935901f",
        "name": "澄川こぶし公園",
        "address": "南区澄川１条１丁目３ 澄川こぶし公園",
        "city": "札幌市",
        "number": "02-04",
        "status": "done"
      }
    },
    {
      "type": "Feature",
      "geometry": {
        "type": "Point",
        "coordinates": [
          145.099747,
          43.154148
        ]
      },
      "properties": {
        "id": "cd63a0ad-6295-4034-8ebb-772a7744e53d",
        "name": "（浜中運輸）前",
        "address": "浜中桜西24番地",
        "city": "浜中町",
        "number": "35",
        "status": "not_yet"
      }
    },
    {
      "type": "Feature",
      "geometry": {
        "type": "Point",
        "coordinates": [
          143.187714,
          42.949256
        ]
      },
      "properties": {
        "id": "cd72f69e-3f4b-4303-bce2-e2daef4b0094",
        "name": null,
        "address": "北海道河東郡音更町南鈴蘭北6-12",
        "city": "音更町",
        "number": "59",
        "status": "not_yet"
      }
    },
    {
      "type": "Feature",
      "geometry": {
        "type": "Point",
        "coordinates": [
          143.2292154,
          42.8990566
        ]
      },
      "properties": {
        "id": "cd74f0fa-c33b-4cdf-985f-df0df856a6d9",
        "name": "西和会館前",
        "address": "北海道中川郡幕別町字依田231番地２",
        "city": "幕別町",
        "number": "63",
        "status": "not_yet"
      }
    },
    {
      "type": "Feature",
      "geometry": {
        "type": "Point",
        "coordinates": [
          141.96788,
          43.636463
        ]
      },
      "properties": {
        "id": "cd814741-b02c-4e72-96e5-44e51609d166",
        "name": "江部乙東陽地区福祉会館前",
        "address": "江部乙東陽地区福祉会館前",
        "city": "滝川市",
        "number": "12-6",
        "status": "not_yet"
      }
    },
    {
      "type": "Feature",
      "geometry": {
        "type": "Point",
        "coordinates": [
          141.314438,
          43.093044
        ]
      },
      "properties": {
        "id": "cd89f69f-3080-4d3f-b21f-bc6552f6ad41",
        "name": "八軒ライラック公園",
        "address": "西区八軒９条西３丁目３番 八軒ライラック公園",
        "city": "札幌市",
        "number": "21-05",
        "status": "done"
      }
    },
    {
      "type": "Feature",
      "geometry": {
        "type": "Point",
        "coordinates": [
          140.8014153,
          41.7770145
        ]
      },
      "properties": {
        "id": "cd8acd1d-d849-4cb7-9421-5af4fd350a53",
        "name": "空港緑地高松ふれあい広場",
        "address": "函館市高松町105",
        "city": "函館市",
        "number": "328",
        "status": "not_yet"
      }
    },
    {
      "type": "Feature",
      "geometry": {
        "type": "Point",
        "coordinates": [
          141.403687,
          43.085541
        ]
      },
      "properties": {
        "id": "cd8c80fb-d6cc-4cae-8456-c05d9cc20458",
        "name": "東苗穂すみれ公園　南側",
        "address": "東区東苗穂３条２丁目６番 東苗穂すみれ公園　南側",
        "city": "札幌市",
        "number": "39-06",
        "status": "done"
      }
    },
    {
      "type": "Feature",
      "geometry": {
        "type": "Point",
        "coordinates": [
          140.07641315,
          41.80556568
        ]
      },
      "properties": {
        "id": "cd8d6293-2dde-4ca1-b4f6-c93239351c42",
        "name": "町道大崎漁港関連道（大崎入口後）",
        "address": "大崎  町道大崎漁港関連道(大崎入口後)",
        "city": "上ノ国町",
        "number": "6-51",
        "status": "not_yet"
      }
    },
    {
      "type": "Feature",
      "geometry": {
        "type": "Point",
        "coordinates": [
          142.36626,
          45.11897
        ]
      },
      "properties": {
        "id": "cd938f8d-285f-4a5a-a5d9-6b75b7b49bfb",
        "name": "町国保病院前",
        "address": "旭ヶ丘3丁目",
        "city": "浜頓別町",
        "number": "16",
        "status": "not_yet"
      }
    },
    {
      "type": "Feature",
      "geometry": {
        "type": "Point",
        "coordinates": [
          143.192364,
          42.884817
        ]
      },
      "properties": {
        "id": "cd93fa25-67b3-4fbb-9739-261dc97afcb5",
        "name": "帯広高等看護学院北東角道路沿",
        "address": "帯広高等看護学院北東角道路沿",
        "city": "帯広市",
        "number": "100",
        "status": "done"
      }
    },
    {
      "type": "Feature",
      "geometry": {
        "type": "Point",
        "coordinates": [
          143.31907511,
          42.22328974
        ]
      },
      "properties": {
        "id": "cda2839f-1c1b-465c-8df3-7b2d484707bd",
        "name": "派出所横",
        "address": "音調津",
        "city": "広尾町",
        "number": "7-42",
        "status": "not_yet"
      }
    },
    {
      "type": "Feature",
      "geometry": {
        "type": "Point",
        "coordinates": [
          140.248267,
          41.5009633
        ]
      },
      "properties": {
        "id": "cda2bb3c-02be-4151-8ddc-c93be357ab4e",
        "name": null,
        "address": "三岳 409",
        "city": "福島町",
        "number": "32",
        "status": "not_yet"
      }
    },
    {
      "type": "Feature",
      "geometry": {
        "type": "Point",
        "coordinates": [
          141.676559,
          45.419121
        ]
      },
      "properties": {
        "id": "cdaa74ee-c4b1-42fe-be53-d14697154335",
        "name": "中央公園（山側）",
        "address": "稚内市中央２丁目１０番 中央公園（山側）",
        "city": "稚内市",
        "number": "2",
        "status": "done"
      }
    },
    {
      "type": "Feature",
      "geometry": {
        "type": "Point",
        "coordinates": [
          141.3796374,
          43.0590168
        ]
      },
      "properties": {
        "id": "cdb5a119-6baa-4963-93ba-df6ec4f90fc4",
        "name": "若葉公園",
        "address": "白石区菊水７条２丁目 若葉公園",
        "city": "札幌市",
        "number": "16-02",
        "status": "done"
      }
    },
    {
      "type": "Feature",
      "geometry": {
        "type": "Point",
        "coordinates": [
          141.90715,
          43.561207
        ]
      },
      "properties": {
        "id": "cdb75e69-4846-4d54-82ac-c77e20cec837",
        "name": "本町３丁目４番　雨竜園職員駐車場南側",
        "address": "本町3丁目4番　雨竜園職員駐車場南側",
        "city": "滝川市",
        "number": "5-3",
        "status": "done"
      }
    },
    {
      "type": "Feature",
      "geometry": {
        "type": "Point",
        "coordinates": [
          144.301222,
          43.9332327
        ]
      },
      "properties": {
        "id": "cdbdcfe2-ed33-4693-98ab-0473a65c1a3c",
        "name": "⼭⾥",
        "address": "⼭⾥",
        "city": "網走市",
        "number": "112",
        "status": "not_yet"
      }
    },
    {
      "type": "Feature",
      "geometry": {
        "type": "Point",
        "coordinates": [
          143.146554,
          42.919072
        ]
      },
      "properties": {
        "id": "cdbf4ec1-094d-4597-9f42-8120cc83ce59",
        "name": "さくら児童公園南西角",
        "address": "さくら児童公園南西角",
        "city": "帯広市",
        "number": "186",
        "status": "done"
      }
    },
    {
      "type": "Feature",
      "geometry": {
        "type": "Point",
        "coordinates": [
          143.199507,
          42.949337
        ]
      },
      "properties": {
        "id": "cdc5a200-fe5e-4845-8a10-c51873fafe21",
        "name": null,
        "address": "北海道河東郡音更町南鈴蘭北1-1-1",
        "city": "音更町",
        "number": "56",
        "status": "not_yet"
      }
    },
    {
      "type": "Feature",
      "geometry": {
        "type": "Point",
        "coordinates": [
          145.578558,
          43.327527
        ]
      },
      "properties": {
        "id": "cdd367c8-6be0-4d18-b76d-25f387cd614a",
        "name": "北斗小学校入口校門左側",
        "address": "北斗町3-5",
        "city": "根室市",
        "number": "2-2",
        "status": "not_yet"
      }
    },
    {
      "type": "Feature",
      "geometry": {
        "type": "Point",
        "coordinates": [
          141.73685074,
          43.36624889
        ]
      },
      "properties": {
        "id": "cddcccb4-7c7e-4a91-ac44-648221a72056",
        "name": null,
        "address": null,
        "city": "月形町",
        "number": "16",
        "status": "done"
      }
    },
    {
      "type": "Feature",
      "geometry": {
        "type": "Point",
        "coordinates": [
          140.57247162,
          42.97953486
        ]
      },
      "properties": {
        "id": "cde4c342-6ae5-4a83-a850-798a0a517da7",
        "name": null,
        "address": null,
        "city": "共和町",
        "number": "4-20",
        "status": "not_yet"
      }
    },
    {
      "type": "Feature",
      "geometry": {
        "type": "Point",
        "coordinates": [
          140.8584222,
          41.7607634
        ]
      },
      "properties": {
        "id": "cde5efdc-924b-41e9-b9d8-b8731b0ffaed",
        "name": "田中歯科クリニック駐車場",
        "address": "函館市古川町13",
        "city": "函館市",
        "number": "352",
        "status": "not_yet"
      }
    },
    {
      "type": "Feature",
      "geometry": {
        "type": "Point",
        "coordinates": [
          142.577627,
          44.938991
        ]
      },
      "properties": {
        "id": "cde8dc74-6fab-43bc-b97e-2e6d4d277c8e",
        "name": "masked",
        "address": "豊浜",
        "city": "枝幸町",
        "number": "4-23",
        "status": "not_yet"
      }
    },
    {
      "type": "Feature",
      "geometry": {
        "type": "Point",
        "coordinates": [
          141.395737,
          43.035763
        ]
      },
      "properties": {
        "id": "cdecf589-11ec-4c82-9ffd-8453a866a1e9",
        "name": "北海道札幌月寒高等学校",
        "address": "豊平区月寒東１条３丁目 北海道札幌月寒高等学校",
        "city": "札幌市",
        "number": "07-01",
        "status": "done"
      }
    },
    {
      "type": "Feature",
      "geometry": {
        "type": "Point",
        "coordinates": [
          141.3897481,
          43.5891802
        ]
      },
      "properties": {
        "id": "cded2052-b4af-4351-82e0-08399d7ad512",
        "name": "北石狩農協",
        "address": "浜益区川下北石狩農協",
        "city": "石狩市",
        "number": "77",
        "status": "not_yet"
      }
    },
    {
      "type": "Feature",
      "geometry": {
        "type": "Point",
        "coordinates": [
          140.78824997,
          42.7642171
        ]
      },
      "properties": {
        "id": "cdfd1a69-4b6e-4dd2-9ad4-b6b076fc05c2",
        "name": null,
        "address": null,
        "city": "真狩村",
        "number": "11",
        "status": "done"
      }
    },
    {
      "type": "Feature",
      "geometry": {
        "type": "Point",
        "coordinates": [
          140.427963,
          41.676365
        ]
      },
      "properties": {
        "id": "ce05c8a7-ef2e-46b3-accf-348db070931f",
        "name": "第7投票区 ポスター掲示場の設置場所",
        "address": "木古内町字 木古内207番地94",
        "city": "木古内町",
        "number": "7-23",
        "status": "done"
      }
    },
    {
      "type": "Feature",
      "geometry": {
        "type": "Point",
        "coordinates": [
          145.268173,
          43.208107
        ]
      },
      "properties": {
        "id": "ce0d9f0d-a7cf-4a08-8d3e-710a949408ce",
        "name": "前",
        "address": "厚陽151番地",
        "city": "浜中町",
        "number": "66",
        "status": "not_yet"
      }
    },
    {
      "type": "Feature",
      "geometry": {
        "type": "Point",
        "coordinates": [
          141.945084,
          45.512989
        ]
      },
      "properties": {
        "id": "ce0ed092-46b6-434e-b835-992a1336768a",
        "name": "大岬小学校横",
        "address": "稚内市宗谷岬１２番１２号 大岬小学校横",
        "city": "稚内市",
        "number": "136",
        "status": "done"
      }
    },
    {
      "type": "Feature",
      "geometry": {
        "type": "Point",
        "coordinates": [
          141.5519147,
          42.9630176
        ]
      },
      "properties": {
        "id": "ce103abb-7ab3-4b2a-8dec-911b5954ca37",
        "name": "あやめ公園(東側)",
        "address": "泉町3丁目54番地",
        "city": "北広島市",
        "number": "62",
        "status": "done"
      }
    },
    {
      "type": "Feature",
      "geometry": {
        "type": "Point",
        "coordinates": [
          142.2961985,
          42.7235926
        ]
      },
      "properties": {
        "id": "ce123899-6ff1-41ed-8839-6df90367e876",
        "name": "町営住宅池売団地入口",
        "address": "振内町90番地3",
        "city": "平取町",
        "number": "33",
        "status": "not_yet"
      }
    },
    {
      "type": "Feature",
      "geometry": {
        "type": "Point",
        "coordinates": [
          141.761047,
          43.181839
        ]
      },
      "properties": {
        "id": "ce145b38-8b3f-43ed-89ad-a14694ad9ecd",
        "name": "コープさっぽろ岩見沢南店前",
        "address": "美園6条8丁目91-1",
        "city": "岩見沢市",
        "number": "21",
        "status": "done"
      }
    },
    {
      "type": "Feature",
      "geometry": {
        "type": "Point",
        "coordinates": [
          141.3661711,
          43.0648407
        ]
      },
      "properties": {
        "id": "ce1e2327-d422-4b0a-9f0d-0d4a221e5924",
        "name": "東7丁目緑地",
        "address": "中央区北１条東７丁目 東7丁目緑地",
        "city": "札幌市",
        "number": "13-07",
        "status": "done"
      }
    },
    {
      "type": "Feature",
      "geometry": {
        "type": "Point",
        "coordinates": [
          140.7363052,
          41.7782854
        ]
      },
      "properties": {
        "id": "ce2501da-0329-4466-8f2a-ddfc3b1edad0",
        "name": "中部小学校正門横",
        "address": "函館市新川町30",
        "city": "函館市",
        "number": "34",
        "status": "not_yet"
      }
    },
    {
      "type": "Feature",
      "geometry": {
        "type": "Point",
        "coordinates": [
          144.982864,
          43.190639
        ]
      },
      "properties": {
        "id": "ce25acd6-12bc-44a2-8e71-18bc7c1a4595",
        "name": "（茶内第三母と子の家）入口",
        "address": "茶内西13線85番地",
        "city": "浜中町",
        "number": "54",
        "status": "not_yet"
      }
    },
    {
      "type": "Feature",
      "geometry": {
        "type": "Point",
        "coordinates": [
          141.7521479,
          43.1763952
        ]
      },
      "properties": {
        "id": "ce2d667e-43ac-45eb-9a5a-5e1d02fd9ecb",
        "name": "南コミュニティセンター入口",
        "address": "南町80-3",
        "city": "岩見沢市",
        "number": "30",
        "status": "done"
      }
    },
    {
      "type": "Feature",
      "geometry": {
        "type": "Point",
        "coordinates": [
          141.66363,
          42.8275128
        ]
      },
      "properties": {
        "id": "ce2f655e-f190-4f7b-9ba7-11c6e07aef7e",
        "name": "鉄東コミュニティセンター前",
        "address": "青葉5丁目",
        "city": "千歳市",
        "number": "10-4",
        "status": "not_yet"
      }
    },
    {
      "type": "Feature",
      "geometry": {
        "type": "Point",
        "coordinates": [
          142.2809985,
          42.8022513
        ]
      },
      "properties": {
        "id": "ce307cbf-a263-4672-a0f8-b4c0c7992c51",
        "name": "安住生活館前穂別安住",
        "address": "穂別安住79番地",
        "city": "むかわ町",
        "number": "11-74",
        "status": "not_yet"
      }
    },
    {
      "type": "Feature",
      "geometry": {
        "type": "Point",
        "coordinates": [
          142.0302524,
          43.7186714
        ]
      },
      "properties": {
        "id": "ce35493d-7a58-43e8-9697-b27de9e77a20",
        "name": "masked",
        "address": "錦町5番",
        "city": "深川市",
        "number": "11",
        "status": "not_yet"
      }
    },
    {
      "type": "Feature",
      "geometry": {
        "type": "Point",
        "coordinates": [
          141.259979,
          43.121124
        ]
      },
      "properties": {
        "id": "ce38b6b1-2c44-4af2-a9c7-0e18c7785be7",
        "name": "稲積小学校前",
        "address": "手稲区前田５条７丁目 稲積小学校前",
        "city": "札幌市",
        "number": "23-01",
        "status": "done"
      }
    },
    {
      "type": "Feature",
      "geometry": {
        "type": "Point",
        "coordinates": [
          144.454683,
          43.840853
        ]
      },
      "properties": {
        "id": "ce3c37c7-1bb9-4c13-b6fa-d8f3116e8fbd",
        "name": "共和第1・共和幹線道路交点付近",
        "address": "字共和",
        "city": "小清水町",
        "number": "16",
        "status": "not_yet"
      }
    },
    {
      "type": "Feature",
      "geometry": {
        "type": "Point",
        "coordinates": [
          144.9848549,
          43.5473546
        ]
      },
      "properties": {
        "id": "ce3ccb0d-c744-4a37-b6e8-294c32185d48",
        "name": "東小学校グラウンド丁字路",
        "address": "東7条南7丁目",
        "city": "中標津町",
        "number": "2-9",
        "status": "not_yet"
      }
    },
    {
      "type": "Feature",
      "geometry": {
        "type": "Point",
        "coordinates": [
          141.4632669,
          43.1787554
        ]
      },
      "properties": {
        "id": "ce41249c-a073-4363-ada3-52b8833690cc",
        "name": "南4号19線交点横",
        "address": null,
        "city": "当別町",
        "number": "9-4　南4号19線交点横",
        "status": "done"
      }
    },
    {
      "type": "Feature",
      "geometry": {
        "type": "Point",
        "coordinates": [
          141.0166928,
          43.1798633
        ]
      },
      "properties": {
        "id": "ce57f7ee-ed27-42ae-a6da-a2f526d7e0ed",
        "name": "JR住宅下",
        "address": "潮見台1-13",
        "city": "小樽市",
        "number": "141",
        "status": "not_yet"
      }
    },
    {
      "type": "Feature",
      "geometry": {
        "type": "Point",
        "coordinates": [
          null,
          null
        ]
      },
      "properties": {
        "id": "ce658434-d841-4f1d-b1c9-409d3bd73898",
        "name": "道々美川黒松内線教員住宅横",
        "address": "字中ノ川",
        "city": "黒松内町",
        "number": "43",
        "status": "not_yet"
      }
    },
    {
      "type": "Feature",
      "geometry": {
        "type": "Point",
        "coordinates": [
          143.192389,
          42.930251
        ]
      },
      "properties": {
        "id": "ce6af827-0a1f-47fb-9110-a718ec1419e7",
        "name": "北栄小学校正門北側フェンス前",
        "address": "北栄小学校正門北側フェンス前",
        "city": "帯広市",
        "number": "40",
        "status": "done"
      }
    },
    {
      "type": "Feature",
      "geometry": {
        "type": "Point",
        "coordinates": [
          141.4936978,
          43.02611
        ]
      },
      "properties": {
        "id": "ce6c75a2-8290-4b44-a2d3-bc13d01e2a47",
        "name": "もみじ台しらかば公園",
        "address": "厚別区もみじ台南３丁目 もみじ台しらかば公園",
        "city": "札幌市",
        "number": "14-02",
        "status": "done"
      }
    },
    {
      "type": "Feature",
      "geometry": {
        "type": "Point",
        "coordinates": [
          142.57953644,
          44.9362787
        ]
      },
      "properties": {
        "id": "ce70a865-ba2b-4085-9da3-050d93d180cd",
        "name": "枝幸市街地・下幌別　旧職業安定所付近",
        "address": "枝幸市街地　旧職業安定所付近",
        "city": "枝幸町",
        "number": "1-10",
        "status": "not_yet"
      }
    },
    {
      "type": "Feature",
      "geometry": {
        "type": "Point",
        "coordinates": [
          145.5772414,
          43.3336248
        ]
      },
      "properties": {
        "id": "ce75c028-0ffd-4b11-b79b-68996ed54793",
        "name": "桜橋交番跡地横道路",
        "address": "本町1-7",
        "city": "根室市",
        "number": "3-3",
        "status": "not_yet"
      }
    },
    {
      "type": "Feature",
      "geometry": {
        "type": "Point",
        "coordinates": [
          142.62270927,
          42.22592743
        ]
      },
      "properties": {
        "id": "ce7c832d-e3bc-4cd1-be08-ac57ebb0f7f8",
        "name": "鳧舞生活館前",
        "address": "三石鳧舞",
        "city": "新ひだか町",
        "number": "27-67",
        "status": "done"
      }
    },
    {
      "type": "Feature",
      "geometry": {
        "type": "Point",
        "coordinates": [
          144.3966907,
          43.0190665
        ]
      },
      "properties": {
        "id": "ce7e89ff-fbba-426b-9b3b-da01d4f40e0c",
        "name": "公立大学南門付近（愛国北１号通沿）",
        "address": "芦野４丁目１番地先",
        "city": "釧路市",
        "number": "146",
        "status": "done"
      }
    },
    {
      "type": "Feature",
      "geometry": {
        "type": "Point",
        "coordinates": [
          142.382386,
          43.8026264
        ]
      },
      "properties": {
        "id": "ce83ffae-8a15-4e17-a9ac-2c70a5de86f6",
        "name": "春光小学校さく(正面側)",
        "address": "末広1条1丁目",
        "city": "旭川市",
        "number": "4430",
        "status": "done"
      }
    },
    {
      "type": "Feature",
      "geometry": {
        "type": "Point",
        "coordinates": [
          142.05807552,
          43.52436683
        ]
      },
      "properties": {
        "id": "ce86fab1-0aff-4fda-8eb2-c009be7e1067",
        "name": "上歌ちびっこ広場",
        "address": "歌志内市",
        "city": "歌志内市",
        "number": "8",
        "status": "not_yet"
      }
    },
    {
      "type": "Feature",
      "geometry": {
        "type": "Point",
        "coordinates": [
          143.24429512,
          43.16095935
        ]
      },
      "properties": {
        "id": "ce97f273-1c9d-4565-9335-8d386da0dc70",
        "name": "旧バスセンター前",
        "address": "旧バスセンタ-前",
        "city": "士幌町",
        "number": "5",
        "status": "not_yet"
      }
    },
    {
      "type": "Feature",
      "geometry": {
        "type": "Point",
        "coordinates": [
          141.87898636,
          43.72682434
        ]
      },
      "properties": {
        "id": "ce99513e-e17d-4555-8564-9fdc9e0b9540",
        "name": null,
        "address": null,
        "city": "北竜町",
        "number": "7",
        "status": "not_yet"
      }
    },
    {
      "type": "Feature",
      "geometry": {
        "type": "Point",
        "coordinates": [
          139.8194815,
          42.2298497
        ]
      },
      "properties": {
        "id": "cea5567d-fe2d-4b2d-b1cf-4a77129e0ce5",
        "name": "masked",
        "address": "大成区都49",
        "city": "せたな町",
        "number": "47",
        "status": "not_yet"
      }
    },
    {
      "type": "Feature",
      "geometry": {
        "type": "Point",
        "coordinates": [
          141.8571854,
          44.04996644
        ]
      },
      "properties": {
        "id": "cea79005-5aef-4058-9df3-233b9f5926eb",
        "name": "masked",
        "address": null,
        "city": "小平町",
        "number": "4-7",
        "status": "not_yet"
      }
    },
    {
      "type": "Feature",
      "geometry": {
        "type": "Point",
        "coordinates": [
          143.1838382,
          42.8976829
        ]
      },
      "properties": {
        "id": "ceaffe10-1d6c-44bf-97e7-b781106a0a58",
        "name": "トンネル公園西側止まれ標識10m東側",
        "address": "トンネル公園西側止まれ標識10m東側",
        "city": "帯広市",
        "number": "166",
        "status": "not_yet"
      }
    },
    {
      "type": "Feature",
      "geometry": {
        "type": "Point",
        "coordinates": [
          141.65548325,
          43.32417864
        ]
      },
      "properties": {
        "id": "ceb3dfad-efb1-45e7-89b9-d9492842352c",
        "name": null,
        "address": null,
        "city": "月形町",
        "number": "9",
        "status": "done"
      }
    },
    {
      "type": "Feature",
      "geometry": {
        "type": "Point",
        "coordinates": [
          145.279587,
          43.180168
        ]
      },
      "properties": {
        "id": "ceb54e05-7d33-4a42-92bd-b0439d6fac2f",
        "name": "（旧恵茶人集会所）横",
        "address": "恵茶人217番地",
        "city": "浜中町",
        "number": "33",
        "status": "not_yet"
      }
    },
    {
      "type": "Feature",
      "geometry": {
        "type": "Point",
        "coordinates": [
          141.4286889,
          43.0657159
        ]
      },
      "properties": {
        "id": "ceb70033-fc3c-46a8-ac36-a1d9161738b1",
        "name": "北郷公園",
        "address": "白石区北郷８条９丁目 北郷公園",
        "city": "札幌市",
        "number": "31-02",
        "status": "done"
      }
    },
    {
      "type": "Feature",
      "geometry": {
        "type": "Point",
        "coordinates": [
          140.87249279,
          42.73487763
        ]
      },
      "properties": {
        "id": "ceb766ff-fec8-4ddd-a640-07b6c90f4612",
        "name": null,
        "address": null,
        "city": "留寿都村",
        "number": "6",
        "status": "done"
      }
    },
    {
      "type": "Feature",
      "geometry": {
        "type": "Point",
        "coordinates": [
          141.4596277,
          43.010485
        ]
      },
      "properties": {
        "id": "ceb85ddf-b9d0-4abc-9701-606da8af7c58",
        "name": "平岡てんとう虫公園",
        "address": "清田区平岡７条３丁目 平岡てんとう虫公園",
        "city": "札幌市",
        "number": "03-05",
        "status": "done"
      }
    },
    {
      "type": "Feature",
      "geometry": {
        "type": "Point",
        "coordinates": [
          141.4301127,
          42.993856
        ]
      },
      "properties": {
        "id": "ceb9e5d9-c5e5-40f2-871f-e214d441d83e",
        "name": "清田わんぱく公園",
        "address": "清田区清田６条２丁目 清田わんぱく公園",
        "city": "札幌市",
        "number": "11-07",
        "status": "done"
      }
    },
    {
      "type": "Feature",
      "geometry": {
        "type": "Point",
        "coordinates": [
          141.5664586,
          42.9924094
        ]
      },
      "properties": {
        "id": "cebb96a2-95c0-4090-960f-841d10e81713",
        "name": "つくし公園（北側）",
        "address": "東共栄1丁目5番地4",
        "city": "北広島市",
        "number": "83",
        "status": "done"
      }
    },
    {
      "type": "Feature",
      "geometry": {
        "type": "Point",
        "coordinates": [
          141.8424654,
          43.45650149
        ]
      },
      "properties": {
        "id": "cebf90ac-923e-4e3c-b329-c1c49eb4c614",
        "name": null,
        "address": null,
        "city": "浦臼町",
        "number": "5",
        "status": "done"
      }
    },
    {
      "type": "Feature",
      "geometry": {
        "type": "Point",
        "coordinates": [
          144.1516055,
          43.8462848
        ]
      },
      "properties": {
        "id": "cecc35c3-91ab-4195-b18f-2d159dba93a7",
        "name": "報徳地区農作業準備休憩施設",
        "address": "報徳地区農作業準備休憩施設_町道23号",
        "city": "美幌町",
        "number": "7-1",
        "status": "not_yet"
      }
    },
    {
      "type": "Feature",
      "geometry": {
        "type": "Point",
        "coordinates": [
          143.48433,
          43.351636
        ]
      },
      "properties": {
        "id": "ced57be2-fb44-4045-9d21-847618a03586",
        "name": null,
        "address": "足寄町茂喜登牛２３７０−２",
        "city": "足寄町",
        "number": "79",
        "status": "not_yet"
      }
    },
    {
      "type": "Feature",
      "geometry": {
        "type": "Point",
        "coordinates": [
          140.8747321,
          42.4773356
        ]
      },
      "properties": {
        "id": "ced85bf5-5e67-4226-b9a3-4f6960359559",
        "name": "伊達開来高等学校前",
        "address": "竹原町44番地1",
        "city": "伊達市",
        "number": "3-10",
        "status": "not_yet"
      }
    },
    {
      "type": "Feature",
      "geometry": {
        "type": "Point",
        "coordinates": [
          143.20439,
          42.99723
        ]
      },
      "properties": {
        "id": "cedf837f-7b9f-476f-8557-9b1dce66d300",
        "name": null,
        "address": "北海道河東郡音更町新通7-5",
        "city": "音更町",
        "number": "3",
        "status": "not_yet"
      }
    },
    {
      "type": "Feature",
      "geometry": {
        "type": "Point",
        "coordinates": [
          141.918729,
          43.531892
        ]
      },
      "properties": {
        "id": "cee20ecf-f297-4ccd-a078-59eb0d3f1d44",
        "name": "札樽運輸敷地国道沿い",
        "address": "空知太西1-4",
        "city": "砂川市",
        "number": "32",
        "status": "not_yet"
      }
    },
    {
      "type": "Feature",
      "geometry": {
        "type": "Point",
        "coordinates": [
          141.443911,
          43.0509955
        ]
      },
      "properties": {
        "id": "cee4c1ef-953c-4beb-ab18-a8bf8f164fe6",
        "name": "東川下小学校（西側）",
        "address": "白石区川下４条３丁目 東川下小学校（西側）",
        "city": "札幌市",
        "number": "02-01",
        "status": "done"
      }
    },
    {
      "type": "Feature",
      "geometry": {
        "type": "Point",
        "coordinates": [
          143.12514,
          42.9224326
        ]
      },
      "properties": {
        "id": "ceea6439-5471-4c9c-8363-a10e96e8c219",
        "name": "西児童保育センターグラウンド北側フェンス前",
        "address": "西児童保育センターグラウンド北側フェンス前",
        "city": "帯広市",
        "number": "181",
        "status": "done"
      }
    },
    {
      "type": "Feature",
      "geometry": {
        "type": "Point",
        "coordinates": [
          141.3298597,
          43.0619954
        ]
      },
      "properties": {
        "id": "cef04515-6923-4272-991d-75aa7bb03f11",
        "name": "ミニ大通公園西側",
        "address": "中央区北３条西１７丁目 ミニ大通公園西側",
        "city": "札幌市",
        "number": "37-03",
        "status": "done"
      }
    },
    {
      "type": "Feature",
      "geometry": {
        "type": "Point",
        "coordinates": [
          143.30145836,
          42.29794482
        ]
      },
      "properties": {
        "id": "cef72fab-4e73-460e-b9cb-9c2fbc8d6c63",
        "name": "masked",
        "address": "丸山通北６丁目",
        "city": "広尾町",
        "number": "3-17",
        "status": "not_yet"
      }
    },
    {
      "type": "Feature",
      "geometry": {
        "type": "Point",
        "coordinates": [
          141.371872,
          43.000477
        ]
      },
      "properties": {
        "id": "cefeac42-ced5-4afd-ad73-46a3873b579f",
        "name": "澄川五差路記念公園",
        "address": "南区澄川６条10丁目１ 澄川五差路記念公園",
        "city": "札幌市",
        "number": "03-04",
        "status": "done"
      }
    },
    {
      "type": "Feature",
      "geometry": {
        "type": "Point",
        "coordinates": [
          141.940154,
          43.503405
        ]
      },
      "properties": {
        "id": "cf0b1510-6e02-479d-ae7f-92684d42ec88",
        "name": "南４号病院通交差点",
        "address": "宮城４南１２",
        "city": "砂川市",
        "number": "64",
        "status": "not_yet"
      }
    },
    {
      "type": "Feature",
      "geometry": {
        "type": "Point",
        "coordinates": [
          143.1768256,
          42.8754259
        ]
      },
      "properties": {
        "id": "cf1eaa82-69d0-4711-957b-d0d74b13fe27",
        "name": "はるやま駐車場の北東角道路沿",
        "address": "はるやま駐車場の北東角道路沿",
        "city": "帯広市",
        "number": "88",
        "status": "error_wrong_place"
      }
    },
    {
      "type": "Feature",
      "geometry": {
        "type": "Point",
        "coordinates": [
          140.5705711,
          41.7305638
        ]
      },
      "properties": {
        "id": "cf1f7bfd-30cb-440e-a595-3f2e6f17c55a",
        "name": "masked",
        "address": "三ツ石2丁目2番29号",
        "city": "北斗市",
        "number": "121",
        "status": "not_yet"
      }
    },
    {
      "type": "Feature",
      "geometry": {
        "type": "Point",
        "coordinates": [
          143.2875043,
          43.8156206
        ]
      },
      "properties": {
        "id": "cf2010cc-8215-4ec9-8498-a3d8d28981af",
        "name": "masked",
        "address": "遠軽町丸瀬布上武利",
        "city": "遠軽町",
        "number": "63",
        "status": "not_yet"
      }
    },
    {
      "type": "Feature",
      "geometry": {
        "type": "Point",
        "coordinates": [
          143.27407,
          42.48702
        ]
      },
      "properties": {
        "id": "cf28b1f0-4201-457a-aba6-ff074f7b2fcd",
        "name": "鏡町公営住宅入口前",
        "address": "〒089-2152 北海道広尾郡大樹町西本通",
        "city": "大樹町",
        "number": "3_4",
        "status": "not_yet"
      }
    },
    {
      "type": "Feature",
      "geometry": {
        "type": "Point",
        "coordinates": [
          145.088928,
          43.073109
        ]
      },
      "properties": {
        "id": "cf2a1d9c-d487-427c-a907-d6359ebe8351",
        "name": "道路向かい",
        "address": "仲の浜281番地",
        "city": "浜中町",
        "number": "13",
        "status": "not_yet"
      }
    },
    {
      "type": "Feature",
      "geometry": {
        "type": "Point",
        "coordinates": [
          141.3514821,
          43.1804712
        ]
      },
      "properties": {
        "id": "cf2b3bd5-1dd4-43fb-a667-248462821edb",
        "name": "通道路白鳥札幌線・生振第2号線交差点",
        "address": "生振8線南通道路白鳥札幌線・生振第2号線交差点",
        "city": "石狩市",
        "number": "11",
        "status": "not_yet"
      }
    },
    {
      "type": "Feature",
      "geometry": {
        "type": "Point",
        "coordinates": [
          144.1462403,
          42.9816394
        ]
      },
      "properties": {
        "id": "cf308335-4202-4eea-bc67-635e9970213d",
        "name": "西庶路住宅団地バス停",
        "address": "庶路支所附属集会室",
        "city": "白糠町",
        "number": "11-4",
        "status": "not_yet"
      }
    },
    {
      "type": "Feature",
      "geometry": {
        "type": "Point",
        "coordinates": [
          141.58552,
          42.86749
        ]
      },
      "properties": {
        "id": "cf321f54-c0f0-48dd-b257-e283a258d8a2",
        "name": "もみじ公園内",
        "address": "恵南",
        "city": "恵庭市",
        "number": "22",
        "status": "done"
      }
    },
    {
      "type": "Feature",
      "geometry": {
        "type": "Point",
        "coordinates": [
          141.985413,
          43.004688
        ]
      },
      "properties": {
        "id": "cf35e7f5-0541-4e18-bb79-082d6839bbfa",
        "name": "道新夕張きむら販売所前付近",
        "address": "清水沢1丁目 道新夕張きむら販売所前付近",
        "city": "夕張市",
        "number": "6-1",
        "status": "not_yet"
      }
    },
    {
      "type": "Feature",
      "geometry": {
        "type": "Point",
        "coordinates": [
          140.8069542,
          43.1930333
        ]
      },
      "properties": {
        "id": "cf3687f0-778a-4d8a-a3e7-ab4be6239cc8",
        "name": "公営住宅（改良住宅）前",
        "address": "大川町12丁目2番地",
        "city": "余市町",
        "number": "9",
        "status": "not_yet"
      }
    },
    {
      "type": "Feature",
      "geometry": {
        "type": "Point",
        "coordinates": [
          141.3069174,
          43.0819354
        ]
      },
      "properties": {
        "id": "cf37e6e2-a0fe-445b-9a77-3bbee9eee833",
        "name": "JR琴似駅第３自転車駐車場",
        "address": "西区琴似２条１丁目１番 JR琴似駅第３自転車駐車場",
        "city": "札幌市",
        "number": "03-07",
        "status": "done"
      }
    },
    {
      "type": "Feature",
      "geometry": {
        "type": "Point",
        "coordinates": [
          142.3211705,
          43.7954738
        ]
      },
      "properties": {
        "id": "cf4c0134-cdb3-43f9-bd75-60bab43779e6",
        "name": "緑町団地3号棟前さく（嵐山線）",
        "address": "緑町25丁目",
        "city": "旭川市",
        "number": "3720",
        "status": "done"
      }
    },
    {
      "type": "Feature",
      "geometry": {
        "type": "Point",
        "coordinates": [
          144.4181251,
          42.9932729
        ]
      },
      "properties": {
        "id": "cf518b98-5938-4418-a28c-3011b2984f87",
        "name": "貝塚通バス停付近",
        "address": "貝塚２丁目１７番地先",
        "city": "釧路市",
        "number": "31",
        "status": "not_yet"
      }
    },
    {
      "type": "Feature",
      "geometry": {
        "type": "Point",
        "coordinates": [
          143.193074,
          43.000107
        ]
      },
      "properties": {
        "id": "cf528632-8fe1-436b-b48c-fe6e3876ddb9",
        "name": null,
        "address": "北海道河東郡音更町北陽台7",
        "city": "音更町",
        "number": "92",
        "status": "not_yet"
      }
    },
    {
      "type": "Feature",
      "geometry": {
        "type": "Point",
        "coordinates": [
          140.12512207,
          41.99440888
        ]
      },
      "properties": {
        "id": "cf546abc-07aa-4a75-a652-7cdd3abbf7fa",
        "name": "山口商店向い",
        "address": "鳥山 山口商店向い",
        "city": "乙部町",
        "number": "4-22",
        "status": "not_yet"
      }
    },
    {
      "type": "Feature",
      "geometry": {
        "type": "Point",
        "coordinates": [
          142.36137629,
          44.10119275
        ]
      },
      "properties": {
        "id": "cf56e880-571a-41e9-af6e-84f2eaccfc37",
        "name": null,
        "address": null,
        "city": "剣淵町",
        "number": "3",
        "status": "not_yet"
      }
    },
    {
      "type": "Feature",
      "geometry": {
        "type": "Point",
        "coordinates": [
          144.2698413,
          44.0074825
        ]
      },
      "properties": {
        "id": "cf62430d-d26b-4446-b3e7-46d74ad17c13",
        "name": "桂町５",
        "address": "桂町５",
        "city": "網走市",
        "number": "47",
        "status": "not_yet"
      }
    },
    {
      "type": "Feature",
      "geometry": {
        "type": "Point",
        "coordinates": [
          141.5498422,
          43.1022547
        ]
      },
      "properties": {
        "id": "cf63e399-c80f-4494-a7a7-39ed6835ebb1",
        "name": "すみれ公園",
        "address": "上江別西町  12",
        "city": "江別市",
        "number": "33",
        "status": "done"
      }
    },
    {
      "type": "Feature",
      "geometry": {
        "type": "Point",
        "coordinates": [
          141.791565,
          43.206978
        ]
      },
      "properties": {
        "id": "cf6d755f-e3dd-4a13-841f-b1de59ffbda9",
        "name": "日の出南会館前",
        "address": "日の出南2丁目181-34",
        "city": "岩見沢市",
        "number": "36",
        "status": "done"
      }
    },
    {
      "type": "Feature",
      "geometry": {
        "type": "Point",
        "coordinates": [
          140.5132801,
          42.9792036
        ]
      },
      "properties": {
        "id": "cf84da64-95eb-4428-97ae-6cb0b5b91a52",
        "name": "役場庁舎前",
        "address": "高台134",
        "city": "岩内町",
        "number": "10",
        "status": "done"
      }
    },
    {
      "type": "Feature",
      "geometry": {
        "type": "Point",
        "coordinates": [
          142.97701836,
          44.32716376
        ]
      },
      "properties": {
        "id": "cf8b8c5f-f345-42ae-8db2-a9639d80e075",
        "name": "masked",
        "address": null,
        "city": "西興部村",
        "number": "4",
        "status": "not_yet"
      }
    },
    {
      "type": "Feature",
      "geometry": {
        "type": "Point",
        "coordinates": [
          143.73181343,
          43.72676231
        ]
      },
      "properties": {
        "id": "cf977791-5308-4f47-b549-456aab8f158e",
        "name": "若富町　最勝寺 前",
        "address": null,
        "city": "訓子府町",
        "number": "1-2",
        "status": "not_yet"
      }
    },
    {
      "type": "Feature",
      "geometry": {
        "type": "Point",
        "coordinates": [
          141.934172,
          43.50649
        ]
      },
      "properties": {
        "id": "cf9d1367-2cd6-4c38-a15c-c49f9ebcf1d2",
        "name": null,
        "address": "masked",
        "city": "砂川市",
        "number": "51",
        "status": "not_yet"
      }
    },
    {
      "type": "Feature",
      "geometry": {
        "type": "Point",
        "coordinates": [
          140.60628891,
          42.97972324
        ]
      },
      "properties": {
        "id": "cfa3e24a-e327-4dea-a44c-49563d47bc14",
        "name": null,
        "address": null,
        "city": "共和町",
        "number": "3-10",
        "status": "not_yet"
      }
    },
    {
      "type": "Feature",
      "geometry": {
        "type": "Point",
        "coordinates": [
          143.3451314,
          43.9992278
        ]
      },
      "properties": {
        "id": "cfb08443-95d6-4954-bead-f5b791f212fc",
        "name": "旧村松鉄工車両前",
        "address": "遠軽町丸瀬布新町",
        "city": "遠軽町",
        "number": "62",
        "status": "not_yet"
      }
    },
    {
      "type": "Feature",
      "geometry": {
        "type": "Point",
        "coordinates": [
          143.24798584,
          43.1798953
        ]
      },
      "properties": {
        "id": "cfb24854-c8fe-47c1-aad8-bf0de9ee708c",
        "name": "西２線２９号交差点",
        "address": "西2線29号交差点",
        "city": "士幌町",
        "number": "1",
        "status": "not_yet"
      }
    },
    {
      "type": "Feature",
      "geometry": {
        "type": "Point",
        "coordinates": [
          143.1323949,
          42.6976121
        ]
      },
      "properties": {
        "id": "cfb5eeaf-ddf3-4163-83e9-b8abedad3a74",
        "name": "中札内村",
        "address": null,
        "city": "中札内村",
        "number": "12",
        "status": "done"
      }
    },
    {
      "type": "Feature",
      "geometry": {
        "type": "Point",
        "coordinates": [
          145.060064,
          43.79413
        ]
      },
      "properties": {
        "id": "cfb65134-3d4e-40d0-8670-318ecf282f60",
        "name": "薫別市街駐在所付近交差点角",
        "address": "薫別",
        "city": "標津町",
        "number": "22",
        "status": "not_yet"
      }
    },
    {
      "type": "Feature",
      "geometry": {
        "type": "Point",
        "coordinates": [
          144.4050079,
          43.0223537
        ]
      },
      "properties": {
        "id": "cfb70a8e-2c7d-4c37-b509-b131c264c87d",
        "name": "はんの木公園（野球場バス停付近）",
        "address": "美原４丁目３番地先",
        "city": "釧路市",
        "number": "160",
        "status": "done"
      }
    },
    {
      "type": "Feature",
      "geometry": {
        "type": "Point",
        "coordinates": [
          141.6595864,
          42.8281793
        ]
      },
      "properties": {
        "id": "cfb768dd-55bf-4890-a6c6-ec05bb84f129",
        "name": "ハルニレ公園",
        "address": "青葉4丁目",
        "city": "千歳市",
        "number": "10-7",
        "status": "not_yet"
      }
    },
    {
      "type": "Feature",
      "geometry": {
        "type": "Point",
        "coordinates": [
          142.353821,
          42.403912
        ]
      },
      "properties": {
        "id": "cfbd2767-2026-45d8-9713-7242942a760b",
        "name": "農村環境改善センター前",
        "address": "朝日",
        "city": "新冠町",
        "number": "6-1",
        "status": "not_yet"
      }
    },
    {
      "type": "Feature",
      "geometry": {
        "type": "Point",
        "coordinates": [
          141.5129057,
          43.2239148
        ]
      },
      "properties": {
        "id": "cfbd92be-175e-4ca4-b1bf-dc867e69e4d9",
        "name": "白樺コミュニティーセンター前",
        "address": null,
        "city": "当別町",
        "number": "2-6　白樺コミュニティーセンター前",
        "status": "reserved"
      }
    },
    {
      "type": "Feature",
      "geometry": {
        "type": "Point",
        "coordinates": [
          140.7302862,
          41.7942308
        ]
      },
      "properties": {
        "id": "cfbef0d7-b843-454e-bf45-49f23fd24b37",
        "name": "極楽寺前",
        "address": "函館市吉川町5",
        "city": "函館市",
        "number": "56",
        "status": "not_yet"
      }
    },
    {
      "type": "Feature",
      "geometry": {
        "type": "Point",
        "coordinates": [
          140.030319,
          42.406139
        ]
      },
      "properties": {
        "id": "cfbfd392-3ed6-4e9d-a168-c544535929d3",
        "name": "22",
        "address": "田代２１９番地の１",
        "city": "今金町",
        "number": "22",
        "status": "done"
      }
    },
    {
      "type": "Feature",
      "geometry": {
        "type": "Point",
        "coordinates": [
          142.4079056,
          43.7782728
        ]
      },
      "properties": {
        "id": "cfc582a8-b53c-482b-b08e-19b9e98ce446",
        "name": "イサミヤアールピー永山工場さく",
        "address": "永山11条2丁目",
        "city": "旭川市",
        "number": "2920",
        "status": "not_yet"
      }
    },
    {
      "type": "Feature",
      "geometry": {
        "type": "Point",
        "coordinates": [
          141.76577568,
          43.38783445
        ]
      },
      "properties": {
        "id": "cfd7e36f-72ac-4e81-b7c0-d6cf8534e691",
        "name": null,
        "address": null,
        "city": "浦臼町",
        "number": "24",
        "status": "done"
      }
    },
    {
      "type": "Feature",
      "geometry": {
        "type": "Point",
        "coordinates": [
          144.169449,
          43.911915
        ]
      },
      "properties": {
        "id": "cfd80cb6-6b7c-439e-adfd-30600c19c4e8",
        "name": "（株）朝鳥商店",
        "address": "大空町女満別西3条2丁目3番地1",
        "city": "大空町",
        "number": "10",
        "status": "not_yet"
      }
    },
    {
      "type": "Feature",
      "geometry": {
        "type": "Point",
        "coordinates": [
          141.483597,
          43.056633
        ]
      },
      "properties": {
        "id": "cfdd8e08-cacf-44a7-afe6-7d6f863d9a86",
        "name": "ＪＲ森林公園駅前東口前植込",
        "address": "厚別区厚別東５条８丁目 ＪＲ森林公園駅前東口前植込",
        "city": "札幌市",
        "number": "16-07",
        "status": "done"
      }
    },
    {
      "type": "Feature",
      "geometry": {
        "type": "Point",
        "coordinates": [
          139.9863875,
          41.60490978
        ]
      },
      "properties": {
        "id": "cffe06e7-0b81-4d59-b181-fbbe56239611",
        "name": "masked",
        "address": null,
        "city": "松前町",
        "number": "1-3",
        "status": "not_yet"
      }
    },
    {
      "type": "Feature",
      "geometry": {
        "type": "Point",
        "coordinates": [
          141.662693,
          44.02164423
        ]
      },
      "properties": {
        "id": "d00008a6-9860-4da9-a1bb-74dd7b27e3bc",
        "name": "小平真砂バス停横",
        "address": null,
        "city": "小平町",
        "number": "1-6",
        "status": "not_yet"
      }
    },
    {
      "type": "Feature",
      "geometry": {
        "type": "Point",
        "coordinates": [
          140.88427305,
          42.86270668
        ]
      },
      "properties": {
        "id": "d00913d3-5b55-418c-8bb9-e2a96e89f241",
        "name": null,
        "address": null,
        "city": "京極町",
        "number": "1-1",
        "status": "done"
      }
    },
    {
      "type": "Feature",
      "geometry": {
        "type": "Point",
        "coordinates": [
          141.78504467,
          43.40735466
        ]
      },
      "properties": {
        "id": "d00a65f4-9038-4e16-bb52-ed8192e07d2d",
        "name": null,
        "address": null,
        "city": "浦臼町",
        "number": "17",
        "status": "done"
      }
    },
    {
      "type": "Feature",
      "geometry": {
        "type": "Point",
        "coordinates": [
          141.2560346,
          43.1315047
        ]
      },
      "properties": {
        "id": "d00c70ab-c770-4121-8b98-7e771f91b5d3",
        "name": "前田中央小学校体育館開放玄関前",
        "address": "手稲区前田８条１２丁目 前田中央小学校体育館開放玄関前",
        "city": "札幌市",
        "number": "03-01",
        "status": "done"
      }
    },
    {
      "type": "Feature",
      "geometry": {
        "type": "Point",
        "coordinates": [
          142.63858795,
          44.87314589
        ]
      },
      "properties": {
        "id": "d0120259-f2af-45df-a488-c45d6c9e2375",
        "name": "岡島　岡島漁港付近",
        "address": "岡島　岡島漁港付近",
        "city": "枝幸町",
        "number": "4-3",
        "status": "not_yet"
      }
    },
    {
      "type": "Feature",
      "geometry": {
        "type": "Point",
        "coordinates": [
          143.000314,
          43.084497
        ]
      },
      "properties": {
        "id": "d0172e83-4448-49df-9602-afdfd4c69ebb",
        "name": "町道美北南台線と上然別西11線の交差点（保安林内）",
        "address": "上然別西11線14-12",
        "city": "鹿追町",
        "number": "6-2",
        "status": "done"
      }
    },
    {
      "type": "Feature",
      "geometry": {
        "type": "Point",
        "coordinates": [
          140.0485182,
          41.44610415
        ]
      },
      "properties": {
        "id": "d01b5b6c-3421-4404-911e-170efcb409d4",
        "name": "教職員住宅前空地",
        "address": null,
        "city": "松前町",
        "number": "8-2",
        "status": "not_yet"
      }
    },
    {
      "type": "Feature",
      "geometry": {
        "type": "Point",
        "coordinates": [
          143.209974,
          42.919847
        ]
      },
      "properties": {
        "id": "d01c81d6-93bb-4dc9-a96c-fcb56346cea1",
        "name": "帯広保育所南側フェンス沿",
        "address": "帯広保育所南側フェンス沿",
        "city": "帯広市",
        "number": "31",
        "status": "done"
      }
    },
    {
      "type": "Feature",
      "geometry": {
        "type": "Point",
        "coordinates": [
          142.3820649,
          43.8090777
        ]
      },
      "properties": {
        "id": "d01d31c6-d52c-475c-adec-4f6684ac41fe",
        "name": "北電新星変電所さく",
        "address": "末広3条4丁目",
        "city": "旭川市",
        "number": "4820",
        "status": "not_yet"
      }
    },
    {
      "type": "Feature",
      "geometry": {
        "type": "Point",
        "coordinates": [
          144.126672,
          42.97543
        ]
      },
      "properties": {
        "id": "d0226b13-1bc8-4b3e-8dd9-5211087d6d85",
        "name": "千鳥公園",
        "address": "庶路コミュニティセンター",
        "city": "白糠町",
        "number": "10-8",
        "status": "not_yet"
      }
    },
    {
      "type": "Feature",
      "geometry": {
        "type": "Point",
        "coordinates": [
          144.2563338,
          44.0244836
        ]
      },
      "properties": {
        "id": "d026f4bb-eb2b-425a-85b8-da808915746c",
        "name": "北７⻄６",
        "address": "北７⻄６",
        "city": "網走市",
        "number": "14",
        "status": "not_yet"
      }
    },
    {
      "type": "Feature",
      "geometry": {
        "type": "Point",
        "coordinates": [
          140.421661,
          41.67614
        ]
      },
      "properties": {
        "id": "d0353422-1709-4e2a-bacf-bddfc5418e07",
        "name": "第7投票区 ポスター掲示場の設置場所",
        "address": "木古内町字 木古内230番地4",
        "city": "木古内町",
        "number": "7-25",
        "status": "not_yet"
      }
    },
    {
      "type": "Feature",
      "geometry": {
        "type": "Point",
        "coordinates": [
          140.6220815,
          41.9937374
        ]
      },
      "properties": {
        "id": "d036e4b4-c2be-4bb9-9b66-ae30273e123f",
        "name": "字西大沼394付近（町道西大沼3号と4号の交差点付近）",
        "address": "西大沼 字西大沼394付近(町道西大沼3号と4号の交差点付近)",
        "city": "七飯町",
        "number": "21-90",
        "status": "not_yet"
      }
    },
    {
      "type": "Feature",
      "geometry": {
        "type": "Point",
        "coordinates": [
          141.756683,
          45.403576
        ]
      },
      "properties": {
        "id": "d03d30e1-1374-4944-9ccf-28bf0915b974",
        "name": "声問コミュニティセンター前",
        "address": "稚内市声問３丁目４番３７号 声問コミュニティセンター前",
        "city": "稚内市",
        "number": "114",
        "status": "done"
      }
    },
    {
      "type": "Feature",
      "geometry": {
        "type": "Point",
        "coordinates": [
          141.4093301,
          43.5692837
        ]
      },
      "properties": {
        "id": "d0478b10-9ed6-47b4-b3c3-370cf45b5ca4",
        "name": "旧柏木コミセン跡地",
        "address": "浜益区柏木旧柏木コミセン跡地",
        "city": "石狩市",
        "number": "76",
        "status": "not_yet"
      }
    },
    {
      "type": "Feature",
      "geometry": {
        "type": "Point",
        "coordinates": [
          143.311966,
          44.369282
        ]
      },
      "properties": {
        "id": "d051cd40-d632-43eb-b404-e1355cc209a4",
        "name": "渚滑市民センター 駐車場入口 横",
        "address": "渚滑町6丁目 渚滑市民センター",
        "city": "紋別市",
        "number": "69",
        "status": "done"
      }
    },
    {
      "type": "Feature",
      "geometry": {
        "type": "Point",
        "coordinates": [
          141.3739599,
          43.0096436
        ]
      },
      "properties": {
        "id": "d05458d2-37ed-46ae-b8dc-f68ec781a960",
        "name": "澄川北緑地",
        "address": "南区澄川６条５丁目１ 澄川北緑地",
        "city": "札幌市",
        "number": "30-06",
        "status": "done"
      }
    },
    {
      "type": "Feature",
      "geometry": {
        "type": "Point",
        "coordinates": [
          141.395462,
          43.091671
        ]
      },
      "properties": {
        "id": "d05bdb04-da5d-4249-bff0-e13769e0d9e1",
        "name": "風っ子公園　北側",
        "address": "東区伏古８条３丁目７番 風っ子公園　北側",
        "city": "札幌市",
        "number": "35-05",
        "status": "done"
      }
    },
    {
      "type": "Feature",
      "geometry": {
        "type": "Point",
        "coordinates": [
          141.58799,
          42.86731
        ]
      },
      "properties": {
        "id": "d05c76c4-5187-4538-8de5-8ae43a81c73c",
        "name": "あしか公園内",
        "address": "恵南",
        "city": "恵庭市",
        "number": "20",
        "status": "done"
      }
    },
    {
      "type": "Feature",
      "geometry": {
        "type": "Point",
        "coordinates": [
          141.023359,
          42.354292
        ]
      },
      "properties": {
        "id": "d05e5491-c71f-4e9d-b27d-0d2f46733c65",
        "name": "中嶋神社　１丁目９条通線側",
        "address": "宮の森町1丁目1番",
        "city": "室蘭市",
        "number": "16-2",
        "status": "not_yet"
      }
    },
    {
      "type": "Feature",
      "geometry": {
        "type": "Point",
        "coordinates": [
          143.23596954,
          43.16518524
        ]
      },
      "properties": {
        "id": "d05e9ced-acb2-44c7-84a1-6abd82dccfbe",
        "name": "幹線２６号交差点",
        "address": "幹線26号交差点",
        "city": "士幌町",
        "number": "9",
        "status": "not_yet"
      }
    },
    {
      "type": "Feature",
      "geometry": {
        "type": "Point",
        "coordinates": [
          144.80977523,
          43.39376001
        ]
      },
      "properties": {
        "id": "d060b592-3b7d-4068-a4a9-09bd14194f10",
        "name": "西春別小学校前",
        "address": "西春別宮園町50-1",
        "city": "別海町",
        "number": "92",
        "status": "not_yet"
      }
    },
    {
      "type": "Feature",
      "geometry": {
        "type": "Point",
        "coordinates": [
          141.69664,
          43.175598
        ]
      },
      "properties": {
        "id": "d0729724-cf88-404d-859c-d16d3698ecfb",
        "name": "masked",
        "address": "御茶の水町54-1付近",
        "city": "岩見沢市",
        "number": "48",
        "status": "done"
      }
    },
    {
      "type": "Feature",
      "geometry": {
        "type": "Point",
        "coordinates": [
          143.15089,
          42.53593
        ]
      },
      "properties": {
        "id": "d073dce1-9ba7-478d-8ad3-9279a77d4d51",
        "name": "相川福祉ホーム前",
        "address": "〒089-2262 北海道広尾郡大樹町相川",
        "city": "大樹町",
        "number": "4_2",
        "status": "not_yet"
      }
    },
    {
      "type": "Feature",
      "geometry": {
        "type": "Point",
        "coordinates": [
          141.2497342,
          43.06314886
        ]
      },
      "properties": {
        "id": "d0741648-8e65-4cef-8d52-bf22d934c9ed",
        "name": "雨水貯留池",
        "address": "西区西野１１条９丁目２２番 雨水貯留池",
        "city": "札幌市",
        "number": "17-07",
        "status": "done"
      }
    },
    {
      "type": "Feature",
      "geometry": {
        "type": "Point",
        "coordinates": [
          141.0350918,
          42.3501042
        ]
      },
      "properties": {
        "id": "d0764bde-e358-43c5-a3bc-4aa6d8fe7445",
        "name": "寿大通線緑地帯",
        "address": "寿町2丁目14番",
        "city": "室蘭市",
        "number": "13-2",
        "status": "not_yet"
      }
    },
    {
      "type": "Feature",
      "geometry": {
        "type": "Point",
        "coordinates": [
          144.099947,
          43.1750984
        ]
      },
      "properties": {
        "id": "d07688fd-334f-4038-836b-709af05daa69",
        "name": "布伏内交通防犯会館前",
        "address": "布伏内２２線北４１番地先",
        "city": "釧路市",
        "number": "230",
        "status": "not_yet"
      }
    },
    {
      "type": "Feature",
      "geometry": {
        "type": "Point",
        "coordinates": [
          143.532516,
          44.227146
        ]
      },
      "properties": {
        "id": "d07725bb-598d-4db0-af5d-ff0e370e464d",
        "name": "信部内地区会館前",
        "address": "信部内・緑蔭",
        "city": "湧別町",
        "number": "3",
        "status": "not_yet"
      }
    },
    {
      "type": "Feature",
      "geometry": {
        "type": "Point",
        "coordinates": [
          144.4939704,
          42.9420891
        ]
      },
      "properties": {
        "id": "d0812eea-caea-495a-a633-62ffec3f2703",
        "name": "協洋会館敷地",
        "address": "字又飯時35番地2",
        "city": "釧路町",
        "number": "9-1",
        "status": "not_yet"
      }
    },
    {
      "type": "Feature",
      "geometry": {
        "type": "Point",
        "coordinates": [
          141.3353657,
          43.1125815
        ]
      },
      "properties": {
        "id": "d082a5df-9d30-4b78-9a94-dd9e6494d484",
        "name": "新琴似駅前緑地",
        "address": "北区新琴似８条１丁目 新琴似駅前緑地",
        "city": "札幌市",
        "number": "39-04",
        "status": "done"
      }
    },
    {
      "type": "Feature",
      "geometry": {
        "type": "Point",
        "coordinates": [
          141.5998183,
          42.7845681
        ]
      },
      "properties": {
        "id": "d084b543-e6b6-4bf1-83e7-a6f8b6237ade",
        "name": "向陽台コミュニティセンター前",
        "address": "里美2丁目",
        "city": "千歳市",
        "number": "24-2",
        "status": "done"
      }
    },
    {
      "type": "Feature",
      "geometry": {
        "type": "Point",
        "coordinates": [
          143.2177738,
          42.7312617
        ]
      },
      "properties": {
        "id": "d088995f-4765-4887-a56b-4b3a09d261ca",
        "name": "おびひろの森町内会案内板向バス停西側道路沿",
        "address": "おびひろの森町内会案内板向バス停西側道路沿",
        "city": "帯広市",
        "number": "309",
        "status": "not_yet"
      }
    },
    {
      "type": "Feature",
      "geometry": {
        "type": "Point",
        "coordinates": [
          140.7269693,
          41.7998612
        ]
      },