[{"id":"64f21f53-b274-449f-b23d-268622d4590f","lat":44.20073300,"long":142.44435900,"status":"not_yet","name":"武徳自治会館前","address":"武徳町44線東7号","city":"士別市","number":"7-1"}, 
 {"id":"64fcae7d-4b5b-4aba-890f-1108f2d5f1cb","lat":43.33551800,"long":141.78176900,"status":"not_yet","name":"上美唄総合福祉会館","address":"上美唄町2区","city":"美唄市","number":"13"}, 
 {"id":"64fdee12-780b-4090-92eb-00f8ade48266","lat":42.91294690,"long":143.26229120,"status":"done","name":"札内コミュニティプラザ前","address":"北海道中川郡幕別町札内青葉町311番地11","city":"幕別町","number":"47"}, 
 {"id":"64fec87b-8b49-4f3d-aade-ba084760e2e2","lat":42.66778726,"long":140.30633725,"status":"not_yet","name":"JAようてい黒松内支所倉庫横","address":"字黒松内","city":"黒松内町","number":"5"}, 
 {"id":"650207b0-cc87-471b-ad3a-f900d3e7b2a4","lat":43.01180280,"long":141.30489160,"status":"done","name":"北ノ沢第２配水池","address":"南区北ノ沢1744番地116 北ノ沢第２配水池","city":"札幌市","number":"26-06"}, 
 {"id":"65029f00-e972-41df-ad1c-f633ea36307f","lat":43.21506180,"long":144.13698110,"status":"not_yet","name":"住宅前","address":"中徹別３７線３５番地先","city":"釧路市","number":"236"}, 
 {"id":"6502c20c-8562-4981-b7fe-f9f5d6c71fd7","lat":43.93620410,"long":141.63776870,"status":"not_yet","name":"留萌小学校西門横","address":"寿町2丁目","city":"留萌市","number":"2-4"}, 
 {"id":"6508be4c-8911-447a-81ab-bf53c5fe1243","lat":43.54359092,"long":142.06459050,"status":"not_yet","name":"日の出地区集会所 向","address":"宇赤字670番地10","city":"赤平市","number":"16"}, 
 {"id":"650be59b-bfdd-46b4-8927-787130128750","lat":42.13489150,"long":142.90754960,"status":"not_yet","name":"鵜苫市街地バス停（山側）向かい","address":"字鵜苫81番7","city":"様似町","number":"1-1"}, 
 {"id":"6511f3c7-b5bb-44dd-a8d1-19d060000c29","lat":43.51906700,"long":142.18507900,"status":"not_yet","name":"栄町児童公園内","address":"北１条西１丁目１０−１０","city":"芦別市","number":"10"}, 
 {"id":"651993a6-f41a-421f-9820-b6d8668e9eed","lat":42.82379930,"long":141.63128970,"status":"done","name":"希望公園","address":"大和4丁目","city":"千歳市","number":"4-7"}, 
 {"id":"651e0ab6-aa07-4741-b83e-5db8c5980d64","lat":44.01964250,"long":144.26776420,"status":"done","name":"南６⻄１","address":"南６⻄１","city":"網走市","number":"6"}, 
 {"id":"653027ee-06da-4768-a8bb-d223728d3cd5","lat":42.99405040,"long":144.40964860,"status":"not_yet","name":"貝塚通歩道橋向かい","address":"貝塚１丁目５番地先","city":"釧路市","number":"26"}, 
 {"id":"65306ca4-ee42-4f33-870e-4ee5fcddc10e","lat":42.99062700,"long":141.42692600,"status":"done","name":"清田南公園","address":"清田区清田７条２丁目 清田南公園","city":"札幌市","number":"12-03"}, 
 {"id":"6532bfb4-cb50-4c53-911d-f0f12ac0c9db","lat":43.27677200,"long":143.54286100,"status":"done","name":null,"address":"足寄町下愛冠１丁目 道道663号","city":"足寄町","number":"54"}, 
 {"id":"6535e5b7-2f8c-40b2-ba1e-1303c6840933","lat":43.33240140,"long":145.59202650,"status":"not_yet","name":"総合文化会館前道路","address":"曙町1-40","city":"根室市","number":"7-3"}, 
 {"id":"653e5c00-fe44-42e2-b713-58a810cfe383","lat":42.35670100,"long":140.99259900,"status":"not_yet","name":"事業団アパート上り口付近","address":"高平町27番地","city":"室蘭市","number":"22-1"}, 
 {"id":"653e86e8-a0c7-49cf-9d07-7bac73a762a7","lat":43.24888800,"long":141.86832300,"status":"done","name":"宮本町公住中央十字路北西側","address":"宮本町479","city":"三笠市","number":"25"}, 
 {"id":"654594f5-0ddb-4db9-9b16-c4a469bd1b5e","lat":44.60452393,"long":142.95564651,"status":"not_yet","name":"魚田　真田水産（株）加工場横  ","address":null,"city":"雄武町","number":"23"}, 
 {"id":"654a200b-ed49-4239-878f-3dcfac2e4ee2","lat":42.12302300,"long":140.68466300,"status":"not_yet","name":"民家前","address":"砂原4丁目","city":"森町","number":"25-125"}, 
 {"id":"654b2cd4-de9c-4d9b-9e4c-ae1f93a4e35a","lat":44.55708405,"long":142.92938232,"status":"not_yet","name":"共栄　共栄福祉館前  ","address":null,"city":"雄武町","number":"31"}, 
 {"id":"654ede91-eae3-4823-bff9-8a6d0c0fbb92","lat":41.85911400,"long":140.72220400,"status":"done","name":"大川美園振興会館前","address":"大川4丁目 大川美園振興会館前","city":"七飯町","number":"8-41"}, 
 {"id":"6561e22c-99ef-4726-978b-9e7daa22be76","lat":43.09779400,"long":141.34025600,"status":"done","name":"ﾄﾖﾀﾚﾝﾀﾘｰｽ札幌北34条駅前店","address":"北区北３１条西５丁目 ﾄﾖﾀﾚﾝﾀﾘｰｽ札幌北34条駅前店","city":"札幌市","number":"31-03"}, 
 {"id":"65692bcb-8baa-4bd9-952e-fb0fced45082","lat":43.06377140,"long":141.38588260,"status":"done","name":"菊水上町いずみ公園","address":"白石区菊水上町２条２丁目 菊水上町いずみ公園","city":"札幌市","number":"11-02"}, 
 {"id":"656b931b-6285-49d2-a0e6-741030c1c295","lat":43.10677280,"long":141.54317230,"status":"done","name":"市道４丁目鉄西線交差点","address":"弥生町 41","city":"江別市","number":"8"}, 
 {"id":"656dfb91-ed85-4f6b-aa2e-31dc9e8853a4","lat":43.06692500,"long":141.31738300,"status":"done","name":"日新小学校南側","address":"中央区北８条西２５丁目 日新小学校南側","city":"札幌市","number":"19-04"}, 
 {"id":"6572f9bc-21ea-4dd5-9fd1-ca5b1e2f0ed7","lat":42.75534120,"long":143.00780500,"status":"not_yet","name":"北広野会館西側道路沿","address":"北広野会館西側道路沿","city":"帯広市","number":"235"}, 
 {"id":"65775341-7d7b-4d40-8c5c-01932f2558a8","lat":43.49200454,"long":141.98858146,"status":"not_yet","name":"しらかば団地公住","address":"歌志内市","city":"歌志内市","number":"26"}, 
 {"id":"657aaa12-2555-4b1e-8303-736de6277a7f","lat":41.84092810,"long":140.69073820,"status":"done","name":"萩野会館前","address":"萩野31番32","city":"北斗市","number":"157"}, 
 {"id":"657b1427-babf-4fb2-818c-abc441ee221d","lat":43.77508670,"long":142.31775210,"status":"done","name":"忠和地区センターさく","address":"忠和5条5丁目","city":"旭川市","number":"6740"}, 
 {"id":"657b20ff-b963-41c8-bb1e-6231ff8a4088","lat":43.12411900,"long":141.33207700,"status":"done","name":"屯田のびのび公園","address":"北区屯田２条５丁目 屯田のびのび公園","city":"札幌市","number":"45-05"}, 
 {"id":"65906f36-1667-407b-b040-758df8e7e200","lat":44.52322281,"long":142.86260605,"status":"not_yet","name":"上雄武　上雄武福祉館前  ","address":null,"city":"雄武町","number":"29"}, 
 {"id":"6594fde1-c742-40f2-a88f-059e0cdef835","lat":43.98392199,"long":141.72552110,"status":"not_yet","name":"中の沢入り口道道敷地","address":null,"city":"小平町","number":"3-4"}, 
 {"id":"6597fe7a-4349-4993-b3c6-07671f5dd824","lat":43.15518840,"long":141.30001830,"status":"done","name":"花川南みどり公園","address":"花川南1条2丁目花川南みどり公園","city":"石狩市","number":"48"}, 
 {"id":"65996a23-2548-46b7-a84c-c254f5a6b7bb","lat":41.89303790,"long":141.00989060,"status":"not_yet","name":"尾札部会館横","address":"函館市尾札部町573","city":"函館市","number":"411"}, 
 {"id":"65a072f9-90da-43ce-8bb4-ace1bcfc0d44","lat":43.88235900,"long":144.15559400,"status":"not_yet","name":"空港レンタカー前","address":"大空町女満別中央201番地43","city":"大空町","number":"7"}, 
 {"id":"65a25d50-e7eb-4efc-8096-4447bc3065c4","lat":43.66139500,"long":145.02429500,"status":"not_yet","name":"道道川北中","address":"川北（北標津）","city":"標津町","number":"35"}, 
 {"id":"65a43ab5-eca8-4925-a28e-e2515ed5ebd5","lat":43.10157400,"long":141.34428400,"status":"done","name":"札幌市創成川第2中継ポンプ場","address":"北区北34条西2丁目 札幌市創成川第2中継ポンプ場","city":"札幌市","number":"37-02"}, 
 {"id":"65a49591-980d-40dd-b42a-c487defe562e","lat":43.33190880,"long":145.58533970,"status":"not_yet","name":"根室公園銅像前道路","address":"弥栄町1-17","city":"根室市","number":"4-2"}, 
 {"id":"65a96b91-be16-4038-9428-abc613fe0ad0","lat":41.72259650,"long":141.01211260,"status":"not_yet","name":"戸井生涯学習センター前","address":"函館市浜町355-5","city":"函館市","number":"371"}, 
 {"id":"65aceac2-2f79-4410-8dae-1eb23a41c326","lat":43.38129900,"long":143.66511000,"status":"done","name":null,"address":"足寄町大誉地１１８","city":"足寄町","number":"38"}, 
 {"id":"65b0d1ed-fd73-41ad-927c-910139905aed","lat":42.58342100,"long":140.71180800,"status":"not_yet","name":"役場前","address":"船見町10","city":"豊浦町","number":"24"}, 
 {"id":"65b90f51-296f-4997-b7d6-1f32d17758fb","lat":42.49767280,"long":142.05140950,"status":"not_yet","name":"門別総合町民センター前","address":"富川東6-3-1門別総合町民センター前","city":"日高町","number":"34"}, 
 {"id":"65bc8f9c-c516-4b5a-a4d8-b3d3732c288b","lat":43.12442000,"long":141.22039800,"status":"done","name":"稲穂金山まちづくりセンター","address":"手稲区稲穂３条５丁目 稲穂金山まちづくりセンター","city":"札幌市","number":"12-02"}, 
 {"id":"65be5493-acfe-43b3-accc-99766e851d20","lat":42.90278700,"long":143.35266580,"status":"done","name":"寿町近隣センター前","address":"北海道中川郡幕別町寿町122番地","city":"幕別町","number":"4"}, 
 {"id":"65c9561d-aa34-424f-8f00-4dd0c25ec104","lat":42.92009100,"long":143.12403860,"status":"done","name":"津田公園北東柏林台通南１線バス停東側","address":"津田公園北東柏林台通南１線バス停東側","city":"帯広市","number":"188"}, 
 {"id":"65d4e855-b514-4fc5-9bf3-f3b8f0451986","lat":43.03519800,"long":141.37487800,"status":"done","name":"いなほ公園","address":"豊平区平岸４条７丁目 いなほ公園","city":"札幌市","number":"11-04"}, 
 {"id":"65d837c0-18aa-4c29-bd87-ee33bea6b0d6","lat":42.84031440,"long":141.66004930,"status":"done","name":"稲穂第２公園","address":"稲穂４丁目","city":"千歳市","number":"16-7"}, 
 {"id":"65ecca3f-d6f1-4a9c-a33c-33301bea7167","lat":43.48795100,"long":141.91089000,"status":"not_yet","name":"天使幼稚園北側塀内","address":"東5南3","city":"砂川市","number":"9"}, 
 {"id":"65fcc83c-e1a8-473e-abd0-a90f427e0a9b","lat":43.06644100,"long":141.33526600,"status":"done","name":"宮部記念緑地","address":"中央区北６条西１３丁目 宮部記念緑地","city":"札幌市","number":"17-06"}, 
 {"id":"65fee58c-1080-4dd4-8c06-2b8862c6e3fd","lat":43.06383900,"long":141.39399700,"status":"done","name":"菊水みどり公園","address":"白石区菊水上町４条３丁目 菊水みどり公園","city":"札幌市","number":"11-03"}, 
 {"id":"6606984b-e5f6-4d07-9c05-1cd2a65ebb97","lat":42.02161380,"long":143.14351580,"status":"not_yet","name":"大和 個人前","address":"大和","city":"えりも町","number":"3-10"}, 
 {"id":"6606cdf1-34fa-4f05-9256-e68201884c1a","lat":43.29904800,"long":143.24820400,"status":"not_yet","name":"萩ヶ岡消防会館入口","address":"上土幌町字上土幌東３線２８９番地","city":"上士幌町","number":"7-48"}, 
 {"id":"66073d8d-8863-4332-bb7b-8d0b50e8a175","lat":42.60550110,"long":141.94563560,"status":"not_yet","name":"masked","address":"豊城421番地4","city":"むかわ町","number":"2-14"}, 
 {"id":"660f01e5-0db9-4abd-b28f-b535f0d91e6e","lat":43.06114140,"long":141.39760700,"status":"done","name":"白石ポッポ公園","address":"白石区中央３条２丁目 白石ポッポ公園","city":"札幌市","number":"12-05"}, 
 {"id":"660f08df-8bd2-41ec-a9dc-5b6ff4198c91","lat":43.02655500,"long":141.78741800,"status":"not_yet","name":"三日月会館前","address":"三日月","city":"栗山町","number":"32"}, 
 {"id":"660f145a-e042-4ca0-b8f3-0b237ef327d2","lat":43.16894916,"long":143.25307131,"status":"done","name":"西１線２７号交差点","address":"西1線27号交差点","city":"士幌町","number":"11"}, 
 {"id":"660f5725-68e0-4c02-8559-7dad228f062d","lat":43.00180000,"long":144.40994000,"status":"not_yet","name":"緑公園敷地（フェンス南面）","address":"北見団地5丁目18番地","city":"釧路町","number":"16-5"}, 
 {"id":"66111c1c-3a31-4daa-9b54-c561004f985e","lat":43.16521100,"long":141.41449000,"status":"done","name":"あいの里ふくろう公園","address":"北区あいの里３条９丁目 あいの里ふくろう公園","city":"札幌市","number":"47-03"}, 
 {"id":"6618adcb-eb18-4c58-b484-40ed90a1c740","lat":43.91940440,"long":144.25843400,"status":"not_yet","name":"中園","address":"中園","city":"網走市","number":"97"}, 
 {"id":"661d29a7-5098-4bb3-a1ce-da64347639b5","lat":42.99463110,"long":141.57089230,"status":"done","name":"美咲き野げんき公園","address":"美咲き野2丁目16番地1","city":"北広島市","number":"85"}, 
 {"id":"661ede35-ce65-4180-85a1-19d10121e392","lat":44.53202300,"long":141.76664460,"status":"not_yet","name":"レラタウン入口","address":"レラタウン入口","city":"初山別村","number":"2-5"}, 
 {"id":"661feb4c-8f22-4ead-a8cd-be2cd28a3127","lat":43.99923604,"long":142.39551540,"status":"not_yet","name":null,"address":null,"city":"和寒町","number":"2-2"}, 
 {"id":"6621532f-8a82-4ff0-aaf1-f17b0720b83d","lat":44.82866514,"long":142.29972839,"status":"not_yet","name":"旧教員住宅敷地　町有地","address":"小頓別600番1","city":"中頓別町","number":"3-25"}, 
 {"id":"6622f21d-8ce8-4061-b6a0-bc6476ed9f4b","lat":45.30927358,"long":141.05127811,"status":"done","name":"masked","address":"masked","city":"礼文町","number":"3-8"}, 
 {"id":"662cad19-9185-48b7-8b18-fc3bbf7da0fa","lat":44.94523994,"long":142.58247614,"status":"not_yet","name":"masked","address":"masked","city":"枝幸町","number":"1-3"}, 
 {"id":"662e02c9-2289-495e-9af9-e674b7ea47ba","lat":43.55798700,"long":141.94256600,"status":"not_yet","name":"東町団地横（東二号通沿）","address":"東町団地横(東二号通沿)","city":"滝川市","number":"8-7"}, 
 {"id":"662f3bdd-b7e8-4148-9789-726f9fe32ded","lat":41.96517029,"long":140.19696236,"status":"not_yet","name":"旭岱旋回所停横","address":"旭岱 旭岱旋回所停横","city":"乙部町","number":"3-19"}, 
 {"id":"663209a7-3807-4dda-9040-bd180165848e","lat":43.17601400,"long":141.04612260,"status":"done","name":"道営住宅桜東団地（54-3）","address":"桜3-18","city":"小樽市","number":"162"}, 
 {"id":"66340049-7c44-460f-bd8f-72ab0ef7d701","lat":43.08715270,"long":141.26741560,"status":"done","name":"ビレッジハウス手稲２号棟","address":"西区宮の沢３条３丁目１９番 ビレッジハウス手稲２号棟","city":"札幌市","number":"11-04"}, 
 {"id":"663685e9-d817-471e-99f9-f3a01b8d42df","lat":43.05337100,"long":141.29512000,"status":"done","name":"masked","address":"中央区","city":"札幌市","number":"27-08"}, 
 {"id":"66373087-4b4d-448c-9dfd-922790c6e16d","lat":45.33060800,"long":142.10897800,"status":"not_yet","name":"国保病院前バス停横","address":"北町25-1","city":"猿払村","number":"1-2"}, 
 {"id":"663a6833-237d-442a-9b23-e68208d61785","lat":42.17698700,"long":142.76479500,"status":"not_yet","name":"堺町児童公園フェンス","address":"堺町東２丁目","city":"浦河町","number":"14"}, 
 {"id":"66424d49-b5cd-4023-b205-b16932bc398b","lat":42.59832020,"long":142.14885770,"status":"not_yet","name":"小平生活館前","address":"字小平3番地6","city":"平取町","number":"18"}, 
 {"id":"6649d494-c5a8-4ff3-8d8f-87d3aa3d87e5","lat":43.06324020,"long":141.50232790,"status":"done","name":"クリーンハイツ文京台横Ｔ字路","address":"文京台南町　４４先","city":"江別市","number":"215"}, 
 {"id":"664bb55b-b938-4b4d-a8dd-f419092871ec","lat":41.86537320,"long":140.12919650,"status":"not_yet","name":"ハイツひまわり向","address":null,"city":"江差町","number":"29"}, 
 {"id":"664f5514-c782-4ac2-90c9-0e46ff8ba3e9","lat":42.54320000,"long":143.21745000,"status":"not_yet","name":"豊里福祉ホーム前","address":"〒089-2261 北海道広尾郡大樹町尾田","city":"大樹町","number":"4_4"}, 
 {"id":"66519269-492f-453b-b37a-6d9a243cbd25","lat":45.39918900,"long":141.76118500,"status":"not_yet","name":"masked","address":"masked","city":"稚内市","number":"116"}, 
 {"id":"66558fe0-bea5-4753-8482-635554ed71b1","lat":43.10791810,"long":141.30930030,"status":"done","name":"新川たんぽぽ公園","address":"北区新川４条１０丁目 新川たんぽぽ公園","city":"札幌市","number":"11-04"}, 
 {"id":"6658608e-a013-4b66-a71a-3bd63d4b407b","lat":42.76583900,"long":141.81889300,"status":"not_yet","name":"北海道共済職員住宅前","address":"早来大町173番地27","city":"安平町","number":"53"}, 
 {"id":"665c1f8e-7206-402f-b99d-cb3c75de5864","lat":43.28225780,"long":140.64247830,"status":"not_yet","name":"masked","address":"大字御崎町19番地4","city":"古平町","number":"22"}, 
 {"id":"665ff5ed-1792-4805-bd14-a425e3e60245","lat":null,"long":null,"status":"not_yet","name":"masked","address":"字豊幌","city":"黒松内町","number":"14"}, 
 {"id":"6662ede8-c7d8-4a32-b0d4-937fa651f289","lat":43.04089400,"long":144.76552900,"status":"not_yet","name":"公民館苫多分館前道路沿い","address":"苫多","city":"厚岸町","number":"2-18"}, 
 {"id":"6666a3ac-0880-4465-98b0-ba7a11b1fdf9","lat":43.05671700,"long":141.40780600,"status":"done","name":"白石中央東ＪＲ宿舎５０４号棟","address":"白石区平和通１丁目北 白石中央東ＪＲ宿舎５０４号棟","city":"札幌市","number":"13-02"}, 
 {"id":"66683da8-1be5-4af5-9bd1-a315f5cd2b52","lat":42.12560200,"long":140.69118600,"status":"not_yet","name":"民家横","address":"砂原4丁目","city":"森町","number":"25-123"}, 
 {"id":"666b013c-0567-440c-a612-edb7f285c583","lat":41.79262580,"long":140.74323150,"status":"done","name":"北海道教育大学グラウンド側（教育大通面）","address":"函館市八幡町1-2","city":"函館市","number":"48"}, 
 {"id":"66852375-45e0-4722-9009-3ec31cc08f06","lat":43.90123000,"long":144.68155000,"status":"not_yet","name":"網走交通横","address":"豊倉70","city":"斜里町","number":"6-31"}, 
 {"id":"668d22c5-940d-4e2f-8a6f-3ff9e7f56b1d","lat":42.63180000,"long":143.18639000,"status":"done","name":"南更別区会館付近","address":"字更別南4線73番地15","city":"更別村","number":"1-6"}, 
 {"id":"66964cf1-5c9c-4760-85ae-309a697535b4","lat":43.71651500,"long":142.03309600,"status":"not_yet","name":"2丁目線十字路","address":"3条2番","city":"深川市","number":"8"}, 
 {"id":"669af6fd-e181-48bc-81e0-a9ba2cb74b8b","lat":41.82642830,"long":140.76016360,"status":"done","name":"赤川第1街区公園","address":"函館市赤川１丁目19","city":"函館市","number":"154"}, 
 {"id":"66a2f79c-5967-472f-b681-c428a40f2cac","lat":42.97876430,"long":141.45362490,"status":"done","name":"美しが丘西公園テニスコート前","address":"清田区美しが丘４条５丁目 美しが丘西公園テニスコート前","city":"札幌市","number":"15-02"}, 
 {"id":"66abd001-9ff5-4a12-a86b-5a8148ece1f6","lat":43.36425215,"long":142.41482735,"status":"done","name":"東4線北5号丁字路","address":"東4線北5号丁字路","city":"中富良野町","number":"6-33"}, 
 {"id":"66ad70ce-76de-4e40-8869-2a198ebeeb77","lat":43.03662000,"long":144.45477000,"status":"not_yet","name":"公営住宅敷地(遠矢コレクティブセンター前)","address":"河野3丁目1番地","city":"釧路町","number":"3-1"}, 
 {"id":"66bb172d-1ca4-4af4-86b4-b8d1886e53f4","lat":41.78600070,"long":140.80650250,"status":"not_yet","name":"戸倉中学校（市道文教通3号面）","address":"函館市戸倉町26","city":"函館市","number":"316"}, 
 {"id":"66bc0fc9-c3b8-4f4a-b5c1-a94c89d48ff9","lat":41.42904058,"long":140.11142130,"status":"not_yet","name":"松前社会福祉事務出張所前","address":null,"city":"松前町","number":"13-2"}, 
 {"id":"66bebd02-4250-4169-8cc1-57153038fa97","lat":41.76642170,"long":140.72699650,"status":"done","name":"さかえ通","address":"函館市旭町4","city":"函館市","number":"24"}, 
 {"id":"66c070e1-bb50-4de2-8cb2-1c76c707616d","lat":41.96858454,"long":140.18657684,"status":"not_yet","name":"旧姫川小学校前","address":"姫川 旧姫川小学校前","city":"乙部町","number":"3-17"}, 
 {"id":"66c5c4bf-52a0-47c5-9970-b3820acf55fe","lat":43.77629100,"long":142.34863300,"status":"not_yet","name":"旭川ケーブルテレビ資材置場","address":"8条西3丁目","city":"旭川市","number":"260"}, 
 {"id":"66c5dc2c-4c38-4e80-9778-fc1d8e582172","lat":42.27445094,"long":142.61090755,"status":"not_yet","name":"蓬栄生活館前","address":"三石蓬栄","city":"新ひだか町","number":"26-65"}, 
 {"id":"66c878ed-c8af-40f5-8d0c-dcb885b19d73","lat":42.81278600,"long":141.83311500,"status":"not_yet","name":"旧安平食品工場横","address":"安平560番地","city":"安平町","number":"37"}, 
 {"id":"66d5505f-044f-4d96-b5bb-e55732b92665","lat":42.97513916,"long":141.79538730,"status":"done","name":null,"address":null,"city":"由仁町","number":"6-27"}, 
 {"id":"66dfb884-afa5-4329-81d1-40a3cc3e7a59","lat":43.85433310,"long":141.52066710,"status":"not_yet","name":"元松波横","address":"畠中町5丁目","city":"増毛町","number":"1-6"}, 
 {"id":"66ea8fc2-7e0d-470d-a741-27458e72bfc6","lat":43.05348200,"long":141.41261300,"status":"done","name":"ビッグハウス白石店駐車場","address":"白石区平和通３丁目北 ビッグハウス白石店駐車場","city":"札幌市","number":"13-06"}, 
 {"id":"66f4b378-3eca-413b-bd39-3ab9b4dfca2b","lat":42.22430160,"long":139.82860170,"status":"not_yet","name":"masked","address":"大成区本陣63","city":"せたな町","number":"52"}, 
 {"id":"6700b1de-f302-4104-bbd2-7b7cddabc082","lat":43.01797080,"long":141.35891430,"status":"done","name":"澄川むつみ公園","address":"南区澄川１条２丁目１ 澄川むつみ公園","city":"札幌市","number":"02-05"}, 
 {"id":"670364b5-1d42-4013-a3e8-fb47b6345d42","lat":43.36720520,"long":144.54289070,"status":"not_yet","name":"小林部落十字路","address":"西熊牛原野西2線131","city":"標茶町","number":"21"}, 
 {"id":"67048eaf-6573-46e8-a754-19d5caa98437","lat":45.42601000,"long":141.66705300,"status":"done","name":"宝来公園（バス通り側）","address":"稚内市宝来４丁目１番 宝来公園（バス通り側）","city":"稚内市","number":"9"}, 
 {"id":"6707d686-6288-4efb-a6db-8b283dc262a5","lat":43.30191940,"long":144.59544030,"status":"not_yet","name":"福祉センター前","address":"川上10丁目1番1","city":"標茶町","number":"4"}, 
 {"id":"670d09b7-82ad-4cf9-a3ba-6711ec2fd03b","lat":43.20961490,"long":140.76314350,"status":"done","name":"梅川第二クラブ前（左側）","address":"梅川町791番地6","city":"余市町","number":"34"}, 
 {"id":"670fa207-4722-4643-96c6-8e8b539d0818","lat":43.13982300,"long":141.24285000,"status":"done","name":"前田ふれあい公園","address":"手稲区前田８条１８丁目 前田ふれあい公園","city":"札幌市","number":"06-07"}, 
 {"id":"670fda99-62c8-4a88-a05a-35fdd33d56a8","lat":44.19145000,"long":143.11119000,"status":"done","name":"基幹集落センター前","address":"濁川中央","city":"滝上町","number":"5-5"}, 
 {"id":"6712c935-cab8-4c16-b875-e85e644d0be5","lat":43.55225060,"long":142.05864150,"status":"done","name":"赤歌警察署","address":"東大町3丁目","city":"赤平市","number":"15"}, 
 {"id":"671564a2-5ee0-4be3-9a5c-bb06e56bdc5e","lat":43.59111160,"long":142.46170470,"status":"not_yet","name":"中宇中部会館前","address":null,"city":"美瑛町","number":"51"}, 
 {"id":"67170ca1-c275-4200-86bc-a5cd7d98b831","lat":42.75206800,"long":141.93017600,"status":"not_yet","name":"厚北地域防災コミュニティセンター「ならやま」","address":"字富里３７３番の１ 厚北地域防災コミュニティセンター「ならやま」","city":"厚真町","number":"22"}, 
 {"id":"67172e00-3214-4a6f-97fc-a5298017abbb","lat":43.49760600,"long":141.92190000,"status":"not_yet","name":"masked","address":"晴見２北９","city":"砂川市","number":"57"}, 
 {"id":"672b3ce9-e6a6-447e-a535-da77f60eefbb","lat":43.05709863,"long":143.60950470,"status":"done","name":"masked","address":"相川","city":"浦幌町","number":"5-27"}, 
 {"id":"672c915a-c235-4a68-9431-28088c1a38a7","lat":43.55787700,"long":142.05001800,"status":"done","name":"錦町公園","address":"錦町2丁目3番地","city":"赤平市","number":"7"}, 
 {"id":"672d5230-21a8-4ed9-be29-fbde709be001","lat":43.05035210,"long":141.41290660,"status":"done","name":"コスモス公園","address":"白石区平和通４丁目南 コスモス公園","city":"札幌市","number":"13-04"}, 
 {"id":"6736211a-431e-401d-8c2f-3b351311e014","lat":42.92307020,"long":143.24867790,"status":"done","name":"札内北ｺﾐｭﾆﾃｨｾﾝﾀｰ前","address":"北海道中川郡幕別町札内北町132番地１","city":"幕別町","number":"78"}, 
 {"id":"673b74ea-4aab-49b0-b940-c41ea84d9a38","lat":42.62686000,"long":141.52327200,"status":"done","name":"柏木5丁目公園西面南側","address":"柏木町5丁目9柏木5丁目公園西面南側","city":"苫小牧市","number":"127"}, 
 {"id":"67437e52-f16c-45a8-9043-a6555ae626e4","lat":43.21162930,"long":140.76838360,"status":"done","name":"西中学校前","address":"梅川町339番地","city":"余市町","number":"50"}, 
 {"id":"6745a0b4-46b6-4d0a-a3ea-8d4f206cdfdb","lat":42.35924090,"long":139.90833930,"status":"done","name":"新函館農協若松支店倉庫前","address":"北檜山区若松519-1","city":"せたな町","number":"32"}, 
 {"id":"67481b15-a3e4-49b5-94f7-c15c6a074505","lat":43.72219240,"long":142.38500620,"status":"done","name":"南高等学校グラウンドフェンス","address":"緑が丘東3条3丁目","city":"旭川市","number":"6150"}, 
 {"id":"6753be78-a558-49c9-b80a-2b46a33c1cd3","lat":43.02910220,"long":141.49088200,"status":"done","name":"熊の沢公園","address":"厚別区もみじ台西６丁目 熊の沢公園","city":"札幌市","number":"11-05"}, 
 {"id":"6753ca35-763f-4b35-9d6d-75cc118dedc0","lat":42.29737345,"long":143.29776764,"status":"not_yet","name":"広尾ボデー向","address":"丸山通南２丁目","city":"広尾町","number":"3-13"}, 
 {"id":"67565354-b3d2-4423-a153-9424e1d66f30","lat":43.55777700,"long":141.91037000,"status":"not_yet","name":"masked","address":"masked","city":"滝川市","number":"11-2"}, 
 {"id":"67624f41-34f5-4854-b5b9-56d7845d7bb1","lat":42.99356000,"long":144.47386000,"status":"not_yet","name":"町道別保双河辺線敷地(五月橋詰)","address":"別保4丁目39番地5地先","city":"釧路町","number":"1-3"}, 
 {"id":"6765a448-2cad-4b1f-b0d7-f636883a4047","lat":43.06906900,"long":141.34574900,"status":"done","name":"北海道クリスチャンセンター西横","address":"北区北７条西６丁目 北海道クリスチャンセンター西横","city":"札幌市","number":"01-01"}, 
 {"id":"6767f72a-65fb-432b-8d35-fc9104a03c2b","lat":42.94392830,"long":143.08059160,"status":"reserved","name":"道道帯広新得線鳳恵寺前","address":"北海道河西郡芽室町西士狩北4線57","city":"芽室町","number":"68"}, 
 {"id":"6769c8e3-a71c-4ac3-9d8f-43143a0115c4","lat":42.45810520,"long":139.84997540,"status":"done","name":"B&G海洋センター駐車場前","address":"瀬棚区三本杉22","city":"せたな町","number":"69"}, 
 {"id":"67753c0e-dc69-414b-841b-89ef7c97daa7","lat":43.68979320,"long":141.94912616,"status":"not_yet","name":"町道内田線入口","address":"妹背牛２８１−８１","city":"妹背牛町","number":"5"}, 
 {"id":"67753d84-6e52-4d77-b450-840afe77f41d","lat":41.79355710,"long":140.75517890,"status":"done","name":"道立函館美術館駐車場（五稜郭タワー向かい面）","address":"函館市五稜郭町37","city":"函館市","number":"186"}, 
 {"id":"6776f875-48be-4184-a029-ee8b4ad55567","lat":43.79305940,"long":142.38570940,"status":"not_yet","name":"新富なかよし公園","address":"新富1条3丁目","city":"旭川市","number":"2720"}, 
 {"id":"677c12d8-3e71-4c64-9157-5dbf9516e8c1","lat":41.41624498,"long":140.16837000,"status":"not_yet","name":"スズキの沢入口","address":null,"city":"松前町","number":"18-1"}, 
 {"id":"677f142a-0f80-4b4e-bbcd-42e91d3dff82","lat":42.80862730,"long":140.68535810,"status":"not_yet","name":"ニセコ駅前温泉綺羅乃湯","address":"字中央通29番地1","city":"ニセコ町","number":"第1投票区1"}, 
 {"id":"678079e6-4e21-4018-a217-e5c6edd643f4","lat":43.18078790,"long":140.80286220,"status":"done","name":"マロニエ公園","address":"黒川町16丁目29番地","city":"余市町","number":"27"}, 
 {"id":"67812c92-30b8-405c-98d5-7966f8c4e131","lat":43.11539500,"long":141.34480300,"status":"done","name":"北４６条つくし公園　南側","address":"東区北４６条東１丁目１番 北４６条つくし公園　南側","city":"札幌市","number":"09-05"}, 
 {"id":"6786b58e-aadc-4d98-b9f2-340bcd420676","lat":43.82375290,"long":144.10716870,"status":"not_yet","name":"せせらぎ橋南東側","address":"せせらぎ橋南東側_町道8号・102号交点","city":"美幌町","number":"1-5"}, 
 {"id":"678d76ca-ae24-4bb6-903c-abca7d372af0","lat":43.08011600,"long":142.83660100,"status":"done","name":"新得町図書館裏手","address":"２条南","city":"新得町","number":"2-4"}, 
 {"id":"679c8234-70a3-4583-a96d-69fd250bd534","lat":43.99090820,"long":144.28128840,"status":"not_yet","name":"鱒浦３","address":"鱒浦３","city":"網走市","number":"103"}, 
 {"id":"67a51585-1649-46b1-81fc-4ccd7c6023ee","lat":42.64431560,"long":141.59864990,"status":"done","name":"緑町2丁目公園西面南側","address":"緑町2丁目12緑町2丁目公園西面南側","city":"苫小牧市","number":"53"}, 
 {"id":"67ae781f-021f-4e1a-8cef-beb2e4ebae56","lat":43.78141340,"long":142.38021070,"status":"done","name":"山崎製パン札幌工場旭川営業所さく","address":"東6条6丁目","city":"旭川市","number":"2650"}, 
 {"id":"67b18223-5499-40e0-91fa-763e53123368","lat":43.04756500,"long":141.38233900,"status":"done","name":"東園小学校校門横","address":"豊平区豊平１条１２丁目 東園小学校校門横","city":"札幌市","number":"03-01"}, 
 {"id":"67b7b507-33b1-47e9-ac59-8c4c7867ede0","lat":43.02222100,"long":141.96594200,"status":"not_yet","name":"ビレッジハウス新千代田前付近","address":"千代田 ビレッジハウス新千代田前付近","city":"夕張市","number":"4-3"}, 
 {"id":"67b8e001-b7fa-4b11-a354-e09a96d6a07b","lat":43.05136600,"long":141.39956960,"status":"done","name":"にこにこ公園","address":"白石区中央１条６丁目 にこにこ公園","city":"札幌市","number":"12-02"}, 
 {"id":"67beb701-d3d0-4f23-a8b4-54bde2e20b81","lat":43.10008400,"long":141.34203500,"status":"done","name":"地下鉄北３４条駅３番出入口","address":"北区北３３条西４丁目 地下鉄北３４条駅３番出入口","city":"札幌市","number":"36-04"}, 
 {"id":"67c059fd-8c55-402c-8c84-fd466ce85791","lat":42.36296705,"long":142.40258930,"status":"not_yet","name":"目名生活改善センター前","address":"静内目名","city":"新ひだか町","number":"15-44"}, 
 {"id":"67cb93d0-6ebb-4761-9bb7-ab216620b4e0","lat":43.02913150,"long":141.39200420,"status":"done","name":"平和公園東側","address":"豊平区月寒西２条７丁目 平和公園東側","city":"札幌市","number":"12-04"}, 
 {"id":"67cd6eaf-b2ac-45da-85b3-723cec997259","lat":42.28402810,"long":139.80357370,"status":"not_yet","name":"砥歌橋横","address":"大成区太田47-9","city":"せたな町","number":"49"}, 
 {"id":"67cda8f2-f2fc-4d17-9431-2664c1b277cb","lat":44.05333130,"long":143.50872910,"status":"not_yet","name":"瀧本皮膚科クリニック横","address":"遠軽町西町2丁目","city":"遠軽町","number":"9"}, 
 {"id":"67cdcf1a-4225-414e-b45c-45d7911504c4","lat":43.72364400,"long":142.05380200,"status":"not_yet","name":"(位置情報が見つかりませんでした)","address":"拓大北海道短期大学前","city":"深川市","number":"21"}, 
 {"id":"67d0688e-0c16-44b9-bfd8-fe91c5627353","lat":43.09189990,"long":141.52577750,"status":"done","name":"野幌老人憩いの家横","address":"野幌町６０－９","city":"江別市","number":"131"}, 
 {"id":"67d0d1ae-0e90-420d-8596-3f0e49ea761c","lat":41.77985870,"long":140.81880720,"status":"not_yet","name":"高松町公園","address":"函館市高松町575","city":"函館市","number":"326"}, 
 {"id":"67d4e454-19a5-4bd2-af99-7e7d65f4372f","lat":43.02235370,"long":144.40500790,"status":"not_yet","name":"美原小学校正門付近","address":"美原４丁目３番地先","city":"釧路市","number":"156"}, 
 {"id":"67d7e801-830b-45f9-b101-1b3747361c53","lat":43.76805220,"long":142.39841120,"status":"done","name":"豊岡小学校さく(豊岡9条側)","address":"豊岡10条3丁目","city":"旭川市","number":"850"}, 
 {"id":"67da230e-2fa4-407b-8bfe-c56bb9022d2b","lat":43.09825670,"long":143.48462105,"status":"done","name":"勇足西５会館前","address":"勇足西５","city":"本別町","number":"34"}, 
 {"id":"67edf0c5-ed89-4ea6-a830-f7c07757c7b8","lat":44.01125540,"long":144.10930170,"status":"not_yet","name":"卯原内","address":"卯原内","city":"網走市","number":"78"}, 
 {"id":"67fb25fe-5dd6-4461-a1df-7da79168627d","lat":42.97082164,"long":140.67744255,"status":"done","name":null,"address":null,"city":"共和町","number":"1-2"}, 
 {"id":"6802eeed-96fa-444b-b5d9-23b1fbac87eb","lat":42.32305530,"long":140.97151200,"status":"not_yet","name":"港湾部庁舎正門前花壇","address":"海岸町1丁目20番地30","city":"室蘭市","number":"4-1"}, 
 {"id":"68088f85-6649-41ec-89ce-74baeba471fc","lat":43.25681730,"long":140.39194380,"status":"not_yet","name":"神岬漁港入口付近","address":"大字神岬町24-28","city":"積丹町","number":"27"}, 
 {"id":"680c2adb-41ed-42b8-861e-b17e37f479e8","lat":43.03042200,"long":141.37037700,"status":"done","name":"平岸七草公園","address":"豊平区平岸３条１０丁目 平岸七草公園","city":"札幌市","number":"17-07"}, 
 {"id":"680d7ea7-bb2d-4f6c-b27f-a5c56a30a06d","lat":43.15847290,"long":140.40178560,"status":"not_yet","name":"赤石集会所横","address":"古宇郡神恵内村大字赤石村２３番地の１","city":"神恵内村","number":"6"}, 
 {"id":"680df6de-cf47-49c4-92f3-4ad70042d3ab","lat":42.98086921,"long":144.12931681,"status":"not_yet","name":"庶路コミュニティセンター北側","address":"庶路コミュニティセンター","city":"白糠町","number":"10-1"}, 
 {"id":"681136ba-533b-451f-900f-2e1ca7c49ee4","lat":43.32630490,"long":145.59410130,"status":"not_yet","name":"第3ヤマイチ荘横空地道路","address":"昭和町3-61","city":"根室市","number":"27-2"}, 
 {"id":"68173f0a-9bc2-4a60-80f3-63382f92db18","lat":45.08643700,"long":142.41909300,"status":"not_yet","name":"旧豊寒別小学校入り口","address":"豊寒別（2）","city":"枝幸町","number":"3-22"}, 
 {"id":"6817c1b8-534a-46c0-b712-45fb4bad02c9","lat":43.32726860,"long":142.46913530,"status":"not_yet","name":"八幡丘会館八幡丘","address":null,"city":"富良野市","number":"1-11"}, 
 {"id":"681ec2ad-c069-4d18-b375-bb65f3d10513","lat":42.56070400,"long":140.95385000,"status":"not_yet","name":"上久保内第1集会所前","address":"宇上久保内49-1","city":"壮瞥町","number":"18"}, 
 {"id":"6820e220-0e4c-43a2-ba21-576d5178e5f2","lat":43.18541210,"long":140.98965270,"status":"not_yet","name":"山の手小学校","address":"花園5-2-20","city":"小樽市","number":"83"}, 
 {"id":"682dffaa-bb3e-47f3-b67a-2b4e2ee2e435","lat":42.55485170,"long":141.37237720,"status":"not_yet","name":"セイコーマート横","address":"日の出町4丁目47番地11","city":"白老町","number":"9-1"}, 
 {"id":"6832323e-c3b8-4297-8f3f-38aa7d2d792b","lat":43.08607390,"long":141.54186140,"status":"done","name":"すずめ公園","address":"あさひが丘４９","city":"江別市","number":"108"}, 
 {"id":"6839cc47-8677-4255-af77-ae2ba165e6cd","lat":43.07217000,"long":141.27824400,"status":"done","name":"手稲東小学校","address":"西区西野４条３丁目７番 手稲東小学校","city":"札幌市","number":"14-01"}, 
 {"id":"683aa0e3-d123-4164-8168-3ed10f840418","lat":42.90346900,"long":142.00470000,"status":"not_yet","name":"郵便局横国道沿付近","address":"滝ノ上 郵便局横国道沿付近","city":"夕張市","number":"13-9"}, 
 {"id":"68403f8f-d99b-4315-a621-d9a580eb5dee","lat":43.15998670,"long":141.86998650,"status":"done","name":"朝日病院前バス停横","address":"朝日町50-43地先","city":"岩見沢市","number":"89"}, 
 {"id":"6840ccd3-00c5-42c9-a96d-3b7816df5ecd","lat":43.47650120,"long":143.69092615,"status":"not_yet","name":"弥生会館向い側取付ゴミステーション横","address":"弥生","city":"陸別町","number":"4-22"}, 
 {"id":"68436d0a-e1b6-45f8-aea9-fe9523381ddc","lat":42.94455100,"long":143.22273200,"status":"not_yet","name":null,"address":"北海道河東郡音更町宝来東町南2-6-8","city":"音更町","number":"45"}, 
 {"id":"6846d7db-a822-4438-9352-07edf4baebdd","lat":43.08576200,"long":141.29643200,"status":"done","name":"発寒大空公園","address":"西区発寒４条２丁目１番 発寒大空公園","city":"札幌市","number":"28-04"}, 
 {"id":"684cd598-977b-49df-9657-6f1378c79f9c","lat":44.01134036,"long":145.18592248,"status":"not_yet","name":"masked","address":"礼文町","city":"羅臼町","number":"16"}, 
 {"id":"68587226-a996-47b9-8657-d7ed92d664ce","lat":42.50851800,"long":140.36729400,"status":"not_yet","name":"中部第3団地前","address":"字長万部411番地28 中部第3団地前","city":"長万部町","number":"19"}, 
 {"id":"6861eeb9-92a6-4a6c-be3f-732ac17023a9","lat":42.72910730,"long":143.18856650,"status":"done","name":"種苗管理センター事務所正門東向道路沿植樹前","address":"種苗管理センター事務所正門東向道路沿植樹前","city":"帯広市","number":"260"}, 
 {"id":"6864fc3b-5051-4b4d-b147-81ab0f1ad7b0","lat":42.23237480,"long":139.84705430,"status":"done","name":"masked","address":"大成区花歌61-6","city":"せたな町","number":"58"}, 
 {"id":"686677ec-cfe6-4dd4-9c4e-eb72926e5079","lat":43.06340109,"long":141.64157870,"status":"done","name":null,"address":null,"city":"南幌町","number":"1-5"}, 
 {"id":"686c385b-d454-4416-a0ab-f4c382e83e18","lat":42.96112100,"long":141.29820300,"status":"done","name":"コープさっぽろ藤野店東側（市道）","address":"南区藤野３条６丁目１ コープさっぽろ藤野店東側（市道）","city":"札幌市","number":"04-07"}, 
 {"id":"686cb8a5-a95c-412e-8e7b-c15b0a8d9709","lat":45.41569100,"long":141.67311100,"status":"not_yet","name":"更喜苫内町内会館40号線入口","address":"稚内市更喜苫内 更喜苫内町内会館40号線入口","city":"稚内市","number":"130"}, 
 {"id":"686f282a-083d-4e25-9801-6ce8798d60fe","lat":41.77401400,"long":140.74452050,"status":"done","name":"高盛公園（27番向い面）","address":"函館市高盛町17","city":"函館市","number":"203"}, 
 {"id":"6870312c-02af-4e94-a14a-13a364b8b788","lat":42.98806170,"long":141.35177660,"status":"done","name":"真駒内川緑地（北側）","address":"南区真駒内泉町１丁目６ 真駒内川緑地（北側）","city":"札幌市","number":"31-06"}, 
 {"id":"68735804-d1cc-4d02-8e2e-204cbd855ddc","lat":42.78215060,"long":142.21908640,"status":"not_yet","name":"富内市街公営住宅前穂別富内","address":"穂別富内64番地","city":"むかわ町","number":"11-70"}, 
 {"id":"6876fdba-b06b-4b39-b63d-d4bfc128d26f","lat":42.66918200,"long":140.58658600,"status":"not_yet","name":"新富へき地保健福祉館入口","address":"新富700－3","city":"豊浦町","number":"14"}, 
 {"id":"687b1e63-34c0-4c36-8709-dbc4d378476d","lat":43.18513240,"long":140.84328080,"status":"done","name":"栄町農業構造改善センター前","address":"栄町601番地3","city":"余市町","number":"21"}, 
 {"id":"687bfd82-9733-41d4-88db-8eb660325297","lat":43.75879730,"long":142.39825360,"status":"done","name":"寺岡種苗園さく","address":"豊岡3条3丁目","city":"旭川市","number":"750"}, 
 {"id":"687d2777-1990-4f48-bb05-9004fe50c93c","lat":43.02465400,"long":141.34471100,"status":"done","name":"北海学園大学工学部","address":"中央区南２６条西１１丁目 北海学園大学工学部","city":"札幌市","number":"01-02"}, 
 {"id":"687ea259-c532-41b5-9bd3-0384e83d2f8f","lat":41.54406336,"long":139.99588250,"status":"not_yet","name":"江良上町バス待合所横空地","address":null,"city":"松前町","number":"2-7"}, 
 {"id":"6881c152-fa25-4c07-9c77-0452cd751df6","lat":43.09984200,"long":141.36726400,"status":"done","name":"北30条やすらぎ公園　西側","address":"東区北30条東14丁目１番 北30条やすらぎ公園　西側","city":"札幌市","number":"14-04"}, 
 {"id":"68889043-feb6-42b9-a81b-bf6251752210","lat":41.60460460,"long":140.38642280,"status":"not_yet","name":"重内64-607地先(道道)","address":"重内64-607地先","city":"知内町","number":"6-18"}, 
 {"id":"68892747-983b-4465-b678-ed895e32c27c","lat":43.32217950,"long":145.59963540,"status":"not_yet","name":"セイコーマート光洋向い道路","address":"光洋町2-14","city":"根室市","number":"8-2"}, 
 {"id":"688b2df8-023c-4790-a18a-4929881bd745","lat":42.41019000,"long":141.09115000,"status":"done","name":"かえで公園前","address":"新川町4丁目1番地4地先","city":"登別市","number":"ねむの木の家"}, 
 {"id":"68985348-c01e-4e1f-9c0a-0931af06f40b","lat":42.69627000,"long":143.21013700,"status":"done","name":"平和行政会館","address":"字更別西8線16番地4","city":"更別村","number":"1-8"}, 
 {"id":"689a01e0-368e-45bc-b6d5-ce258c0b8b4a","lat":42.76238969,"long":143.63731384,"status":"done","name":"3線道道路入口","address":"統太","city":"浦幌町","number":"8-38"}, 
 {"id":"689aaf0c-0b13-4c05-88f5-499dd2af9c8c","lat":43.21214320,"long":140.98340280,"status":"not_yet","name":"小樽桜陽高校 (正門付近)","address":"長橋3-19-1","city":"小樽市","number":"52"}, 
 {"id":"689b9eb1-6b7a-480b-bbbe-8fa4a2e2d5be","lat":43.84811522,"long":142.78128147,"status":"done","name":"旧市橋商店向","address":null,"city":"上川町","number":"7"}, 
 {"id":"68a20e06-2cf5-4e23-ab72-c3454c49afc7","lat":43.16005350,"long":141.39317490,"status":"done","name":"あいの里つくし公園","address":"北区あいの里２条４丁目 あいの里つくし公園","city":"札幌市","number":"43-04"}, 
 {"id":"68a61b47-4151-4c21-a6ae-0418fb7c07f9","lat":43.55478420,"long":144.95671550,"status":"not_yet","name":"西町公住公衆電話付近","address":"西町3丁目","city":"中標津町","number":"4-24"}, 
 {"id":"68af5298-c522-4334-8ebf-4f20554fc697","lat":42.35020749,"long":142.36892420,"status":"not_yet","name":"堀氏所有地牧柵前","address":"静内中野町2丁目","city":"新ひだか町","number":"11-35"}, 
 {"id":"68b5fb0a-b8a6-43f1-9e37-8191703f4f47","lat":43.87740616,"long":145.09565931,"status":"not_yet","name":"羅臼消防団第六分団詰所横空き地","address":"峯浜町","city":"羅臼町","number":"2"}, 
 {"id":"68b9dfa8-4f84-4eb7-a194-9f6c267dc8d2","lat":43.10883900,"long":144.92521800,"status":"not_yet","name":"つくし保育所前","address":"糸魚沢","city":"厚岸町","number":"11-3"}, 
 {"id":"68c34978-5031-4740-bda0-b24d7aa24c0b","lat":44.54784834,"long":142.98757553,"status":"not_yet","name":"栄丘　栄丘線入口前  ","address":null,"city":"雄武町","number":"34"}, 
 {"id":"68c6120a-404f-4624-b668-9489823dc145","lat":42.98271630,"long":144.40453800,"status":"not_yet","name":"釧路短大入口横","address":"緑ヶ岡１丁目１０番地先","city":"釧路市","number":"24"}, 
 {"id":"68c6dd79-0a6a-43d8-8060-a8c1388312c9","lat":45.21272300,"long":142.22132900,"status":"not_yet","name":"浅茅野小学校看板横","address":"浅茅野336-1","city":"猿払村","number":"2-9"}, 
 {"id":"68cbe45a-a15d-4608-92fc-a5f1dab11480","lat":43.24219200,"long":141.82801000,"status":"done","name":"市道インター2号線起点西側","address":"岡山359-1","city":"三笠市","number":"37"}, 
 {"id":"68cca973-3f6c-4a24-b90b-275973c8c267","lat":45.11239000,"long":142.28412000,"status":"not_yet","name":"masked","address":"仁達内","city":"浜頓別町","number":"27"}, 
 {"id":"68ce1e2a-1ec7-4edb-8494-cfe00ab16ed6","lat":43.08107800,"long":145.12970000,"status":"not_yet","name":"（大地みらい信金）横 公衆トイレ前","address":"霧多布東1条1丁目42番地","city":"浜中町","number":"5"}, 
 {"id":"68cea0e2-b35e-4b4b-9e43-470abd58cf22","lat":43.18241460,"long":141.77775600,"status":"done","name":"緑が丘連合会館向い柵","address":"緑が丘3丁目188","city":"岩見沢市","number":"26"}, 
 {"id":"68d1f383-8ed8-4f36-b41f-d87fcefca955","lat":43.14121200,"long":141.35223400,"status":"done","name":"太平小学校校門横","address":"北区篠路１条２丁目 太平小学校校門横","city":"札幌市","number":"25-01"}, 
 {"id":"68d5103d-6068-402a-b551-0ab707db5e1a","lat":43.09177000,"long":141.40037500,"status":"done","name":"タイガー公園　南側","address":"東区伏古９条５丁目５番 タイガー公園　南側","city":"札幌市","number":"35-02"}, 
 {"id":"68d9c0c5-70a0-4817-becc-4441b818da17","lat":43.24649500,"long":141.87099900,"status":"done","name":"市立三笠総合病院かえで通り東側","address":"宮本町489-1","city":"三笠市","number":"27"}, 
 {"id":"68dfecca-664d-4317-b335-6b08a9e06ec4","lat":45.39518700,"long":141.71469100,"status":"done","name":"ツルガ内装前","address":"稚内市はまなす１丁目１５番２２号 ツルガ内装前","city":"稚内市","number":"96"}, 
 {"id":"68e02f64-a1a7-451e-9e4b-0c7cddaa9da3","lat":43.19934800,"long":141.77856400,"status":"done","name":"鳩が丘公園","address":"鳩が丘2丁目","city":"岩見沢市","number":"16"}, 
 {"id":"68fa020c-59c1-4a2f-861c-2556b99ed094","lat":42.91998000,"long":143.20886000,"status":"done","name":"東２条１１丁目バス停前公園北側　11丁目線沿","address":"東２条１１丁目バス停前公園北側　11丁目線沿","city":"帯広市","number":"35"}, 
 {"id":"68fc6930-9650-4e00-b383-cd3cbc673308","lat":42.98090400,"long":141.33734100,"status":"done","name":"北海道電力ネットワーク(株)札幌南ネットワークセンター駐車場","address":"南区川沿１２条１丁目１ 北海道電力ネットワーク(株)札幌南ネットワークセンター駐車場","city":"札幌市","number":"27-02"}, 
 {"id":"69001db8-f201-4b5f-8874-411a9da000be","lat":43.30766600,"long":143.70555000,"status":"done","name":null,"address":"足寄町螺湾本町３０","city":"足寄町","number":"44"}, 
 {"id":"6910cc93-9f1e-438e-9eb9-4b87e37fd525","lat":42.84002300,"long":141.59326200,"status":"not_yet","name":"桜木５丁目バス停前","address":"上長都","city":"千歳市","number":"9-8"}, 
 {"id":"69198d75-1a5b-487e-9c1b-349290f0c1e3","lat":42.48282870,"long":140.86777290,"status":"done","name":"胆振農業改良普及センター前","address":"末永町147番地1","city":"伊達市","number":"4-11"}, 
 {"id":"6921e36f-3b11-478d-b6c2-b76a8806c662","lat":43.08302400,"long":142.99548400,"status":"done","name":"下鹿追地域集会所","address":"鹿追南1線7-76","city":"鹿追町","number":"1-9"}, 
 {"id":"69253def-d9b3-49cc-94cd-16a3d1f50e2f","lat":42.08651100,"long":140.60045500,"status":"not_yet","name":"民家附近","address":"白川","city":"森町","number":"11-62"}, 
 {"id":"69262273-b69b-41f8-81e0-cf07efb7b3a6","lat":41.95531700,"long":140.71136320,"status":"not_yet","name":"川尻会館横","address":"上軍川 川尻会館横","city":"七飯町","number":"17-74"}, 
 {"id":"692a4f87-028f-4964-ada6-a7e92aad4be5","lat":43.11506300,"long":141.26303100,"status":"done","name":"市営住宅稲積集会所前","address":"手稲区前田３条４丁目 市営住宅稲積集会所前","city":"札幌市","number":"02-06"}, 
 {"id":"69344747-59a5-42f8-8b2b-64f8f2296953","lat":43.43053000,"long":141.88312000,"status":"error_wrong_place","name":"北町団地公営住宅内公園","address":"北町５区","city":"奈井江町","number":"14"}, 
 {"id":"6936b278-f58f-4c6b-aae1-d3db91ba9557","lat":43.24950900,"long":143.29882300,"status":"done","name":"開拓婦人ホーム跡地前","address":"上土幌町字居辺東１０線３０２番地","city":"上士幌町","number":"5-37"}, 
 {"id":"69404805-2bab-440c-b344-c031650292d6","lat":43.87196000,"long":144.64176000,"status":"not_yet","name":"旧川上小学校前","address":"川上122","city":"斜里町","number":"8-45"}, 
 {"id":"694933fb-4d48-4c07-be44-c3faf58e9082","lat":43.51606300,"long":142.18672800,"status":"not_yet","name":"㈱ヨシザワ建設横","address":"南１条西１丁目１−１６","city":"芦別市","number":"17"}, 
 {"id":"69525887-1d86-44ba-8300-78193f01df91","lat":44.09646199,"long":142.36041069,"status":"not_yet","name":null,"address":null,"city":"剣淵町","number":"1"}, 
 {"id":"6958818d-59d5-4152-af59-96f9e739a7fc","lat":43.76789580,"long":142.28550330,"status":"not_yet","name":"北海道地図へい(台場小バス停後方)","address":"台場1条2丁目","city":"旭川市","number":"7420"}, 
 {"id":"6958e38f-b570-4410-8676-42c7f3f45772","lat":45.38528400,"long":141.72079500,"status":"not_yet","name":"富岡４－１８広場","address":"稚内市富岡４丁目１８番 富岡４－１８広場","city":"稚内市","number":"110"}, 
 {"id":"6974f3da-b179-4ece-a4b0-d6faa9bd2da9","lat":43.38035500,"long":143.80216900,"status":"not_yet","name":null,"address":"足寄町上足寄１３５−５","city":"足寄町","number":"47"}, 
 {"id":"697626c4-4af6-4b40-adcb-f2c67a1c856f","lat":43.77168700,"long":142.43118300,"status":"done","name":"今崎ふとん店横空き地","address":"東旭川北1条3丁目","city":"旭川市","number":"1810"}, 
 {"id":"69764352-3edb-4611-af50-f42c0abda977","lat":43.76171670,"long":142.36489000,"status":"done","name":"日新の森公園","address":"宮下通12丁目","city":"旭川市","number":"430"}, 
 {"id":"6979df39-8591-492d-b971-fe9f941b4b3c","lat":45.26387000,"long":142.20774800,"status":"not_yet","name":"バス停留所横","address":"猿払128-64","city":"猿払村","number":"5-19"}, 
 {"id":"697cd912-f821-4d00-9aba-38737954299e","lat":44.87928600,"long":142.02334700,"status":"not_yet","name":"国府地区農作業管理休養施設","address":"中川郡中川町字国府","city":"中川町","number":"1"}, 
 {"id":"6980d121-2390-4527-ad13-bc9ed3e47231","lat":42.99259900,"long":142.01055900,"status":"not_yet","name":"旧南支所前道路沿付近","address":"清水沢宮前町 旧南支所前道路沿付近","city":"夕張市","number":"6-7"}, 
 {"id":"699ad630-3925-42b3-9832-440b22be759d","lat":43.34213190,"long":145.59229550,"status":"not_yet","name":"masked","address":"駒場町2-4-1","city":"根室市","number":"26-2"}, 
 {"id":"699deaef-29d9-4396-92f7-bf967f2f6e4c","lat":43.22590600,"long":145.24234100,"status":"not_yet","name":"道路建設事業所跡地向い道路","address":"西厚床113","city":"根室市","number":"17-5"}, 
 {"id":"69a20615-cd79-47ff-b6bd-b37781538960","lat":43.04716500,"long":141.29119900,"status":"done","name":"バス停「大倉山競技場入口」","address":"中央区宮の森２条１６丁目 バス停「大倉山競技場入口」","city":"札幌市","number":"33-04"}, 
 {"id":"69a236ca-e86d-4658-b64e-a37bf143110d","lat":44.56810000,"long":141.78750000,"status":"not_yet","name":"豊岬バス停留所(上り)","address":"豊岬バス停留所(上り)","city":"初山別村","number":"2-4"}, 
 {"id":"69a6cad1-4843-4ae2-9752-88cb6a7f9a60","lat":43.55777700,"long":141.91037000,"status":"not_yet","name":"ロータスバレー西側（栄町１丁目１０番）","address":"ロ-タスバレ-西側(栄町1丁目10番)","city":"滝川市","number":"3-5"}, 
 {"id":"69a9519a-e0c7-454a-85cf-621b31f04c36","lat":42.95964180,"long":144.44993260,"status":"not_yet","name":"白樺台シルバー公園","address":"白樺台４丁目３番地先","city":"釧路市","number":"83"}, 
 {"id":"69bbc19f-392d-4193-baf9-31176e74eb7e","lat":43.84137000,"long":143.93131700,"status":"done","name":"国道39号線東11号交差点付近","address":"端野町三区564番地1","city":"北見市","number":"端野第3"}, 
 {"id":"69bc34b5-3628-474a-84a6-09ceb25c1de5","lat":43.04707300,"long":141.44009400,"status":"done","name":"ＪＲ平和駅　自転車駐輪場","address":"白石区北郷１条１３丁目 ＪＲ平和駅　自転車駐輪場","city":"札幌市","number":"01-07"}, 
 {"id":"69bf64bd-9e9d-43f9-ac6a-b7397a069858","lat":43.78904151,"long":143.62088174,"status":"not_yet","name":"宮下町会館","address":"留辺蘂町宮下町114番地4","city":"北見市","number":"留辺蘂第3"}, 
 {"id":"69c2cd36-a76f-49ba-b5f9-a5951beb689e","lat":43.01896190,"long":141.39270020,"status":"done","name":"西岡みつば公園","address":"豊平区西岡４条２丁目 西岡みつば公園","city":"札幌市","number":"21-08"}, 
 {"id":"69ccd1ac-4a62-4a85-bc27-f1d45f9d53f0","lat":43.79208920,"long":142.31495560,"status":"not_yet","name":"masked","address":"近文町25丁目","city":"旭川市","number":"3740"}, 
 {"id":"69d15d14-e6c1-49ae-ac4a-594b49cc2c61","lat":43.51214469,"long":144.44446564,"status":"not_yet","name":"旧道々網走線分岐  ","address":null,"city":"弟子屈町","number":"14-43"}, 
 {"id":"69d44f6d-31c2-4d40-9b7a-64aeb7124f7e","lat":42.87800600,"long":142.44124600,"status":"done","name":"役場日高総合支所横駐車場","address":"本町東3-299-1役場日高総合支所横駐車場","city":"日高町","number":"2"}, 
 {"id":"69d6e1e1-4795-4d6a-9b1b-e397237c4fa9","lat":43.00628640,"long":141.55359140,"status":"done","name":"西裏線・西裏橋（東側）","address":"北の里62番地2","city":"北広島市","number":"10"}, 
 {"id":"69dd519a-0d51-477f-86eb-b6dceb962e10","lat":42.97816909,"long":144.12860870,"status":"not_yet","name":"アサヒストア南側","address":"庶路コミュニティセンター","city":"白糠町","number":"10-4"}, 
 {"id":"69e09004-3207-44e9-b89f-816a7c277c6c","lat":43.02210610,"long":141.47838680,"status":"done","name":"新札幌わかば小学校裏門横","address":"厚別区厚別南７丁目 新札幌わかば小学校裏門横","city":"札幌市","number":"15-07"}, 
 {"id":"69e2c689-2014-4dd4-af23-c2cf439feac4","lat":43.40575360,"long":142.42513700,"status":"not_yet","name":"8号停留所付近","address":"8号停留所付近","city":"中富良野町","number":"4-23"}, 
 {"id":"69eaf302-1511-4a5f-b883-931cad2b1658","lat":43.79811500,"long":142.27063000,"status":"not_yet","name":"嵐山保育所さく","address":"江丹別町嵐山","city":"旭川市","number":"7820"}, 
 {"id":"69ee99ad-7e77-4849-96c4-8af49d7a7f72","lat":43.74139844,"long":143.68941307,"status":"not_yet","name":"駒里　町道西31号線 南9線 交差点","address":null,"city":"訓子府町","number":"3-16"}, 
 {"id":"69f2c2d6-6b4f-4527-a335-c36bb10c439f","lat":43.01069680,"long":141.39909120,"status":"done","name":"福住ひまわり公園","address":"豊平区福住３条７丁目 福住ひまわり公園","city":"札幌市","number":"27-06"}, 
 {"id":"69f48a04-3807-4cf2-a907-529d449c9b25","lat":42.68499380,"long":143.30705960,"status":"not_yet","name":"町道弘和15線交差点付近","address":"北海道中川郡幕別町字駒畠241番地１","city":"幕別町","number":"81"}, 
 {"id":"69fc2f2e-f8bd-474e-a251-8cc070398b70","lat":43.05634400,"long":144.84580500,"status":"not_yet","name":"あみか21前道路沿い","address":"住の江・山の手","city":"厚岸町","number":"2-14"}, 
 {"id":"6a03dbff-935b-4e58-88ae-5655e15118ab","lat":42.83558950,"long":141.63169270,"status":"not_yet","name":"しなの公園","address":"信濃２丁目","city":"千歳市","number":"8-2"}, 
 {"id":"6a06c6de-0a48-49a1-808c-917048e64453","lat":43.05902300,"long":141.77597500,"status":"done","name":"カルチャープラザ前","address":"中央２丁目","city":"栗山町","number":"16"}, 
 {"id":"6a089762-d11f-4b18-94d4-09330013d18e","lat":42.91497220,"long":143.16069440,"status":"done","name":"柏南第２児童公園北入口西側植樹前","address":"柏南第２児童公園北入口西側植樹前","city":"帯広市","number":"267"}, 
 {"id":"6a0c23cb-4ca5-4187-a2c7-63955d60f48c","lat":43.09984200,"long":141.36726400,"status":"done","name":"北３０条やすらぎ公園　東側","address":"東区北３０条東１４丁目１番 北３０条やすらぎ公園　東側","city":"札幌市","number":"14-03"}, 
 {"id":"6a0edd04-fdf2-4491-912a-e148b53f2451","lat":42.65634250,"long":142.10273040,"status":"not_yet","name":"仁和下生活館前駐車場穂別仁和","address":"穂別仁和198番地3","city":"むかわ町","number":"8-47"}, 
 {"id":"6a12962d-2d99-4f1f-94b1-afce48669f8f","lat":43.59865230,"long":142.36667330,"status":"not_yet","name":"五稜会館前","address":null,"city":"美瑛町","number":"33"}, 
 {"id":"6a264046-94a9-46ab-b0bd-0352b718e0b3","lat":42.99685700,"long":141.34703100,"status":"done","name":"道立真駒内公園","address":"南区真駒内公園４ 道立真駒内公園","city":"札幌市","number":"07-06"}, 
 {"id":"6a2653c9-75ae-413b-a0b8-c4ae2ff3008c","lat":42.61506140,"long":141.51590140,"status":"not_yet","name":"市立錦岡小学校正門東側","address":"ときわ町7丁目8-1市立錦岡小学校正門東側","city":"苫小牧市","number":"146"}, 
 {"id":"6a2ca628-89f5-405f-a95e-67b30b1825e4","lat":43.03610600,"long":141.47330630,"status":"done","name":"市営住宅1号棟前","address":"厚別区厚別中央１条５丁目 市営住宅1号棟前","city":"札幌市","number":"07-05"}, 
 {"id":"6a33097f-3754-4a12-b51e-0aaabea04baf","lat":41.85921840,"long":140.12898810,"status":"not_yet","name":"檜山振興局横","address":null,"city":"江差町","number":"40"}, 
 {"id":"6a39fecd-36cc-457f-9f12-055770c2d062","lat":43.00474650,"long":144.38012980,"status":"done","name":"柳町公園（柳橋詰柳町側）","address":"柳町８番地先","city":"釧路市","number":"116"}, 
 {"id":"6a3c9151-2326-4dd7-a4b9-bf6c22824b5c","lat":44.04663512,"long":141.84740070,"status":"not_yet","name":"旧達布４線バス停横","address":null,"city":"小平町","number":"4-5"}, 
 {"id":"6a3f45c1-a277-4604-971b-87966428e5e1","lat":44.93805587,"long":142.57455826,"status":"not_yet","name":"枝幸市街地・下幌別　高校前交差点付近","address":"枝幸市街地　高校前交差点付近","city":"枝幸町","number":"1-7"}, 
 {"id":"6a466120-d6ad-4b2a-990f-2460488581ab","lat":43.11308300,"long":141.32905600,"status":"done","name":"新琴似中学校学校開放玄関前","address":"北区新琴似７条４丁目 新琴似中学校学校開放玄関前","city":"札幌市","number":"16-01"}, 
 {"id":"6a4d9661-362c-4b68-98f1-93301eb06a53","lat":44.02915600,"long":144.25576560,"status":"not_yet","name":"向陽ヶ丘２","address":"向陽ヶ丘２","city":"網走市","number":"22"}, 
 {"id":"6a5a57d9-0da8-4eed-93be-1376849d3aa2","lat":43.63806293,"long":143.56555939,"status":"not_yet","name":"masked","address":null,"city":"置戸町","number":"3-19"}, 
 {"id":"6a5c37eb-f19f-4691-81a4-e2315891ec32","lat":43.75076120,"long":141.87555313,"status":"not_yet","name":null,"address":null,"city":"北竜町","number":"4"}, 
 {"id":"6a5e0eaa-5508-49da-9b60-82c3eb368f1f","lat":43.11824800,"long":141.51308370,"status":"done","name":"５丁目通交差点江別グリーンエコナジー発電所横","address":"工栄町１４－２","city":"江別市","number":"97"}, 
 {"id":"6a6b051d-5300-4723-adea-6fdaa2203ad3","lat":42.38226001,"long":142.44143486,"status":"not_yet","name":"しずない農協豊畑支所倉庫前","address":"静内田原","city":"新ひだか町","number":"16-45"}, 
 {"id":"6a883ca2-cdef-48df-8349-04267031d471","lat":44.55932300,"long":142.31936300,"status":"not_yet","name":"国道４０号びふか温泉入口","address":"大手１","city":"美深町","number":"2-4"}, 
 {"id":"6a8ce1f5-8d66-4e6e-acd7-9d6eb0383f88","lat":43.39701800,"long":144.67899083,"status":"not_yet","name":"光進会館前","address":"泉川70-1","city":"別海町","number":"97"}, 
 {"id":"6a8f9766-4a48-45c5-89d9-5c157cba7ec4","lat":42.82867170,"long":141.66656960,"status":"not_yet","name":"すみよし1号公園","address":"住吉5丁目","city":"千歳市","number":"11-4"}, 
 {"id":"6a907587-b499-4ef5-8bcd-0077077fbaf3","lat":43.24402300,"long":141.85611800,"status":"done","name":"いちきしり団地1号線入口フェンス","address":"いちきしり954-47","city":"三笠市","number":"20"}, 
 {"id":"6a99e85f-32e8-4491-b802-a681a373091d","lat":43.77186855,"long":141.96331501,"status":"not_yet","name":null,"address":null,"city":"秩父別町","number":"5"}, 
 {"id":"6aa2ade4-bd02-4601-be63-8288b51227c8","lat":43.12960100,"long":141.21814000,"status":"done","name":"いなほりす公園","address":"手稲区稲穂１条６丁目 いなほりす公園","city":"札幌市","number":"12-06"}, 
 {"id":"6aa63265-c994-4ae5-a074-a70b741fc571","lat":43.34647800,"long":142.39314100,"status":"done","name":"地域福祉センター前住吉町1番","address":null,"city":"富良野市","number":"6-5"}, 
 {"id":"6aacc27d-2791-45c0-a572-e9b77cd3eadf","lat":41.79735020,"long":140.76647910,"status":"done","name":"本通第4号幼児公園","address":"函館市本通１丁目45","city":"函館市","number":"216"}, 
 {"id":"6ab516d3-be08-4998-9804-b5c8260d4ac5","lat":43.19880780,"long":141.75482800,"status":"done","name":"masked","address":"3条西12丁目1-6","city":"岩見沢市","number":"77"}, 
 {"id":"6aca3ddd-a26d-4b19-9970-2704842507cf","lat":43.55777700,"long":141.91037000,"status":"not_yet","name":"教育支援センター入口","address":"教育支援センタ-入口","city":"滝川市","number":"14-3"}, 
 {"id":"6ad2bd84-5b04-4373-83a7-ef92f5554f5a","lat":43.01456365,"long":142.87376400,"status":"done","name":"宮の森団地前","address":null,"city":"清水町","number":"1-9"}, 
 {"id":"6ada8e8a-25d6-46c0-9ebe-68e161f0e90d","lat":43.14166700,"long":141.32014950,"status":"done","name":"屯田さつき公園","address":"北区屯田８条１１丁目 屯田さつき公園","city":"札幌市","number":"44-08"}, 
 {"id":"6add7466-9c44-4101-835a-5a43ee3979c2","lat":null,"long":null,"status":"not_yet","name":"masked","address":"字豊幌","city":"黒松内町","number":"11"}, 
 {"id":"6ae20ef2-0a42-434e-84ff-77b88cbda462","lat":42.88872000,"long":141.60012000,"status":"done","name":"すこやか公園内","address":"黄金南7丁目5","city":"恵庭市","number":"12"}, 
 {"id":"6ae60fbd-ffff-4bcc-a3a1-446480ad2b00","lat":43.16264700,"long":141.91553630,"status":"done","name":"美流渡コミュニティセンター前","address":"栗沢町美流渡栄町93-4","city":"岩見沢市","number":"153"}, 
 {"id":"6ae6ab9d-5bb0-4b7a-bddc-3943e6b3b470","lat":42.90362990,"long":143.24860190,"status":"done","name":"いなほ公園北側","address":"北海道中川郡幕別町札内みずほ町160番地16","city":"幕別町","number":"60"}, 
 {"id":"6aeb03bb-abd1-4b32-8b46-a5cc904b9b42","lat":43.05127160,"long":141.43427910,"status":"done","name":"北都小学校（正門）","address":"白石区北郷３条１１丁目 北都小学校（正門）","city":"札幌市","number":"01-01"}, 
 {"id":"6af25156-1eb6-4517-b0ec-c025f53e2c45","lat":44.36028300,"long":143.34068300,"status":"not_yet","name":"落石町3丁目新興会館 玄関前 舗装上","address":"落石町3丁目 落石町3丁目新興会館","city":"紋別市","number":"12"}, 
 {"id":"6af7c20b-abe8-4c58-bf4c-0249531ba2d2","lat":42.97401100,"long":141.55293800,"status":"done","name":"広葉1番通線・道住A－12号棟東側緑地","address":"輝美町7番地1","city":"北広島市","number":"46"}, 
 {"id":"6afaa4b1-ce5a-480d-abf3-9c4635ffeeeb","lat":44.36850400,"long":143.32417300,"status":"not_yet","name":"元新団地バス停 横 山本電工㈱ 前","address":"渚滑町元新4丁目 元新団地バス停","city":"紋別市","number":"68"}, 
 {"id":"6afafc36-4bf0-4d87-bf6f-849f90fdc598","lat":44.16766000,"long":143.03477000,"status":"not_yet","name":"masked","address":"二区","city":"滝上町","number":"7-1"}, 
 {"id":"6afb1866-9a33-471b-8418-fd616956b779","lat":42.88943000,"long":143.18395000,"status":"done","name":"南町福祉センター南側","address":"南町福祉センター南側","city":"帯広市","number":"172"}, 
 {"id":"6afe39c1-b795-4eeb-a9be-cfe4774d04cb","lat":43.50016109,"long":141.99959966,"status":"done","name":"文珠市街平和橋","address":"歌志内市","city":"歌志内市","number":"20"}, 
 {"id":"6b067db4-5e25-4c8a-b5d5-9213a60fb77e","lat":41.48316040,"long":140.25930190,"status":"not_yet","name":null,"address":"月崎 265-19","city":"福島町","number":"22"}, 
 {"id":"6b0798d1-238b-4912-a5ac-3d5de0b905d1","lat":43.05263200,"long":141.46600190,"status":"done","name":"厚別さくら公園","address":"厚別区厚別西４条４丁目 厚別さくら公園","city":"札幌市","number":"18-03"}, 
 {"id":"6b0a3d73-206e-4c91-91ef-f414b01211a4","lat":43.06300700,"long":141.29054300,"status":"done","name":"山の手三角山公園","address":"西区山の手２条１２丁目１２番 山の手三角山公園","city":"札幌市","number":"06-06"}, 
 {"id":"6b0ac92a-414e-4d44-aebb-1b0e98c4e841","lat":42.96954000,"long":143.45165000,"status":"not_yet","name":"masked","address":"masked","city":"池田町","number":"15"}, 
 {"id":"6b15f6da-d051-41d3-b92e-c03d74f79f9b","lat":43.05514000,"long":143.20717600,"status":"done","name":null,"address":"北海道河東郡音更町字東音更幹線25地先","city":"音更町","number":"72"}, 
 {"id":"6b2d52c0-5a2d-4cbb-98c5-be8f5ac03ee9","lat":43.09249900,"long":141.33850100,"status":"done","name":"北27条公園通り（東側）","address":"北区北26条西7丁目 北27条公園通り（東側）","city":"札幌市","number":"07-09"}, 
 {"id":"6b2eda9c-9101-4220-80ef-51452ae0c0e1","lat":42.98317677,"long":140.65040588,"status":"not_yet","name":null,"address":null,"city":"共和町","number":"2-8"}, 
 {"id":"6b35e8af-4f5b-4dbe-bbec-f8e29ea098ce","lat":42.46925510,"long":140.85461890,"status":"not_yet","name":"駅南集会所横","address":"西浜町93番地4","city":"伊達市","number":"5-21"}, 
 {"id":"6b3d412d-6d75-4320-9762-282e6b9b6e61","lat":43.40575360,"long":142.42513700,"status":"not_yet","name":"福原会館前","address":"福原会館前","city":"中富良野町","number":"1-1"}, 
 {"id":"6b46cef7-72c8-481c-90f7-7f1a93f2ce86","lat":43.05180470,"long":141.26437860,"status":"done","name":"福井子ばと公園","address":"西区福井８丁目１６番 福井子ばと公園","city":"札幌市","number":"19-07"}, 
 {"id":"6b48f6e1-fc00-410a-9de2-382a2966d460","lat":41.88843510,"long":140.31059890,"status":"not_yet","name":"メモリアルホール谷山横","address":"北海道檜山郡厚沢部町南館町575番地3","city":"厚沢部町","number":"37"}, 
 {"id":"6b4e49eb-9a49-4b76-b5b4-74618e5aeacc","lat":43.12103378,"long":143.23493958,"status":"done","name":"西２線墓地前","address":"西2線墓地前","city":"士幌町","number":"15"}, 
 {"id":"6b51d06a-59e6-4c32-ad0f-e5b0c84555ed","lat":43.76617500,"long":142.41572910,"status":"not_yet","name":"豊岡若葉公園","address":"豊岡9条7丁目","city":"旭川市","number":"1210"}, 
 {"id":"6b52c7f2-1800-4ca9-8ca5-004fee0f3fc1","lat":42.31771530,"long":140.96944070,"status":"not_yet","name":"道営常盤団地Ｂ棟","address":"常盤町2番9号","city":"室蘭市","number":"5-5"}, 
 {"id":"6b5772dd-e071-44b6-9f11-b1a875ef4fcc","lat":44.34386100,"long":143.35446200,"status":"not_yet","name":"報恩寺 前 道路花壇（道道）","address":"南が丘町2丁目 報恩寺","city":"紋別市","number":"35"}, 
 {"id":"6b585590-91cf-4d9b-af9a-9641da0f0c98","lat":42.80985316,"long":143.65503788,"status":"done","name":"ハローパーク","address":"桜町","city":"浦幌町","number":"1-7"}, 
 {"id":"6b5ada53-936e-4cb0-9dae-2e20b154b0eb","lat":44.40511860,"long":143.20767960,"status":"not_yet","name":"沙留　住吉老人寿の家前（住吉）","address":null,"city":"興部町","number":"2-7"}, 
 {"id":"6b5c2d24-7500-475f-b883-4373e8142ddf","lat":43.82375290,"long":144.10716870,"status":"not_yet","name":"コミュニティセンター東側","address":"コミュニティセンタ-東側_※車庫の所","city":"美幌町","number":"4-2"}, 
 {"id":"6b6081f6-eb6a-48d2-afa0-7507f536b0b3","lat":43.21057420,"long":140.93166250,"status":"done","name":"ｺｶ･ｺｰﾗﾎﾞﾄﾘﾝｸﾞ㈱小樽事業所横","address":"塩谷1-7","city":"小樽市","number":"22"}, 
 {"id":"6b60a147-3aa8-41ae-98b3-d19da86b6b3a","lat":42.96811000,"long":143.43114000,"status":"not_yet","name":"豊田第２会館前","address":"豊田２","city":"池田町","number":"22"}, 
 {"id":"6b6dfac1-2028-427a-b850-e246d2ed190d","lat":43.81728480,"long":144.12475890,"status":"not_yet","name":"旭小学校前","address":"旭小学校前_※国道側フエンス(敷地内)","city":"美幌町","number":"5-1"}, 
 {"id":"6b705c44-f091-4311-bf59-4dcd1d0e588e","lat":43.33714130,"long":142.39795870,"status":"done","name":"東春コミュニティセンター東町18番","address":null,"city":"富良野市","number":"4-3"}, 
 {"id":"6b7601c1-f309-4bba-93cb-62a561579353","lat":42.33703670,"long":140.93863360,"status":"not_yet","name":"港南絵鞆通、測量山通交差点付近","address":"絵鞆町1丁目11番","city":"室蘭市","number":"1-4"}, 
 {"id":"6b79a8c5-43cd-4a38-b764-c3cac8586dc6","lat":43.02151200,"long":141.86404900,"status":"not_yet","name":"栗山警察署継立駐在所横","address":"継立","city":"栗山町","number":"39"}, 
 {"id":"6b82a895-175c-4fcc-9b22-c79069a13c9f","lat":42.12159930,"long":140.73650440,"status":"not_yet","name":"民家前","address":"砂原東3丁目","city":"森町","number":"27-137"}, 
 {"id":"6b8329b0-83f1-42ee-882a-598fb559aab3","lat":43.00759550,"long":144.40335020,"status":"done","name":"桂地区会館敷地（交通安全監視所横）","address":"桂5丁目1番地1","city":"釧路町","number":"14-3"}, 
 {"id":"6b9018fa-5b59-46b5-8fa8-89562c3d8ee0","lat":41.81180440,"long":140.75520650,"status":"done","name":"NHK広場（八木原整形外科クリニック向かい面）","address":"函館市富岡町３丁目21","city":"函館市","number":"94"}, 
 {"id":"6b93dd18-2ef2-455f-8c47-87432cb6c9bd","lat":42.63923500,"long":141.55485500,"status":"not_yet","name":"そよかぜ公園南面西側","address":"有珠の沢町3丁目5そよかぜ公園南面西側","city":"苫小牧市","number":"112"}, 
 {"id":"6b969f92-f748-4c16-a9b1-32db3b55620d","lat":42.40142800,"long":140.06955000,"status":"done","name":"7","address":"稲穂１３３番地の６","city":"今金町","number":"7"}, 
 {"id":"6b9bb651-c68a-4d35-9c84-5d6e6086a5af","lat":42.55406760,"long":143.37434220,"status":"done","name":"中当近隣センター","address":"北海道中川郡幕別町忠類中当228番地５","city":"幕別町","number":"82"}, 
 {"id":"6ba1cecc-dcd2-4cc5-acb9-5a77163ae3fb","lat":43.03384400,"long":141.32928500,"status":"done","name":"藻岩浄水場脱水機棟東側","address":"中央区伏見４丁目 藻岩浄水場脱水機棟東側","city":"札幌市","number":"06-11"}, 
 {"id":"6ba44065-1797-4a53-b2e2-aa61baebdf23","lat":45.38579200,"long":141.68936200,"status":"not_yet","name":"さくらヶ丘会館横","address":"稚内市こまどり５丁目１７番 さくらヶ丘会館横","city":"稚内市","number":"70"}, 
 {"id":"6ba856eb-44f3-45c5-a436-e9a473687bcf","lat":43.20391000,"long":143.03653300,"status":"done","name":"国道274号と北3線との交差点","address":"泉町1丁目44-1","city":"鹿追町","number":"1-3"}, 
 {"id":"6baeadee-662d-4e96-9a2c-82dabc09e48a","lat":43.81640780,"long":142.36352900,"status":"not_yet","name":"春光台1条第3公園","address":"春光台1条4丁目","city":"旭川市","number":"4640"}, 
 {"id":"6bb61b6e-5c74-4df9-ad30-459164e41f52","lat":43.06279440,"long":141.36606410,"status":"done","name":"中央小学校南側","address":"中央区大通東6丁目 中央小学校南側","city":"札幌市","number":"13-02"}, 
 {"id":"6bb9f6bc-2f04-4e44-96ed-f9dec9e45075","lat":42.98920400,"long":141.34492220,"status":"done","name":"真駒内プリムラ公園","address":"南区真駒内柏丘５丁目３ 真駒内プリムラ公園","city":"札幌市","number":"31-01"}, 
 {"id":"6bba15ec-b1f8-4bf2-b0a5-e4a8ac2da8ff","lat":43.59374200,"long":141.89176900,"status":"not_yet","name":"西地区コミュニティセンター（左斜前）","address":"西地区コミュニティセンタ-(左斜前)","city":"滝川市","number":"10-1"}, 
 {"id":"6bbb5d8d-8710-4aad-b416-8c242875b578","lat":43.11602940,"long":141.36028520,"status":"done","name":"市住　栄町団地","address":"東区北４５条東１２丁目１番 市住　栄町団地","city":"札幌市","number":"11-08"}, 
 {"id":"6bbb7863-69db-489a-b9e0-57601f95f756","lat":42.83994990,"long":141.65584780,"status":"done","name":"霊園駐車場前","address":"稲穂２丁目","city":"千歳市","number":"16-6"}, 
 {"id":"6bbb85cb-2d0d-4edb-b095-6c8c43b41174","lat":43.43576934,"long":145.01698735,"status":"not_yet","name":"豊原スケートリンク前","address":"豊原17-13","city":"別海町","number":"55"}, 
 {"id":"6bbde462-53f3-4db8-8930-f049c82cbe60","lat":42.41122000,"long":141.11077000,"status":"done","name":"鉄南ふれあいセンター前","address":"幌別町3丁目17番地1","city":"登別市","number":"鉄南ふれあいセンター"}, 
 {"id":"6bc11e7d-80b7-4373-95ad-d4342aae9557","lat":41.78946630,"long":140.79042170,"status":"done","name":"函館ラ・サール学園正面","address":"函館市日吉町１丁目12","city":"函館市","number":"260"}, 
 {"id":"6bc2d516-4206-4d17-84a4-80e6896eed36","lat":43.67435100,"long":142.54542500,"status":"done","name":"第5投票区 道道旭川旭岳温泉線の設置場所","address":"東5号南2番地","city":"東川町","number":"28"}, 
 {"id":"6bcf944b-3aa8-4c16-9244-7d293b3a08bb","lat":43.08000590,"long":140.88709190,"status":"done","name":"旧落合小学校付近","address":"字落合257-6","city":"赤井川村","number":"13"}, 
 {"id":"6bd46a21-e53a-48f8-a92b-401520a2548b","lat":43.02132850,"long":141.37562560,"status":"done","name":"平岸霊園","address":"豊平区平岸５条１５丁目 平岸霊園","city":"札幌市","number":"25-07"}, 
 {"id":"6bd947c5-a334-49d8-9f4a-bc77ff034df3","lat":42.64638960,"long":141.62014910,"status":"done","name":"船見町2丁目公園南面西側","address":"船見町2丁目8船見町2丁目公園南面西側","city":"苫小牧市","number":"15"}, 
 {"id":"6be4cc0f-911b-4dd8-acd8-87876de519d6","lat":41.84186260,"long":140.76701370,"status":"done","name":"公立はこだて未来大学バス待合所横","address":"函館市亀田中野町116","city":"函館市","number":"157"}, 
 {"id":"6be8c116-c3ca-43ce-96d7-aaf19cc18dfb","lat":42.10806900,"long":140.58722900,"status":"not_yet","name":"民家向","address":"新川町","city":"森町","number":"7-38"}, 
 {"id":"6beaa014-6f5a-4c56-baa7-8b8f9c4f8b6f","lat":43.78724590,"long":142.37060980,"status":"done","name":"スタルヒン球場前さく","address":"花咲町2丁目","city":"旭川市","number":"3860"}, 
 {"id":"6bec9303-a4c7-48c4-a933-1687692b40fc","lat":43.75505570,"long":142.35953470,"status":"done","name":"神楽まつむし公園","address":"神楽2条11丁目","city":"旭川市","number":"5740"}, 
 {"id":"6bf56fd7-9b70-434c-81b7-94b5d2ba3eac","lat":43.71302770,"long":142.02821860,"status":"not_yet","name":"nan","address":"西町児童公園前","city":"深川市","number":"16"}, 
 {"id":"6bfc9291-998b-4dea-bcaa-2ed935d2149f","lat":43.04393400,"long":141.37603800,"status":"done","name":"北海道立総合体育センター","address":"豊平区豊平５条１１丁目 北海道立総合体育センター","city":"札幌市","number":"04-01"}, 
 {"id":"6c0546b3-51ca-47f4-883b-dc675eda305d","lat":42.99789200,"long":141.31486600,"status":"done","name":"中の沢ポプラ公園","address":"南区中ノ沢６丁目９ 中の沢ポプラ公園","city":"札幌市","number":"24-02"}, 
 {"id":"6c0bd9ff-949c-47b2-9bae-bc65dd2c8660","lat":44.02759300,"long":144.26402390,"status":"done","name":"北７⻄１","address":"北７⻄１","city":"網走市","number":"18"}, 
 {"id":"6c16b5a4-da62-42a2-8df3-5e2657daf2d6","lat":44.84557005,"long":142.47681856,"status":"not_yet","name":"歌登市街地・毛登別・本幌別　安田商事付近","address":"歌登市街地　安田商事付近","city":"枝幸町","number":"11-6"}, 
 {"id":"6c25df39-9475-47b8-b8e3-ceeabfcf219f","lat":42.12200500,"long":140.65284100,"status":"not_yet","name":"粟野建設作業場向","address":"砂原西4丁目","city":"森町","number":"22-110"}, 
 {"id":"6c2d106c-8ffb-469f-9994-e002e776104b","lat":43.75788800,"long":143.83742410,"status":"not_yet","name":"上常呂出張所","address":"上ところ682番1","city":"北見市","number":"北見第17"}, 
 {"id":"6c384fac-4cc4-45fa-80a6-e4222d129265","lat":42.93027570,"long":143.20939790,"status":"done","name":"中島公園西側東３条沿　十勝合同庁舎東入口向","address":"中島公園西側東３条沿　十勝合同庁舎東入口向","city":"帯広市","number":"12"}, 
 {"id":"6c39e7da-8718-4fc8-8d0c-4a487bceddeb","lat":42.12460090,"long":140.37484880,"status":"not_yet","name":"上の湯会館向","address":"落部 上の湯会館向","city":"八雲町","number":"17-6"}, 
 {"id":"6c3d5502-f8a8-4a8e-a576-43ec10f35a69","lat":42.92767120,"long":143.22917680,"status":"done","name":"バラト福祉センター西側道路沿","address":"バラト福祉センター西側道路沿","city":"帯広市","number":"5"}, 
 {"id":"6c3fd39f-9b69-45df-8f0c-f895c8c8fd85","lat":45.12872000,"long":142.37178000,"status":"not_yet","name":"下水終末処理場前","address":"北4条8丁目1","city":"浜頓別町","number":"3"}, 
 {"id":"6c437529-ca63-45ff-b573-29f980385c3f","lat":42.61018000,"long":143.24780900,"status":"done","name":"上更別バス待合所","address":"更別村字上更別本通16番地1","city":"更別村","number":"2-11"}, 
 {"id":"6c476d0f-ef07-4e96-9170-8c8f880d592f","lat":42.77377250,"long":140.94044070,"status":"not_yet","name":"尻別会館前","address":"字尻別164番地地先","city":"喜茂別町","number":"5"}, 
 {"id":"6c48b4f7-1492-40d2-baf8-1957ad47c7c2","lat":43.81343780,"long":143.89453490,"status":"done","name":"三楽町やなぎ公園","address":"三楽町70番地の10","city":"北見市","number":"北見第2"}, 
 {"id":"6c51703f-778a-4bbf-8710-143a3053a576","lat":43.78612610,"long":142.40782690,"status":"done","name":"永山住民センターさく","address":"永山7条4丁目","city":"旭川市","number":"2940"}, 
 {"id":"6c56ddc6-26b4-467f-9e08-03e9c84dd313","lat":42.82785870,"long":141.64157600,"status":"done","name":"千歳高校正門横","address":"北栄1丁目","city":"千歳市","number":"5-1"}, 
 {"id":"6c57284c-5b0d-44aa-8306-db28aa974e29","lat":42.89003000,"long":141.57275000,"status":"done","name":"あすなろ公園内","address":"有明町2丁目8","city":"恵庭市","number":"63"}, 
 {"id":"6c57a538-f16c-4aae-9d77-8cfe64b05d9b","lat":42.67304980,"long":139.88784070,"status":"not_yet","name":"None","address":"字栄浜351番地1地先","city":"島牧村","number":"5"}, 
 {"id":"6c5877c3-8f5c-4f7f-b236-f8dfa369e7a2","lat":44.09227120,"long":144.11701930,"status":"not_yet","name":"能取","address":"能取","city":"網走市","number":"72"}, 
 {"id":"6c6a9654-b6f1-4b0a-914e-48a9742a0ddc","lat":42.97941070,"long":141.46755670,"status":"done","name":"三里塚小学校校門横","address":"清田区里塚２条６丁目 三里塚小学校校門横","city":"札幌市","number":"09-01"}, 
 {"id":"6c729b74-b276-4048-aaf0-b5aa9587331a","lat":43.19462810,"long":143.50502200,"status":"done","name":"旧 拓農分館用地","address":"拓農","city":"本別町","number":"45"}, 
 {"id":"6c75a035-f33e-4b95-a715-3ae4a19072a4","lat":43.72364400,"long":142.05380200,"status":"not_yet","name":"第15投票区、NO82","address":"弘洋電設駐車場前","city":"深川市","number":"82"}, 
 {"id":"6c76d51d-42ae-41b5-b3d9-827e3733ff41","lat":43.30238000,"long":145.20513900,"status":"not_yet","name":"歴史の里公衆トイレ前","address":"奥行16-53","city":"別海町","number":"47"}, 
 {"id":"6c88d748-f904-4660-87f8-ed3fa02bc541","lat":43.89169480,"long":144.27697220,"status":"not_yet","name":"稲富","address":"稲富","city":"網走市","number":"116"}, 
 {"id":"6c8a603f-708b-4f7e-97ae-a57ac28f64c3","lat":42.95918640,"long":140.69495201,"status":"not_yet","name":null,"address":null,"city":"共和町","number":"1-5"}, 
 {"id":"6c8c073b-9163-4c2c-b199-8589d5f175ec","lat":42.95712500,"long":143.20214000,"status":"done","name":null,"address":"北海道河東郡音更町木野西通12-8","city":"音更町","number":"21"}, 
 {"id":"6c8f36ca-0c3f-4970-9d16-a86758be14b9","lat":43.33066600,"long":141.87774700,"status":"not_yet","name":"吉村歯科横","address":"東6条北1丁目","city":"美唄市","number":"39"}, 
 {"id":"6c91f505-9559-489b-8b03-c07d01b3c22c","lat":43.10053220,"long":141.39730890,"status":"done","name":"伏古若草公園　北西側","address":"東区伏古１２条２丁目９番 伏古若草公園　北西側","city":"札幌市","number":"23-02"}, 
 {"id":"6c96a486-e1d0-4ad8-a3ea-08c201fe7107","lat":43.04400120,"long":141.33929710,"status":"done","name":"幌西西屯田通公園","address":"中央区南１２条西１３丁目 幌西西屯田通公園","city":"札幌市","number":"32-02"}, 
 {"id":"6c981985-d753-4b29-86a3-dc8f760f918e","lat":43.02801100,"long":141.37391700,"status":"done","name":"地下鉄シェルター下フェンス","address":"豊平区平岸４条１２丁目 地下鉄シェルター下フェンス","city":"札幌市","number":"18-06"}, 
 {"id":"6c9caef0-803d-43c6-b37f-4f8ac02575e1","lat":43.07648100,"long":141.29272500,"status":"done","name":"発寒川公園","address":"西区西町南１丁目１番 発寒川公園","city":"札幌市","number":"08-08"}, 
 {"id":"6c9fab02-a47d-42fd-9aaa-335cfafdf280","lat":42.95727730,"long":141.29598990,"status":"done","name":"藤野南小学校","address":"南区藤野４条６丁目２９５ 藤野南小学校","city":"札幌市","number":"04-04"}, 
 {"id":"6ca44399-0b6b-4aec-bf9c-b12f1f35749e","lat":43.15881000,"long":145.10162400,"status":"not_yet","name":"前","address":"浜中桜北101番地","city":"浜中町","number":"37"}, 
 {"id":"6ca6aa57-f895-41d4-b9e4-679a9ea4bc5b","lat":42.35675000,"long":142.31744400,"status":"not_yet","name":"出会いと憩いのセンター（駅舎）前","address":"本町","city":"新冠町","number":"1-3"}, 
 {"id":"6cb42a0a-0c08-4887-beee-05deefee2f89","lat":42.10571300,"long":140.57970800,"status":"not_yet","name":"旧農協スタンド横附近","address":"森川町","city":"森町","number":"9-51"}, 
 {"id":"6cbafae9-efc0-4183-b9a0-43986871841e","lat":43.00378300,"long":144.35260130,"status":"not_yet","name":"新富士生活館前","address":"新富士町３丁目７番地先","city":"釧路市","number":"192"}, 
 {"id":"6cc22648-4fd7-4ebd-a68e-5d41f9b86d76","lat":42.97707070,"long":144.42155310,"status":"done","name":"永住住宅前（貝塚通沿）","address":"春採７丁目２６番地先","city":"釧路市","number":"39"}, 
 {"id":"6cc823bd-d921-483e-b984-ccfd831dc784","lat":43.48468758,"long":144.44746971,"status":"not_yet","name":"消防住宅横  ","address":null,"city":"弟子屈町","number":"2-11"}, 
 {"id":"6cd09d0d-6bd3-4303-a73d-85c3ad38a897","lat":43.11314000,"long":145.10922200,"status":"not_yet","name":"（神社鳥居）向","address":"榊町82番地","city":"浜中町","number":"27"}, 
 {"id":"6cd411ad-534a-411b-9d37-b8d122dbe184","lat":43.09116700,"long":141.34513900,"status":"done","name":"北24条第一公園","address":"北区北２４条西３丁目 北24条第一公園","city":"札幌市","number":"05-05"}, 
 {"id":"6cd6caed-0e94-4318-bc2a-5134bd52c96d","lat":43.12958180,"long":141.25659320,"status":"done","name":"前田公園","address":"手稲区前田７条１１丁目 前田公園","city":"札幌市","number":"03-04"}, 
 {"id":"6cd7f044-11cd-48fc-bd0e-378a04778880","lat":41.86805780,"long":140.72461790,"status":"not_yet","name":"七飯消防署大中山分遣所横","address":"大川11丁目 七飯消防署大中山分遣所横","city":"七飯町","number":"6-31"}, 
 {"id":"6cdca16b-75bb-4dc7-b266-e772322d67a6","lat":43.49636120,"long":144.64752290,"status":"not_yet","name":"中虹別コミュニティハウス前","address":"虹別原野704番4","city":"標茶町","number":"16"}, 
 {"id":"6cde1bf3-6a59-42e0-b40a-cfbacbab8fb8","lat":42.90683630,"long":143.92151120,"status":"not_yet","name":"川西会館横","address":"音別原野西２線３０番地先","city":"釧路市","number":"255"}, 
 {"id":"6ce0ba1a-1487-48c5-a5e7-d75699110d8f","lat":44.43895128,"long":142.39606104,"status":"not_yet","name":"旧智恵文小前バス停西","address":"智恵文","city":"名寄市","number":"20-2"}, 
 {"id":"6ce62223-6539-4d4f-ab4b-c2a01f1805dd","lat":41.57053120,"long":140.40356620,"status":"not_yet","name":"元町257-3(国道)","address":"元町257-3","city":"知内町","number":"1-1"}, 
 {"id":"6cf9ccdf-0450-47f1-a4fb-3a8cbc68c292","lat":42.47986690,"long":142.07008540,"status":"not_yet","name":"門別国保病院前","address":"門別本町29-9門別国保病院前","city":"日高町","number":"10"}, 
 {"id":"6d007069-d1cb-410f-9300-f7fea96f6f37","lat":41.77693250,"long":140.73882810,"status":"done","name":"新川広路道路敷（電車通面）","address":"函館市新川町25","city":"函館市","number":"37"}, 
 {"id":"6d058098-352a-40ca-8dd6-43753fdc7d60","lat":42.74118580,"long":140.11511310,"status":"not_yet","name":"None","address":"字港57番地1地先","city":"島牧村","number":"13"}, 
 {"id":"6d05a04f-a6f1-4f5b-b946-ef459147b065","lat":43.04431710,"long":141.34836630,"status":"done","name":"曙もみじ公園","address":"中央区南12条西8丁目 曙もみじ公園","city":"札幌市","number":"08-05"}, 
 {"id":"6d174e03-75cc-49f1-807c-3b2a82269431","lat":43.20488700,"long":141.79087800,"status":"done","name":"㈱香月記横","address":"日の出南4丁目435-9","city":"岩見沢市","number":"72"}, 
 {"id":"6d175423-4ba2-4f46-a643-b6f28c606b07","lat":43.05523700,"long":141.34120200,"status":"done","name":"中央区複合庁舎西側","address":"中央区南３条西１１丁目 中央区複合庁舎西側","city":"札幌市","number":"31-06"}, 
 {"id":"6d1842c1-c419-4781-b339-f91bb5dc5396","lat":43.29514080,"long":140.59712180,"status":"not_yet","name":"積丹町立びくに保育所付近","address":"大字美国町字大沢248-3","city":"積丹町","number":"6"}, 
 {"id":"6d1e39c0-840f-4428-9c10-ecd6136bbbf1","lat":42.36335400,"long":142.31027200,"status":"not_yet","name":"masked","address":"中央町","city":"新冠町","number":"2-5"}, 
 {"id":"6d2a377b-8c0c-494e-9554-334c2b27d168","lat":43.79277540,"long":142.35565000,"status":"not_yet","name":"NTT春光ビルさく","address":"春光町10番地","city":"旭川市","number":"3970"}, 
 {"id":"6d2aab08-4891-4690-af64-1c9bde8e2f4b","lat":44.01889610,"long":144.24646170,"status":"not_yet","name":"新町１","address":"新町１","city":"網走市","number":"28"}, 
 {"id":"6d2de9f4-dbb3-4ca9-bbfd-2cb6ac9ba998","lat":44.36310680,"long":141.71190280,"status":"not_yet","name":"羽幌町総合体育館横空地（道道上羽幌線側）","address":"字朝日1812","city":"羽幌町","number":"28"}, 
 {"id":"6d2efddc-7922-4a1a-a555-9291fa5f8640","lat":43.32980000,"long":145.58382500,"status":"not_yet","name":"市役所駐車場入口右側","address":"常盤町2-27","city":"根室市","number":"2-1"}, 
 {"id":"6d3c70b2-a4a0-4793-a0e9-c234c155e259","lat":43.52418400,"long":142.17878000,"status":"not_yet","name":"勤労者体育センター前","address":"北４条西２丁目","city":"芦別市","number":"26"}, 
 {"id":"6d3d207d-c945-4fc9-b7b7-9877f2ab2c67","lat":43.05691930,"long":141.38048450,"status":"done","name":"幌東中学校（校庭側）","address":"白石区菊水６条３丁目 幌東中学校（校庭側）","city":"札幌市","number":"17-07"}, 
 {"id":"6d42cb17-c99f-4ff8-a520-1f8515afd0b7","lat":42.32455971,"long":142.37213320,"status":"not_yet","name":"入船生活館横","address":"静内入船町","city":"新ひだか町","number":"6-20"}, 
 {"id":"6d44b9cf-9e7c-4a13-b8f4-f0184a1aea47","lat":42.34063657,"long":142.36936830,"status":"not_yet","name":"新ひだか町役場前","address":"静内御幸町3丁目","city":"新ひだか町","number":"1-1"}, 
 {"id":"6d4f94ec-6710-40c0-9587-110f94bc14a5","lat":42.25747930,"long":139.78974320,"status":"not_yet","name":"富磯公営住宅跡地","address":"大成区富磯61-5","city":"せたな町","number":"51"}, 
 {"id":"6d51e670-d08a-4c13-8f58-efddd5ca4209","lat":44.00299990,"long":144.23121990,"status":"not_yet","name":"⼤曲","address":"⼤曲","city":"網走市","number":"39"}, 
 {"id":"6d5cedf1-0a2a-4664-bc45-b3e5aefcaa34","lat":43.77598398,"long":143.60980011,"status":"not_yet","name":"留辺蘂町体育館","address":"留辺蘂町旭公園87番地","city":"北見市","number":"留辺蘂第5"}, 
 {"id":"6d5e1491-b983-4abf-b47f-7ba734b6c376","lat":43.35518160,"long":140.46836690,"status":"not_yet","name":"日司バス停留所横付近","address":"大字日司町59-1","city":"積丹町","number":"16"}, 
 {"id":"6d5fc98b-7f70-42c4-85e5-76556348e861","lat":43.10034290,"long":141.54798930,"status":"done","name":"江南通 道道江別恵庭線交差点","address":"上江別 ４２７","city":"江別市","number":"36"}, 
 {"id":"6d688119-decf-486a-aad4-d459722af548","lat":43.22971300,"long":143.29089200,"status":"done","name":"㈱川村建設敷地","address":"上士幌町字上士幌東３線２３４番地","city":"上士幌町","number":"1-11"}, 
 {"id":"6d70bfc2-65e2-4540-bc1b-a5aba85dd29f","lat":43.81214090,"long":142.42848530,"status":"not_yet","name":"旭川市場物流さく","address":"永山北1条9丁目","city":"旭川市","number":"3370"}, 
 {"id":"6d722215-12f4-46d0-b55c-91ab02527b10","lat":43.22890300,"long":145.25241800,"status":"not_yet","name":"厚床駅前旧道新厚床横空地","address":"厚床","city":"根室市","number":"17-4"}, 
 {"id":"6d77a174-9e8d-4800-ad07-7dc6a1ab61d1","lat":43.04535300,"long":141.34533700,"status":"done","name":"あけぼのアート＆コミュニティセンター","address":"中央区南１１条西９丁目 あけぼのアート＆コミュニティセンター","city":"札幌市","number":"08-02"}, 
 {"id":"6d79cf60-1c92-4b07-a83e-2f2822e8d09e","lat":43.36260460,"long":145.78676820,"status":"not_yet","name":"真宗寺前道路","address":"珸瑤瑁1-18","city":"根室市","number":"22-4"}, 
 {"id":"6d7db864-207b-458d-bf47-7923f0d7aa83","lat":43.92368180,"long":144.29604010,"status":"not_yet","name":"⼭⾥","address":"⼭⾥","city":"網走市","number":"113"}, 
 {"id":"6d7fe1cf-99d0-4dcf-b920-fd55591246b4","lat":44.34103000,"long":143.35353100,"status":"not_yet","name":"南が丘2・3丁目 町内会館 横","address":"南が丘町3丁目 南が丘2・3丁目","city":"紋別市","number":"34"}, 
 {"id":"6d8cfb06-0283-4446-b64f-799f3e6493ee","lat":44.52417131,"long":143.05160522,"status":"not_yet","name":"masked","address":null,"city":"雄武町","number":"19"}, 
 {"id":"6d94c628-6ee4-47df-b5e3-5d5df5badc01","lat":43.48118000,"long":141.98453000,"status":"not_yet","name":"中央南3条4丁目1番（遊園地フェンス）","address":"字上砂川町160番地","city":"上砂川町","number":"5-2"}, 
 {"id":"6d96f7a5-cda4-4a72-9a6c-b330c7021f2c","lat":43.00190400,"long":141.34910600,"status":"done","name":"都市機構あけぼの団地２１号棟","address":"南区真駒内曙町１丁目１ 都市機構あけぼの団地２１号棟","city":"札幌市","number":"06-03"}, 
 {"id":"6da9f755-58d9-4860-b189-c6120f34c21a","lat":43.10548400,"long":141.25679000,"status":"done","name":"西宮の沢おおぞら公園","address":"手稲区西宮の沢４条５丁目 西宮の沢おおぞら公園","city":"札幌市","number":"16-04"}, 
 {"id":"6db3ff18-7c11-48a1-88fa-9d2ebbc1308c","lat":43.52339700,"long":141.93885300,"status":"not_yet","name":"北地区コミュニティセンター前","address":"西4-4","city":"砂川市","number":"31"}, 
 {"id":"6db8f2d3-4236-427b-99f6-ea83407ab321","lat":42.85971825,"long":140.88611841,"status":"done","name":null,"address":null,"city":"京極町","number":"1-6"}, 
 {"id":"6dbbc6aa-0f2e-4529-bd61-08e141e3a76e","lat":43.11075600,"long":141.24401900,"status":"done","name":"市営住宅富丘高台団地４号棟前","address":"手稲区富丘４条６丁目 市営住宅富丘高台団地４号棟前","city":"札幌市","number":"21-04"}, 
 {"id":"6dc0bbba-a508-43c3-a35c-603220a39840","lat":43.02699300,"long":141.49890100,"status":"done","name":"市営住宅Ｅ-２９号棟前","address":"厚別区もみじ台東５丁目 市営住宅Ｅ-２９号棟前","city":"札幌市","number":"13-03"}, 
 {"id":"6dd70049-3dfa-40a4-8a0d-4df89e93fbcb","lat":43.18504560,"long":141.02019290,"status":"done","name":"イオン山側バス停 「ウイングベイ小樽」","address":"築港11","city":"小樽市","number":"155"}, 
 {"id":"6dd8b5c3-a5ed-4c75-9685-386fd301eab6","lat":42.37735700,"long":140.94230700,"status":"done","name":"白鳥台5丁目バス停付近","address":"白鳥台5丁目36","city":"室蘭市","number":"26-10"}, 
 {"id":"6ddbba7c-1ab4-43ab-89f5-901ef22340d8","lat":43.12866079,"long":143.60957980,"status":"not_yet","name":"清流公園東側","address":"北５丁目","city":"本別町","number":"11"}, 
 {"id":"6dded791-f72b-41ed-ba19-23a8cf8dd89a","lat":43.94150200,"long":141.65583800,"status":"not_yet","name":"市営住宅ポプラＢ裏公園","address":"末広町1丁目","city":"留萌市","number":"9-3"}, 
 {"id":"6dea44b1-6373-4183-8956-8d1106f50e50","lat":43.08934000,"long":141.37968400,"status":"done","name":"あすなろ公園　西側","address":"東区北２０条東１９丁目３番 あすなろ公園　西側","city":"札幌市","number":"34-05"}, 
 {"id":"6def448b-eedc-40cc-b2a2-854b3ef735d0","lat":43.90784902,"long":142.56975174,"status":"done","name":null,"address":null,"city":"愛別町","number":"8"}, 
 {"id":"6df2c45e-9360-4d36-9654-5682168cd73e","lat":43.80047360,"long":142.35801720,"status":"not_yet","name":"公務員合同宿舎410棟前さく(春光町2区6条住宅)","address":"春光5条3丁目64","city":"旭川市","number":"4210"}, 
 {"id":"6e01922f-0965-4bc9-a3bd-cd35e476e8ee","lat":45.12601100,"long":142.35926500,"status":"not_yet","name":"スワンレイク横道路","address":"中央北","city":"枝幸町","number":"1-5"}, 
 {"id":"6e0e228b-381e-41ab-b98c-23dfa59cc75c","lat":43.60222750,"long":142.47865920,"status":"not_yet","name":"美瑛町農業担い手研修センター","address":null,"city":"美瑛町","number":"49"}, 
 {"id":"6e0e868e-9ed7-4d2b-8e6d-b5dc7a938403","lat":43.32141460,"long":145.57936720,"status":"not_yet","name":"石田建設作業所前道路","address":"月岡町1-11","city":"根室市","number":"6-2"}, 
 {"id":"6e103173-b60d-476c-8ece-eb5f112d29a9","lat":41.53987520,"long":140.42128260,"status":"not_yet","name":"小谷石32地先(道道)","address":"小谷石32地先","city":"知内町","number":"2-5"}, 
 {"id":"6e1327f6-29ec-40e5-b6b5-e3adb87d37a1","lat":43.04894300,"long":141.46675100,"status":"done","name":"厚別西児童会館前","address":"厚別区厚別西２条４丁目 厚別西児童会館前","city":"札幌市","number":"18-05"}, 
 {"id":"6e1c1566-9027-4c84-854f-baf1e79dc5ef","lat":42.88368000,"long":141.56077000,"status":"not_yet","name":"けいほく公園内","address":"幸町2丁目17","city":"恵庭市","number":"62"}, 
 {"id":"6e216f1f-494a-4c58-9607-e560f060549f","lat":43.71144016,"long":144.01835918,"status":"not_yet","name":"達美第３団地前","address":"達美第3団地前","city":"津別町","number":"11"}, 
 {"id":"6e227410-bb49-480b-9af4-79093c9384da","lat":43.18753062,"long":141.58149719,"status":"done","name":"第36線南4号 (西原自治会館前)","address":"第36線南4号 (西原自治会館前)","city":"新篠津村","number":"20"}, 
 {"id":"6e242ef0-b474-4053-a314-95ff08e91167","lat":43.08794627,"long":143.63061905,"status":"done","name":"恩根内会館前","address":"恩根内","city":"浦幌町","number":"4-24"}, 
 {"id":"6e26d81a-0465-4cd8-9899-b79d34723f26","lat":43.69107800,"long":142.48384100,"status":"done","name":null,"address":"１７号北２番地","city":"東神楽町","number":"3-29"}, 
 {"id":"6e2dab1d-3789-4bac-9a1a-1dbec6a90aa4","lat":41.79363820,"long":140.74776290,"status":"not_yet","name":"梁川公園（27番向かい面）","address":"函館市梁川町25","city":"函館市","number":"183"}, 
 {"id":"6e394d85-46c0-41fb-88d7-bd058b9b5c0c","lat":42.02792182,"long":140.83253860,"status":"not_yet","name":"平冷プロマリン工場横  ","address":null,"city":"鹿部町","number":"7"}, 
 {"id":"6e46145e-ee51-41a0-92be-05248414ace7","lat":45.22209500,"long":141.21986400,"status":"done","name":"第二見晴ヶ丘団地前（さいとう旅館向側）","address":"鴛泊字富士野","city":"利尻富士町","number":"10"}, 
 {"id":"6e4d5209-aa8c-4924-9ce0-799a4193d7eb","lat":42.59433300,"long":140.64465700,"status":"not_yet","name":"旧大岸小学校鉱山分校入口","address":"大岸444－2","city":"豊浦町","number":"19"}, 
 {"id":"6e5cf34a-5469-4478-a1d3-c18cde293f9c","lat":42.20752400,"long":142.91238100,"status":"not_yet","name":"杵臼生活館","address":"杵臼","city":"浦河町","number":"38"}, 
 {"id":"6e64a940-d75a-4b64-bccd-b590c76cede8","lat":42.68361427,"long":140.89270757,"status":"not_yet","name":"富丘（ごみステーション横）","address":"富丘７４","city":"洞爺湖町","number":"50"}, 
 {"id":"6e6cdafb-ca00-4838-bf02-ba95cb31c62b","lat":44.21544200,"long":142.36679400,"status":"not_yet","name":"交差点角","address":"下士別町41線西3号","city":"士別市","number":"6-1"}, 
 {"id":"6e6f4509-8d66-44dd-b036-18ccd065dd4a","lat":43.03683859,"long":141.64732930,"status":"done","name":null,"address":null,"city":"南幌町","number":"1-9"}, 
 {"id":"6e715a92-d540-4818-aeaa-2100faefa6b6","lat":42.97800100,"long":142.01066600,"status":"not_yet","name":"南清水沢生活館駐車場付近","address":"南清水沢4丁目 南清水沢生活館駐車場付近","city":"夕張市","number":"8-3"}, 
 {"id":"6e78ccbe-3325-44bc-ad10-706b95925da8","lat":43.29306560,"long":140.59755720,"status":"not_yet","name":"積丹町B＆G海洋センター裏付近","address":"大字美国町字大沢329-2","city":"積丹町","number":"3"}, 
 {"id":"6e7e9d97-ffb4-4315-894d-d35e00cea495","lat":43.10536070,"long":141.35867430,"status":"done","name":"北３５条ハウスA棟　北側・北向","address":"東区北３５条東８丁目２番 北３５条ハウスA棟　北側・北向","city":"札幌市","number":"33-04"}, 
 {"id":"6e8290b8-aaf0-4961-a910-ebe353f913ec","lat":43.07934600,"long":144.77562600,"status":"not_yet","name":"1番・2号道路交差点","address":"太田・大別","city":"厚岸町","number":"4-21"}, 
 {"id":"6e83a947-a0f5-42f2-8c5a-5a839b6386e5","lat":43.24950900,"long":143.33084200,"status":"done","name":"東居辺コミュニティーセンター入口","address":"上土幌町字居辺東１５線２２９番地","city":"上士幌町","number":"3-32"}, 
 {"id":"6e974165-dd90-4c3b-b2d2-5c8c80abb268","lat":43.01309470,"long":141.42917420,"status":"done","name":"北野ありんこ公園","address":"清田区北野２条１丁目 北野ありんこ公園","city":"札幌市","number":"06-03"}, 
 {"id":"6e976201-68af-4ace-9f5a-ebd90c811011","lat":43.71966002,"long":143.73825073,"status":"not_yet","name":"末広町　東幸仁 地先","address":null,"city":"訓子府町","number":"4-23"}, 
 {"id":"6e9776ed-0ae6-4f47-a4b0-d4c4638f1bce","lat":41.77264440,"long":140.86080910,"status":"not_yet","name":"ゴルフ場入口バス停横","address":"函館市豊原町10","city":"函館市","number":"355"}, 
 {"id":"6e99169a-36bc-43aa-a77d-3010aba0e43f","lat":43.03333600,"long":144.61181700,"status":"not_yet","name":"きのこ菌床センター裏入口","address":"上尾幌","city":"厚岸町","number":"2-20"}, 
 {"id":"6e9ddfee-0a27-4e63-a1ee-76f4c471a9bf","lat":43.02153000,"long":141.43510400,"status":"done","name":"北野西公園","address":"清田区北野６条２丁目 北野西公園","city":"札幌市","number":"01-06"}, 
 {"id":"6ea52822-0255-46bc-b69c-7554a754184c","lat":45.38307200,"long":141.72482300,"status":"not_yet","name":"北星団地入口大学側空地（カユカワ資材置場横）","address":"稚内市若葉台２丁目 北星団地入口大学側空地（カユカワ資材置場横）","city":"稚内市","number":"101"}, 
 {"id":"6ea98a3f-1f64-41b2-94c5-50a0a6656aa3","lat":43.14766020,"long":141.35552510,"status":"done","name":"篠路駅前西公園西側","address":"北区篠路４条３丁目 篠路駅前西公園西側","city":"札幌市","number":"24-06"}, 
 {"id":"6eb21bf3-e1fa-406c-bb60-b20a04301b16","lat":43.00582100,"long":141.38153100,"status":"done","name":"西岡小学校東側","address":"豊平区西岡２条９丁目 西岡小学校東側","city":"札幌市","number":"28-02"}, 
 {"id":"6ec066bc-4c84-419d-997d-910d5a09529a","lat":43.09190800,"long":141.33042900,"status":"done","name":"エルムの森公園パークゴルフ場前","address":"北区北２６条西１２丁目 エルムの森公園パークゴルフ場前","city":"札幌市","number":"08-08"}, 
 {"id":"6ec18003-1d5f-4af9-beab-c093bdcd5b28","lat":44.42062600,"long":141.79939570,"status":"not_yet","name":"有明南地区民家前","address":"有明南地区民家前","city":"初山別村","number":"3-3"}, 
 {"id":"6ed1f4ac-f6c1-4506-adaa-e0f7e1e59f25","lat":43.04027750,"long":141.45932300,"status":"done","name":"厚別いなほ公園","address":"厚別区厚別中央４条２丁目 厚別いなほ公園","city":"札幌市","number":"06-03"}, 
 {"id":"6ed7c652-ad70-49a6-8124-0e3252ff7ecd","lat":43.00037877,"long":140.54105759,"status":"not_yet","name":null,"address":null,"city":"共和町","number":"7-33"}, 
 {"id":"6edc5dd1-bec9-4e7e-bb08-9b07cdc1553b","lat":43.82053272,"long":142.60700226,"status":"not_yet","name":"鐘乳洞入口　4705-1番地先","address":null,"city":"当麻町","number":"5-4  "}, 
 {"id":"6edd4909-cd7f-4aea-a6ea-facd39013e38","lat":42.87479000,"long":141.59460000,"status":"done","name":"ユカンボシ公園内","address":"和光町4丁目10","city":"恵庭市","number":"16"}, 
 {"id":"6eded540-9505-401e-9d05-6ddc92da0f67","lat":41.74224303,"long":140.05456924,"status":"not_yet","name":"元市山幸氏倉庫横","address":"汐吹 元市山幸氏倉庫横","city":"上ノ国町","number":"9-62"}, 
 {"id":"6ee30ef3-a0b6-4881-88e9-eae81c69a6af","lat":44.35082900,"long":142.44935200,"status":"not_yet","name":"西町公園西側","address":"西10条南5丁目","city":"名寄市","number":"7-5"}, 
 {"id":"6eedb1a6-7a03-413a-9c81-0aa98c9de264","lat":43.49377874,"long":141.98966552,"status":"done","name":"新泉町バス停","address":"歌志内市","city":"歌志内市","number":"22"}, 
 {"id":"6eeeea06-ef17-4ad1-a5e8-18843deb7c83","lat":42.80880340,"long":143.24248250,"status":"done","name":"古舞近隣センター前","address":"北海道中川郡幕別町字古舞693番地２","city":"幕別町","number":"36"}, 
 {"id":"6eef6bf7-a046-4b22-858e-60cbb74d540c","lat":41.81847920,"long":140.77634700,"status":"not_yet","name":"東山陣川線道路敷（陣川団地前バス停横）","address":"函館市陣川１丁目16番地先","city":"函館市","number":"166"}, 
 {"id":"6efdf2e9-36fb-4612-91fd-dd92fa7fd405","lat":43.09486800,"long":142.99458200,"status":"done","name":"もみじの里","address":"鹿追北2線8-33","city":"鹿追町","number":"1-8"}, 
 {"id":"6f006b39-6833-468a-afd8-e7899098a423","lat":42.25060682,"long":140.27529359,"status":"not_yet","name":"町立図書館前","address":"相生町 町立図書館前","city":"八雲町","number":"2-2"}, 
 {"id":"6f0cb3ff-1fff-49c9-a9d1-6b4d1ba694d1","lat":43.21493160,"long":142.44137690,"status":"not_yet","name":"東山支所前市街","address":null,"city":"富良野市","number":"17-1"}, 
 {"id":"6f0dfafc-7493-434c-94c9-4cacdddc4017","lat":43.82129690,"long":142.35658380,"status":"done","name":"高台小学校さく(春光台通沿い)","address":"春光台4条4丁目","city":"旭川市","number":"4740"}, 
 {"id":"6f1233e7-18db-4eab-9759-36c53a046b8c","lat":43.50258700,"long":142.43071310,"status":"not_yet","name":"公民館江幌分館前","address":"西９線北２９号","city":"上富良野町","number":"4-7"}, 
 {"id":"6f167388-c3ba-4a8d-baf4-f16078743315","lat":43.08947470,"long":141.51595720,"status":"done","name":"えんじゅ公園","address":"野幌末広町 ２２","city":"江別市","number":"142"}, 
 {"id":"6f1802ea-a271-46c1-aa4d-cac782d4aa10","lat":42.95214720,"long":144.52714110,"status":"not_yet","name":"地先：道道敷地、番地：住宅敷地(道道側)","address":"昆布森2丁目38番地3及び番地先","city":"釧路町","number":"9-4"}, 
 {"id":"6f19ecf1-2958-4a88-b49c-655d5058f63d","lat":43.15181450,"long":140.76587050,"status":"done","name":"町民センター玄関向　　（役場正面玄関向横）","address":"西町１丁目　36番地１","city":"仁木町","number":"6"}, 
 {"id":"6f1afeb8-2bd2-46cf-b2e9-7180cfbe6618","lat":43.11465500,"long":141.31083700,"status":"done","name":"新琴似第２やわら公園","address":"北区新琴似３条１２丁目 新琴似第２やわら公園","city":"札幌市","number":"33-05"}, 
 {"id":"6f1de2b6-122a-43d6-9f71-dae021ec892d","lat":41.84723970,"long":140.63262570,"status":"not_yet","name":"沖川小学校グランド前道路敷地","address":"清川595番1地先","city":"北斗市","number":"94"}, 
 {"id":"6f1e947e-f1f9-475b-8ee2-8ec48bc7bc12","lat":41.93729540,"long":143.23864660,"status":"not_yet","name":"masked","address":"えりも岬","city":"えりも町","number":"7-33"}, 
 {"id":"6f1f6394-0ed0-4400-a23b-149402342742","lat":41.84768020,"long":140.65929530,"status":"not_yet","name":"千代田会館前","address":"千代田54番地先","city":"北斗市","number":"163"}, 
 {"id":"6f204d43-f905-4099-81e6-336a7ae051bc","lat":44.05206384,"long":142.37508770,"status":"not_yet","name":null,"address":null,"city":"和寒町","number":"7-2"}, 
 {"id":"6f319df7-1c29-4d99-ac9e-39f186cd66a9","lat":42.41600550,"long":139.88046250,"status":"done","name":"旧北檜山町長住宅前","address":"北檜山区徳島8-13","city":"せたな町","number":"3"}, 
 {"id":"6f33cbe9-ed35-4906-bd04-114190d91494","lat":42.98273724,"long":140.54260254,"status":"not_yet","name":null,"address":null,"city":"共和町","number":"5-23"}, 
 {"id":"6f40e20d-ed14-4a01-a9ec-c758cb1dd1b9","lat":42.57640600,"long":140.60133200,"status":"not_yet","name":"踏切付近防火水槽前","address":"礼文華734","city":"豊浦町","number":"21"}, 
 {"id":"6f4a108c-7084-49d7-8c70-f74e92838036","lat":43.14741889,"long":143.60583544,"status":"done","name":"東北海道いすゞ地先","address":"上本別","city":"本別町","number":"17"}, 
 {"id":"6f591ecf-a066-4f95-af6a-f150fefba1fd","lat":43.77830220,"long":142.39944290,"status":"not_yet","name":"トヨタ輸送旭川営業所前さく","address":"新星町1丁目","city":"旭川市","number":"2850"}, 
 {"id":"6f5ae798-64fa-4567-ad9d-20a244d97876","lat":41.60643090,"long":140.41197600,"status":"not_yet","name":"重内33-8(道道)","address":"重内33-8","city":"知内町","number":"6-17"}, 
 {"id":"6f5e54ca-229e-4be2-9252-41175b780366","lat":43.52618400,"long":141.91810600,"status":"not_yet","name":"治田タイヤ北側","address":"空知太東1-1","city":"砂川市","number":"36"}, 
 {"id":"6f685ff3-7c6f-4c0e-9685-9eb4bc75d2d0","lat":43.01342800,"long":141.42541500,"status":"done","name":"豊平区体育館駐車場","address":"豊平区月寒東２条２０丁目 豊平区体育館駐車場","city":"札幌市","number":"15-06"}, 
 {"id":"6f6a2f3c-a119-4009-bf72-2b034c9b7a73","lat":42.91978530,"long":143.04753540,"status":"done","name":"芽室公園ゆったりトイレ付近（本通沿い）","address":"北海道河西郡芽室町本通9丁目","city":"芽室町","number":"7"}, 
 {"id":"6f70405b-59d5-4c1b-9319-fe1bea1e372d","lat":44.43606279,"long":143.22676420,"status":"done","name":"masked","address":null,"city":"興部町","number":"2-2"}, 
 {"id":"6f740b75-10bd-4a52-8c2f-36478885da85","lat":43.01982900,"long":141.46244800,"status":"done","name":"厚別公園陸上競技場フェンス南側","address":"厚別区上野幌３条１丁目 厚別公園陸上競技場フェンス南側","city":"札幌市","number":"17-07"}, 
 {"id":"6f7470d4-d82c-42e0-a277-e063457510fc","lat":42.11966500,"long":140.64623200,"status":"not_yet","name":"掛澗駅前","address":"砂原西3丁目","city":"森町","number":"21-101"}, 
 {"id":"6f84ec99-6fcf-4b77-8816-c0e15c681294","lat":42.98594300,"long":140.51844420,"status":"not_yet","name":"㈱山下水産食品加工場向かい　空き地","address":"大浜73-2","city":"岩内町","number":"7"}, 
 {"id":"6f9b7538-7aaa-42b0-b333-76c856218f7d","lat":43.11469310,"long":141.24200420,"status":"done","name":"手稲ちびっこ公園","address":"手稲区手稲本町３条１丁目 手稲ちびっこ公園","city":"札幌市","number":"11-03"}, 
 {"id":"6f9d94a5-fc93-4673-a27e-ae15a680c608","lat":null,"long":null,"status":"not_yet","name":"赤井川集会所前","address":"字赤井川","city":"黒松内町","number":"22"}, 
 {"id":"6fa2e9e8-4c73-4ce1-91bc-76697b9e2309","lat":44.00160490,"long":144.27107710,"status":"not_yet","name":"潮⾒４","address":"潮⾒４","city":"網走市","number":"64"}, 
 {"id":"6fa65acc-e881-486a-808c-abf20e70d44a","lat":43.33473600,"long":141.87887600,"status":"not_yet","name":"エネオス美唄インターSS斜向","address":"東6条北4丁目","city":"美唄市","number":"38"}, 
 {"id":"6faec8e8-7be1-40ec-81a1-1c3636b934b9","lat":43.12922300,"long":141.20643600,"status":"done","name":"中垣病院","address":"手稲区金山１条２丁目 中垣病院","city":"札幌市","number":"13-07"}, 
 {"id":"6fb7d1a8-8286-42be-b94f-8ab81508973f","lat":41.88928130,"long":140.34177650,"status":"not_yet","name":"masked","address":"北海道檜山郡厚沢部町館町555番地","city":"厚沢部町","number":"31"}, 
 {"id":"6fbae28b-0bc8-439e-9975-a89824e3b012","lat":43.01613000,"long":144.41175000,"status":"done","name":"ＮＴＴ東日本管理敷地","address":"曙4丁目12番地1","city":"釧路町","number":"19-4"}, 
 {"id":"6fbf6e92-877e-491e-ab12-599f68fc7976","lat":43.02222100,"long":141.96594200,"status":"not_yet","name":"H54下道路沿付近","address":"千代田 H54下道路沿付近","city":"夕張市","number":"4-2"}, 
 {"id":"6fbfb309-b815-4e5e-8293-82da6fdedc29","lat":43.94037200,"long":141.66244500,"status":"not_yet","name":"masked","address":"堀川町1丁目","city":"留萌市","number":"9-5"}, 
 {"id":"6fc103bc-d03e-4f93-a14c-fc049ef7beb4","lat":43.09141530,"long":141.29286610,"status":"done","name":"発寒小学校","address":"西区発寒１０条４丁目１番 発寒小学校","city":"札幌市","number":"27-02"}, 
 {"id":"6fc40b48-cfed-45c1-a358-b94acad6612e","lat":42.93996223,"long":142.93843750,"status":"not_yet","name":"鉄南団地入口","address":null,"city":"清水町","number":"11-51"}, 
 {"id":"6fc97dd6-9db9-4b1a-823c-390328e44434","lat":42.42677240,"long":139.91068090,"status":"done","name":"西丹羽会館前","address":"北檜山区西丹羽1253","city":"せたな町","number":"13"}, 
 {"id":"6fca50e5-c439-4d14-a938-f90214f88944","lat":41.87390390,"long":140.72242870,"status":"not_yet","name":"町民センターコモン前バス停付近","address":"大中山6丁目 町民センタ-コモン前バス停付近","city":"七飯町","number":"6-30"}, 
 {"id":"6fd98a0e-2f48-4b6a-9942-0e9456efbcd7","lat":43.06951479,"long":140.49095392,"status":"not_yet","name":null,"address":null,"city":"泊村","number":"1-4"}, 
 {"id":"6fdc16ab-a275-40a1-84e5-ee32b0bfb877","lat":42.46581980,"long":140.87057600,"status":"not_yet","name":"旭町改良住宅１号棟前","address":"旭町65番地","city":"伊達市","number":"1-1"}, 
 {"id":"6fe001cd-9daf-4a35-a5a3-37cc02a8bc34","lat":42.89305880,"long":143.06750050,"status":"not_yet","name":"道道豊頃糠内芽室線芽室南小北西角(新生寿の家入り口）","address":"北海道河西郡芽室町新生南6線25","city":"芽室町","number":"14"}, 
 {"id":"6fe12a9b-a5e9-48c1-b115-b23958245e27","lat":41.66540500,"long":140.40254200,"status":"not_yet","name":"第9投票区 ポスター掲示場の設置場所","address":"木古内町字 建川110番地66地先","city":"木古内町","number":"9-33"}, 
 {"id":"6fec791a-333a-456d-b45e-2833e99ec807","lat":43.06610900,"long":141.40083300,"status":"done","name":"菊水小学校（校庭側）","address":"白石区菊水元町２条３丁目 菊水小学校（校庭側）","city":"札幌市","number":"05-03"}, 
 {"id":"6ff60a68-a004-4b9e-bc94-37bbc9fd7f07","lat":43.25140805,"long":141.91364794,"status":"not_yet","name":"唐松郵便局横東側","address":"唐松栄町1-180-1","city":"三笠市","number":"52"}, 
 {"id":"7008260f-b770-4ef3-8906-c5af8515b425","lat":43.05742300,"long":141.78605100,"status":"not_yet","name":"役場前","address":"松風３丁目","city":"栗山町","number":"5"}, 
 {"id":"70106356-fb47-4544-b9c7-f7d2803c59e1","lat":43.01650600,"long":141.36485300,"status":"done","name":"澄川地区会館","address":"南区澄川３条２丁目６ 澄川地区会館","city":"札幌市","number":"02-03"}, 
 {"id":"701152d6-97eb-4246-a529-f4ac43b602fa","lat":43.18588150,"long":141.42085060,"status":"done","name":"美登江会館","address":null,"city":"当別町","number":"10-7　美登江会館"}, 
 {"id":"701b077a-00a3-4407-afd9-cd22d3aa4517","lat":44.00210000,"long":143.75520000,"status":"not_yet","name":"字西富103番地の4","address":"セント・アンⅡ（高橋アパート）前","city":"佐呂間町","number":"2"}, 
 {"id":"701e69fb-aaec-45d8-b61d-b0ed068c3bcb","lat":42.29791308,"long":143.30489159,"status":"not_yet","name":"旧幼稚園園庭前","address":"公園通南４丁目","city":"広尾町","number":"3-16"}, 
 {"id":"7025faf6-6273-4cd2-ab15-b20fb77311ce","lat":41.82753620,"long":140.70005880,"status":"done","name":"浜分中学校グランドフェンス","address":"追分1丁目17番1号","city":"北斗市","number":"30"}, 
 {"id":"70286e2d-b724-4567-9840-e6b02fee5560","lat":43.19374310,"long":141.00290950,"status":"done","name":"旧塚小学校 (海側)","address":"東雲9-12","city":"小樽市","number":"75"}, 
 {"id":"702d8e3e-1a06-4248-a804-ac3043247491","lat":43.01666610,"long":141.41132480,"status":"done","name":"中央バス停留所「札幌ドーム」横","address":"豊平区月寒東１条１６丁目 中央バス停留所「札幌ドーム」横","city":"札幌市","number":"14-04"}, 
 {"id":"7037d4db-4dc8-472a-af71-73c43d046a10","lat":43.14488660,"long":141.32176850,"status":"done","name":"屯田こもれび公園","address":"北区屯田９条１０丁目 屯田こもれび公園","city":"札幌市","number":"44-05"}, 
 {"id":"7041d013-86df-440a-8753-61f5cc5c5ed9","lat":43.06079900,"long":141.35444600,"status":"done","name":"札幌市役所南側","address":"中央区大通西２丁目 札幌市役所南側","city":"札幌市","number":"16-01"}, 
 {"id":"704346f5-c63a-4534-a9e5-3f25c70e73bf","lat":43.08541492,"long":141.38582080,"status":"done","name":"伏古公園　北西側","address":"東区伏古１条２丁目１番 伏古公園　北西側","city":"札幌市","number":"20-05"}, 
 {"id":"7044cf33-d483-434d-89a5-842b059669cb","lat":43.02989200,"long":141.47004480,"status":"done","name":"共栄小学校正門横","address":"厚別区厚別南２丁目 共栄小学校正門横","city":"札幌市","number":"09-01"}, 
 {"id":"70491bae-df7a-4f08-a135-cb482a6eb24a","lat":43.92265700,"long":141.67861900,"status":"not_yet","name":"サッポロドラッグストア潮静店横","address":"潮静1丁目","city":"留萌市","number":"10-1"}, 
 {"id":"704ab9bf-8ac4-4b69-a3db-cb4a79f59f95","lat":43.13623000,"long":141.19895900,"status":"done","name":"星置児童会館玄関横","address":"手稲区星置２条７丁目 星置児童会館玄関横","city":"札幌市","number":"14-01"}, 
 {"id":"704eb18e-a676-4a5d-b0f0-1f673e1b1480","lat":43.15051330,"long":141.31301430,"status":"done","name":"紅南小学校","address":"花川北1条6丁目紅南小学校","city":"石狩市","number":"39"}, 
 {"id":"70523ab1-0823-4781-b206-8aea643d732a","lat":43.01406670,"long":141.50689990,"status":"done","name":"さつみ公園（南側）","address":"西の里東4丁目3番地9","city":"北広島市","number":"11"}, 
 {"id":"7056512e-eec9-459d-8f59-948936dddf78","lat":43.70562000,"long":142.43512000,"status":"not_yet","name":null,"address":"１０号南６番地","city":"東神楽町","number":"2-14"}, 
 {"id":"7066208b-42cb-4aa4-bf10-eb07014eadc2","lat":45.39241000,"long":141.70457500,"status":"not_yet","name":"masked","address":"masked","city":"稚内市","number":"80"}, 
 {"id":"706c5147-021e-4fa5-9e99-8870f5c6d4d6","lat":43.13916890,"long":141.28205540,"status":"done","name":"花川南さかえ第1公園","address":"花川南9条3丁目花川南さかえ第1公園","city":"石狩市","number":"55"}, 
 {"id":"707b384b-b95d-48a9-b16b-d1be70c3eaa3","lat":44.05234630,"long":143.52556130,"status":"not_yet","name":"遠軽高校テニスコート前","address":"遠軽町南町1丁目","city":"遠軽町","number":"18"}, 
 {"id":"7082bb96-21cb-443d-b3a4-c3afd964ac51","lat":42.85894753,"long":140.88423014,"status":"done","name":null,"address":null,"city":"京極町","number":"1-5"}, 
 {"id":"708370d1-42ef-40bf-b7d4-3f79440537f2","lat":43.63646300,"long":141.96788000,"status":"not_yet","name":"江部乙駅前","address":"江部乙駅前","city":"滝川市","number":"11-5"}, 
 {"id":"70839ebc-9cdf-4952-8710-df495422639b","lat":44.11503000,"long":143.01129000,"status":"not_yet","name":"滝西会館前","address":"滝西","city":"滝上町","number":"2-2"}, 
 {"id":"7084f9a8-637b-433c-8327-6def14ff0dfb","lat":43.87442000,"long":142.40107700,"status":"not_yet","name":"東鷹栖公民館第三分館駐車場(道路側)","address":"東鷹栖10線21号","city":"旭川市","number":"5410"}, 
 {"id":"708c50ef-5f74-41bf-9433-9d4029369e0f","lat":44.87332837,"long":142.21913338,"status":"not_yet","name":"豊平入口道路用地　町有地","address":"豊平186番4","city":"中頓別町","number":"2-19"}, 
 {"id":"7093f67d-53b2-452d-8981-f5f67c8dae7a","lat":43.01479700,"long":141.41755700,"status":"done","name":"日糧製パン(株)駐車場前","address":"豊平区月寒東１条１８丁目 日糧製パン(株)駐車場前","city":"札幌市","number":"14-09"}, 
 {"id":"70a102d8-6e96-4bdf-8c29-76e728573b16","lat":42.64158710,"long":140.46052317,"status":"not_yet","name":"東川集会所前","address":"字東川","city":"黒松内町","number":"20"}, 
 {"id":"70a10eb8-489b-4044-8b34-75ed37da878a","lat":42.91601000,"long":141.57857000,"status":"done","name":"道道600号線（島松千歳線）沿い、柏栄橋付近","address":"島松東町4丁目","city":"恵庭市","number":"107"}, 
 {"id":"70a1c2bb-d934-4037-a3e9-1ace81212106","lat":41.89749480,"long":140.63494280,"status":"not_yet","name":"市渡小学校校門前","address":"市渡154番9","city":"北斗市","number":"134"}, 
 {"id":"70a36a6d-d609-46e5-92e7-cf0b54601224","lat":41.66489400,"long":140.42929100,"status":"not_yet","name":"第8投票区 ポスター掲示場の設置場所","address":"木古内町字 新道46番地40","city":"木古内町","number":"8-27"}, 
 {"id":"70a9501c-5db3-46ef-a0b2-65490cb6de16","lat":44.05319370,"long":143.53849540,"status":"not_yet","name":"東１線第２号橋","address":"遠軽町東町2丁目","city":"遠軽町","number":"37"}, 
 {"id":"70aa78ac-59be-4a7b-96be-d0de868150d3","lat":43.21818744,"long":143.24129105,"status":"done","name":"東１線４０号交差点","address":"東1線40号交差点","city":"士幌町","number":"42"}, 
 {"id":"70af7f83-17a9-4682-b8b2-46c7e5577fe6","lat":43.02273200,"long":141.42620800,"status":"done","name":"東月寒公園","address":"豊平区月寒東４条１８丁目 東月寒公園","city":"札幌市","number":"09-01"}, 
 {"id":"70b8c08e-1ef3-4dfb-a19b-7c66011f63c8","lat":43.46329227,"long":141.84813023,"status":"done","name":null,"address":null,"city":"浦臼町","number":"3"}, 
 {"id":"70bd310b-2e2c-443c-91a9-975d2b640e8d","lat":43.48784300,"long":141.93360900,"status":"not_yet","name":"吉野園前","address":"北吉野町","city":"砂川市","number":"98"}, 
 {"id":"70c47c37-9372-4162-bada-aabd21c80ac9","lat":42.99961030,"long":141.42831290,"status":"done","name":"清田中央公園","address":"清田区清田４条２丁目 清田中央公園","city":"札幌市","number":"11-03"}, 
 {"id":"70cd73c7-558a-4abd-bf64-7c95071d7a49","lat":43.55608000,"long":141.91719100,"status":"not_yet","name":"緑町公園","address":"緑町公園","city":"滝川市","number":"8-4"}, 
 {"id":"70cff0b9-6fa7-4464-bc3c-6c44bfcfd4a7","lat":44.81911500,"long":142.57292200,"status":"not_yet","name":"masked","address":"仁達内","city":"枝幸町","number":"6-27"}, 
 {"id":"70db2c6e-f583-4c49-98c7-932d7327e587","lat":42.58318300,"long":140.71584500,"status":"not_yet","name":"海岸町福祉の家前","address":"海岸町51－1","city":"豊浦町","number":"26"}, 
 {"id":"70dd7979-53c6-4062-a287-5232bc65b369","lat":42.35568280,"long":141.02902190,"status":"not_yet","name":"旧知利別小中島公園通側","address":"宮の森町3丁目1-74","city":"室蘭市","number":"16-8"},