[{"id":"0001e9e0-8224-4301-80cf-a92b2f56b927","lat":34.78003040,"long":135.01748860,"status":"not_yet","name":"かわい子どもクリニック駐車場南側金柵","address":"志染町中自由が丘２丁目","city":"三木市","number":"234"}, 
 {"id":"000975db-3531-43e1-b791-924a24e8c240","lat":34.32608800,"long":134.72168000,"status":"done","name":"登立公会堂前フェンス","address":"湊1153付近","city":"南あわじ市","number":"2-26"}, 
 {"id":"001dfcd0-7c47-4218-9779-719878e1ed2e","lat":35.42750660,"long":134.96255710,"status":"not_yet","name":"田中正夫氏所有地（田）","address":"但東町天谷222田中正夫氏所有地(田)","city":"豊岡市","number":"446"}, 
 {"id":"00304f7c-1490-4732-b74c-ea4f60be04b8","lat":35.65574530,"long":134.76139740,"status":"not_yet","name":"床瀬営字地","address":"竹野町楠576床瀬営字地","city":"豊岡市","number":"188"}, 
 {"id":"0030b590-3ceb-4fc4-9c71-754788b2ae61","lat":35.16482374,"long":134.76392555,"status":"not_yet","name":"masked","address":"栃原","city":"朝来市","number":"55"}, 
 {"id":"003eb609-0e73-4f7c-8c76-32155c044dc4","lat":35.37060870,"long":134.53878400,"status":"not_yet","name":"masked","address":"福定110","city":"養父市","number":"208"}, 
 {"id":"003f47f1-2e91-495e-837c-52d34ce964e2","lat":34.67587060,"long":135.09159760,"status":"done","name":"竜が谷橋南西欄干","address":"須磨区竜が台2丁目5番地","city":"神戸市","number":"261"}, 
 {"id":"0048b8d6-5b8d-490a-9aaa-bd33dd8d506d","lat":35.46414090,"long":134.77398140,"status":"done","name":"フジテック(株)ビッグステップフェンス","address":"宰田180フジテック(株)ビッグステップフェンス","city":"豊岡市","number":"271"}, 
 {"id":"004a19aa-b7ea-4da3-b338-7a55b503a62e","lat":34.70903540,"long":135.00115970,"status":"done","name":"バス停春日台2丁目(明石行)付近","address":"西区樫野台5丁目3番地","city":"神戸市","number":"227"}, 
 {"id":"004a26d2-6c74-4b2c-a6b7-f62400a6bd71","lat":34.66686240,"long":134.94890000,"status":"done","name":"藤江4号公園(西側)","address":"藤が丘1丁目5","city":"明石市","number":"258"}, 
 {"id":"004e6a41-a58d-4f4f-9874-ec4225ea94c9","lat":34.85319780,"long":134.93151000,"status":"not_yet","name":"都池の西岸 ゴミステーションの南側","address":"桑田町998の15","city":"小野市","number":"13-88"}, 
 {"id":"004f2637-0dda-4739-bba2-c2f3139d6a44","lat":34.83611750,"long":134.68559190,"status":"not_yet","name":"車門橋北側歩道","address":"竜野町一丁目1-3","city":"姫路市","number":"106"}, 
 {"id":"0053d005-34b1-4b44-b789-99ce15094f30","lat":35.14587620,"long":135.02305410,"status":"done","name":"谷村公民館前広場　空き地","address":"氷上町谷村","city":"丹波市","number":"管理番号49氷上14"}, 
 {"id":"005812de-c5ef-44da-b9da-0f71a73ec3f7","lat":34.66749320,"long":135.12796640,"status":"done","name":"市営禅昌寺住宅東鉄柵","address":"須磨区禅昌寺町2丁目2番","city":"神戸市","number":"135"}, 
 {"id":"006114f0-72d7-43ba-b701-f30dd6203db3","lat":34.86786800,"long":134.40251000,"status":"not_yet","name":"樫並勉 氏 所有地","address":"佐用谷164-1","city":"上郡町","number":"31"}, 
 {"id":"00667a13-5710-40b7-8f2e-3c860f52194a","lat":34.74865900,"long":135.41450830,"status":"done","name":"上ノ島第３住宅　北側","address":"南塚口町7-30-1上ノ島第3住宅 北側","city":"尼崎市","number":"266"}, 
 {"id":"007e1346-352c-44a7-8d5d-72ed5a126a6a","lat":34.76299830,"long":135.41397630,"status":"done","name":"稲野センター 西側ブロック塀（東向）","address":"稲野町4丁目46番地","city":"伊丹市","number":"91"}, 
 {"id":"00821215-418d-40c1-9ed0-e6629a3efe4c","lat":34.89379840,"long":134.95468940,"status":"done","name":"平池公園","address":"東古瀬453番地1","city":"加東市","number":"39"}, 
 {"id":"00838914-91ba-4812-89f8-9752b073731a","lat":34.81839460,"long":134.48600040,"status":"not_yet","name":"普光沢川豆谷橋南（ガードレール）","address":"池之内","city":"相生市","number":"42"}, 
 {"id":"008a983a-00b3-4053-a4c4-6de81d059013","lat":34.74773730,"long":134.90433540,"status":"not_yet","name":"masked","address":"国岡 3丁目 24","city":"稲美町","number":"105"}, 
 {"id":"008c85c4-ac82-4830-8c0f-2b7fd9519bba","lat":34.71520080,"long":134.88849670,"status":"done","name":"西二見岡の上公園（東側フェンス）","address":"二見町西二見1951-3","city":"明石市","number":"492"}, 
 {"id":"008d0ffc-41ea-472d-825e-48d2ccf3a20b","lat":34.81765400,"long":134.82554600,"status":"done","name":"志方町第一公園北側フェンス","address":"志方町志方町1395-2","city":"加古川市","number":"452"}, 
 {"id":"008fac0e-a6de-48c6-b5cc-fc6a12c0195f","lat":35.05109960,"long":134.92361050,"status":"done","name":"旧中村町公園東歩道フェンス","address":"中村町38-2","city":"多可町","number":"19"}, 
 {"id":"00a399a0-a191-4169-b78b-e849db599ffe","lat":35.07477240,"long":135.26537390,"status":"done","name":"般若寺公民館広場フェンス","address":"般若寺","city":"丹波篠山市","number":"7-4"}, 
 {"id":"00a7d7a0-b892-4faf-9fda-4949121ef3d8","lat":34.72160690,"long":134.88153020,"status":"done","name":"野添住吉神社境内地南側","address":"北野添3丁目1571-10","city":"播磨町","number":"11"}, 
 {"id":"00aace85-698c-498d-9c06-915138a67c7b","lat":34.81186540,"long":134.58358410,"status":"done","name":"北納衣裳店南側駐車場","address":"網干区高田274","city":"姫路市","number":"598"}, 
 {"id":"00ac47ca-cc61-4c27-aea2-706036f0641d","lat":34.70287960,"long":135.03602080,"status":"done","name":"バス停井吹台東町1丁目付近","address":"西区井吹台東町1丁目5番地","city":"神戸市","number":"182"}, 
 {"id":"00b2c571-43e1-4e13-9d7f-79e21b0fa441","lat":34.71705630,"long":135.41586830,"status":"done","name":"開明庁舎　東玄関前","address":"開明町2-1開明庁舎 東玄関前","city":"尼崎市","number":"10"}, 
 {"id":"00b72893-a994-46fa-b72c-a3c1680061cc","lat":34.71006930,"long":135.24234370,"status":"done","name":"浜田自治会館南側柵","address":"灘区浜田町3丁目6番","city":"神戸市","number":"67"}, 
 {"id":"00bab550-5972-474c-8b2d-e73522335b70","lat":34.82072800,"long":134.81791700,"status":"done","name":"志方公民館駐輪場前植込","address":"志方町志方町1758-3","city":"加古川市","number":"453"}, 
 {"id":"00c05388-54ad-49e2-af9a-e86f73c4d3a5","lat":35.34222950,"long":134.75490310,"status":"not_yet","name":"船谷バス停横","address":"船谷67-2付近","city":"養父市","number":"82"}, 
 {"id":"00d54b76-70d5-47a5-814a-cdd7e31d3d5e","lat":34.86379600,"long":134.88389800,"status":"done","name":"周通寺（密蔵院）県道沿い墓地前","address":"網引町","city":"加西市","number":"125"}, 
 {"id":"00d5f345-a658-4344-90f2-fb1edcfdc801","lat":34.76319320,"long":134.42952420,"status":"done","name":"坂越トンネル東側路肩","address":"坂越トンネル東側路肩","city":"赤穂市","number":"88"}, 
 {"id":"00d62b1a-7352-4f5c-ac56-7a559aff8b5c","lat":35.55690740,"long":134.79814190,"status":"not_yet","name":"メグラランドール南側畑道路沿い（岡崎俊宏氏所有地）","address":"福田1103-1メグラランド-ル南側畑道路沿い(岡崎俊宏氏所有地)","city":"豊岡市","number":"88"}, 
 {"id":"00e330cc-3d3b-45f6-9b6e-c336d82262d7","lat":34.74177760,"long":134.86478450,"status":"done","name":"月極駐車場東側ブロック塀","address":"平岡町二俣785-6、785-7","city":"加古川市","number":"229"}, 
 {"id":"00eebf02-b0c3-4d59-b1f9-267404d5b0a3","lat":34.74817080,"long":134.79730660,"status":"not_yet","name":"高砂公園の東側（植栽）","address":"高砂市西畑2丁目1－15地先","city":"高砂市","number":"2-4"}, 
 {"id":"00f0d5e6-9a43-4d95-8a49-53e0c95f0d95","lat":35.63088960,"long":134.63791600,"status":"not_yet","name":"香住久美浜線より区内入口付近の歩道柵 空き地前の歩道柵","address":"香住区浜安木1564-1","city":"香美町","number":"76"}, 
 {"id":"00f56ae1-101d-44a3-a376-aa0f23cdb264","lat":34.75158490,"long":135.32714110,"status":"done","name":"北夙川小学校北側","address":"石刎町 11番21号","city":"西宮市","number":"84"}, 
 {"id":"00f69db2-cc26-4610-8b3b-2e783fa48a2b","lat":35.13752310,"long":135.06489790,"status":"done","name":"木の根センター入口　植込","address":"柏原町南多田","city":"丹波市","number":"管理番号16柏原16"}, 
 {"id":"0101ee98-5d09-4857-8453-7f0824b16dac","lat":34.68971420,"long":135.19497920,"status":"done","name":"冷却塔北側鉄柵","address":"中央区加納町6丁目5番","city":"神戸市","number":"118"}, 
 {"id":"010b4870-dc78-418a-83e1-245f57eaf17f","lat":35.22800080,"long":135.04082110,"status":"done","name":"小谷公民館前広場　空き地","address":"氷上町小谷","city":"丹波市","number":"管理番号79氷上44"}, 
 {"id":"010d511b-4c52-4666-9d18-e3212b5b2eb0","lat":35.66060100,"long":134.74536550,"status":"not_yet","name":"小林隆久氏（倉庫）","address":"竹野町切濱1070小林隆久氏(倉庫)","city":"豊岡市","number":"244"}, 
 {"id":"010dc9cc-e6d0-42f0-9528-295e9b98a0cb","lat":35.58573260,"long":134.71112880,"status":"not_yet","name":"masked","address":"masked","city":"豊岡市","number":"200"}, 
 {"id":"010e018f-a344-45bb-b359-5fd488232d42","lat":34.90146600,"long":134.72059600,"status":"not_yet","name":"masked","address":"香寺町須加院131番地6　地先","city":"姫路市","number":"784"}, 
 {"id":"011271e2-55b6-4fc1-8def-389b373700ad","lat":34.72623890,"long":135.26399020,"status":"done","name":"大日女尊神社北側コンクリート塀(野寄会館)","address":"東灘区西岡本4丁目8番7号","city":"神戸市","number":"127"}, 
 {"id":"01196f4b-1826-44ae-94ee-0479655653e8","lat":34.73715110,"long":135.30632110,"status":"done","name":"大原集会所入口付近","address":"大原町20-2","city":"芦屋市","number":"45"}, 
 {"id":"011b1b0b-85f3-4674-b26d-b086240cef51","lat":34.46165130,"long":134.93602020,"status":"not_yet","name":"旧西河電気商会(横）フェンス","address":"佐野","city":"淡路市","number":"66"}, 
 {"id":"01299daa-dc76-44b5-a76d-5b833ad68afc","lat":34.82701180,"long":135.39694270,"status":"error_wrong_place","name":"雲雀丘3丁目第2公園フェンス","address":"宝塚市雲雀丘3-9","city":"宝塚市","number":"25-06"}, 
 {"id":"012c3cea-f56b-4570-a0f5-09abe611e665","lat":34.85251820,"long":135.40789290,"status":"done","name":"西多田大橋下ガードレール","address":"錦松台25番西多田大橋下ガ-ドレ-ル","city":"川西市","number":"187"}, 
 {"id":"012e5546-6ac8-47b7-a4f2-caef5c22877d","lat":34.63301130,"long":135.07714580,"status":"done","name":"兵庫県自治研修所テニスコート西道路鉄柵","address":"垂水区塩屋町5丁目3番","city":"神戸市","number":"3"}, 
 {"id":"0133a74d-fcae-4c43-aff4-b21ac7646143","lat":35.50119180,"long":134.99689040,"status":"not_yet","name":"赤野広場フェンス（あかの）","address":"但東町中山159-1赤野広場フェンス(あかの)","city":"豊岡市","number":"400"}, 
 {"id":"01362196-7720-40df-a81c-50ad4409d82b","lat":34.65444400,"long":135.14597890,"status":"done","name":"「大正筋」入口付近金属柵","address":"長田区腕塚町5丁目5番","city":"神戸市","number":"194"}, 
 {"id":"013ba69e-8ab2-402d-81d7-2b7aaaf39507","lat":35.46718360,"long":134.83603700,"status":"not_yet","name":"道路公園（荒木バス停東隣）敷地（植栽）西端","address":"出石町荒木996-1道路公園(荒木バス停東隣)敷地(植栽)西端","city":"豊岡市","number":"355"}, 
 {"id":"0143a846-f5f4-436e-9cdf-5b071670cde5","lat":34.66495940,"long":135.02245850,"status":"not_yet","name":"カレッジハイツⅡ付近","address":"西区今寺4番地の3","city":"神戸市","number":"111"}, 
 {"id":"0149c605-02b9-48bd-a833-11f6346c8b92","lat":34.73232730,"long":135.30339500,"status":"done","name":"福祉会館(東側)","address":"業平町8-5","city":"芦屋市","number":"56"}, 
 {"id":"014a63b1-d693-48ad-8d51-7cda5ce5533c","lat":34.73174060,"long":135.25394440,"status":"done","name":"神大附属中等教育学校北西側金網","address":"東灘区住吉山手5丁目11番1号","city":"神戸市","number":"201"}, 
 {"id":"01501709-6c4c-43be-b143-17bba918e20d","lat":34.72688550,"long":135.29337360,"status":"done","name":"本庄町中公園南側鉄柵","address":"東灘区本庄町1丁目4番","city":"神戸市","number":"32"}, 
 {"id":"0155025a-1a94-4417-9245-e9861660fbcd","lat":34.79381020,"long":135.38584810,"status":"done","name":"中野北児童遊園地 北側金網","address":"中野北1丁目1番54号","city":"伊丹市","number":"344"}, 
 {"id":"01609cd5-e913-43ff-9df3-06274a9ddeb0","lat":35.27734170,"long":134.66428510,"status":"done","name":"両松亭下空き地ガードレール","address":"大屋町明延809　附近","city":"養父市","number":"161"}, 
 {"id":"0162941d-5a6e-4a5f-8c9d-2853725621f7","lat":34.65277910,"long":135.10563870,"status":"done","name":"市バス高倉台1丁目バス停鉄柵","address":"須磨区高倉台1丁目9番18号","city":"神戸市","number":"29"}, 
 {"id":"0164f15d-d991-457f-8034-268d4d9e17e8","lat":null,"long":null,"status":"not_yet","name":"市立久代幼稚園北約100m水路沿鉄柵","address":"久代2丁目9番","city":"加西市","number":"133"}, 
 {"id":"0164f9ec-6f6b-4064-8c5f-e5b8b07bf828","lat":35.01229200,"long":134.82199800,"status":"not_yet","name":"岩戸公民館西広場フェンス","address":"上牛尾岩戸","city":"市川町","number":"56"}, 
 {"id":"016ddca7-103c-4b70-b7d7-545f3681ac65","lat":35.01611280,"long":135.17986700,"status":"done","name":"当野公民館植栽","address":"当野","city":"丹波篠山市","number":"47-3"}, 
 {"id":"016ec14b-e29a-4973-b4b1-65417e8df7dc","lat":34.82674880,"long":135.41766940,"status":"done","name":"宮崎医院東側金網","address":"小戸2丁目4番宮崎医院東側金網","city":"川西市","number":"26"}, 
 {"id":"017692d1-8707-490b-993c-504c773d90fa","lat":34.77185640,"long":135.39055010,"status":"done","name":"伊丹市バス回転場 南側鉄板フェンス","address":"山田2丁目4番街区","city":"伊丹市","number":"122"}, 
 {"id":"01780478-b47b-4ca9-b657-7f7fc8b99e7c","lat":34.99200400,"long":134.84536900,"status":"not_yet","name":"大豊正吾様宅前","address":"上万願寺町","city":"加西市","number":"210"}, 
 {"id":"017b25c8-d0b4-4486-afd6-cee45f24f63d","lat":34.82152140,"long":135.32043640,"status":"done","name":"青葉台第４公園東側道向いガードレール","address":"青葉台１丁目22番","city":"西宮市","number":"498"}, 
 {"id":"01806d7d-16af-4f1c-8b20-96ea5ed3dda1","lat":34.83494780,"long":134.66828870,"status":"not_yet","name":"土山八幡神社南側","address":"土山七丁目1-1","city":"姫路市","number":"387"}, 
 {"id":"0185d34d-f141-4b68-b954-c645a7e89bd7","lat":34.67622360,"long":135.17365040,"status":"done","name":"新開地アートひろば東側 金網","address":"兵庫区新開地5丁目3番","city":"神戸市","number":"137"}, 
 {"id":"018c32d3-c177-41ad-a3c1-6fbee758a0ee","lat":null,"long":null,"status":"not_yet","name":"川西市上水道一庫高区配水池南側空地フェンス","address":"丸山台3丁目4番地82","city":"加西市","number":"323"}, 
 {"id":"018de3a4-3a5f-4819-9444-d558b61e4bc3","lat":35.62332510,"long":134.44645480,"status":"not_yet","name":"masked","address":"寺町","city":"新温泉町","number":"87"}, 
 {"id":"01a2aa41-0a8e-46d7-966c-6f06ab810946","lat":35.60155400,"long":134.80103080,"status":"not_yet","name":"市営上山住宅前市道ガードレール","address":"城崎町上山219市営上山住宅前市道ガ-ドレ-ル","city":"豊岡市","number":"177"}, 
 {"id":"01a60317-cf50-4070-9c5f-89e4cf8290a7","lat":34.90713280,"long":135.16056190,"status":"done","name":"学園５丁目　西公園内野立て（幹線道路沿い）","address":"学園5丁目 西公園内野立て(幹線道路沿い)","city":"三田市","number":"231"}, 
 {"id":"01bfa343-be6c-4250-bf22-7dde567f3dda","lat":34.71316290,"long":135.38440020,"status":"done","name":"元浜西会館","address":"元浜町3-23元浜西会館","city":"尼崎市","number":"213"}, 
 {"id":"01c12b39-7f20-434a-b980-900ded641b31","lat":34.87400000,"long":134.88603000,"status":"done","name":"市道栄桑原田線ガードレール","address":"桑原田町","city":"加西市","number":"110"}, 
 {"id":"01ca5f99-5ed6-44dd-95c5-3f92f35cd97e","lat":34.70579750,"long":135.00174860,"status":"done","name":"バス停樫野台2丁目(西体育館行)付近","address":"西区樫野台3丁目20番地","city":"神戸市","number":"229"}, 
 {"id":"01cbf3ec-686f-47f0-b072-7ab91fd21155","lat":35.58007440,"long":134.73697450,"status":"not_yet","name":"花登栄一氏所有地（空地）","address":"竹野町森本161-1花登栄一氏所有地(空地)","city":"豊岡市","number":"205"}, 
 {"id":"01cc6eea-9eec-4eb1-a260-3b62b1ec5ea7","lat":34.68237720,"long":135.26717040,"status":"done","name":"甲南大学六甲アイランド総合体育施設南グラウンド北側フェンス","address":"東灘区向洋町中9丁目4","city":"神戸市","number":"271"}, 
 {"id":"01dbb9d4-3c27-4383-823c-266cda7351c0","lat":34.65637230,"long":135.02346540,"status":"done","name":"市道(テニスコート北東向側鉄柵)","address":"大蔵谷奥7","city":"明石市","number":"17"}, 
 {"id":"01dfc9aa-ca05-4cdf-9204-9589f6da871d","lat":34.73674270,"long":135.44367680,"status":"done","name":"神崎浄水場 南側","address":"次屋4-6-1神崎浄水場 南側","city":"尼崎市","number":"96"}, 
 {"id":"01e26685-047d-402b-836c-d01482df70ff","lat":34.83695550,"long":135.37394830,"status":"done","name":"宝塚山手台北公園バス停向かいガードフェンス","address":"宝塚市山手台西4","city":"宝塚市","number":"58-05"}, 
 {"id":"01e5795c-851e-4d64-a08e-c74851f6ea09","lat":35.43635100,"long":135.03745060,"status":"not_yet","name":"宮内木炭倉庫","address":"但東町薬王寺694-4宮内木炭倉庫","city":"豊岡市","number":"481"}, 
 {"id":"01e712d4-0204-4298-9b69-fc1369b14b94","lat":34.75775010,"long":135.34325770,"status":"done","name":"市営上ケ原八番町住宅6号棟 南側フェンス","address":"上ケ原八番町 2番","city":"西宮市","number":"473"}, 
 {"id":"01e8adc4-8b3d-4624-ac62-1ebb402c7f43","lat":34.22380570,"long":134.73948250,"status":"done","name":"亀岡八幡神社（旧県道端石積）","address":"阿万上町393付近","city":"南あわじ市","number":"4-49"}, 
 {"id":"01e8fa64-e135-4c96-acf3-6ec96e244fd5","lat":34.73713500,"long":135.40607490,"status":"done","name":"あこや学園　西側","address":"三反田町1丁目1-1あこや学園 西側","city":"尼崎市","number":"285"}, 
 {"id":"01eb204c-76cc-4728-86e1-b492d0ec3aa7","lat":34.88238390,"long":135.19491600,"status":"done","name":"弥生が丘２丁目　弥生小学校正門向かって右側金網またぎで野立て","address":"弥生が丘2丁目 弥生小学校正門向かって右側金網またぎで野立て","city":"三田市","number":"219"}, 
 {"id":"01ec3c55-f262-4b60-81cf-d7aa3c7b5292","lat":34.81338670,"long":135.38261580,"status":"done","name":"長尾町第2公園植え込み","address":"宝塚市長尾町11","city":"宝塚市","number":"59-06"}, 
 {"id":"01ee434c-59e2-421d-8bb3-1de8c06b4769","lat":34.64607260,"long":135.13161940,"status":"done","name":"若宮小学校南鉄柵","address":"須磨区若宮町2丁目1番1号","city":"神戸市","number":"66"}, 
 {"id":"01f1e4c3-eced-4597-bc58-3f6650a4067f","lat":34.79559940,"long":134.66569600,"status":"not_yet","name":"細江天神公園東側金網","address":"飾磨区天神662","city":"姫路市","number":"428"}, 
 {"id":"01f3be9e-49c4-47dd-bfd8-2b1126789841","lat":34.80486430,"long":134.62843470,"status":"done","name":"広畑市民センター駐車場東側","address":"広畑区正門通一丁目7－3","city":"姫路市","number":"511"}, 
 {"id":"01f68c33-ae84-4d37-a01f-4f2d9dab5fcc","lat":34.88454310,"long":135.09919030,"status":"done","name":"NTT吉川西別館南側金網","address":"吉川町有安","city":"三木市","number":"289"}, 
 {"id":"02010a62-163c-4ef9-856b-355105f5dd1d","lat":34.52388730,"long":134.99084380,"status":"not_yet","name":"久留麻コミュニティ消防センター前","address":"久留麻2231番地2","city":"淡路市","number":"257"}, 
 {"id":"0204528f-c4de-4324-8d77-ff56a037264c","lat":34.72166760,"long":135.43285910,"status":"done","name":"長洲小学校 北側","address":"長洲東通3-7-1長洲小学校 北側","city":"尼崎市","number":"168"}, 
 {"id":"0208d255-b91f-4e0a-b724-6574b1ff867d","lat":35.10056060,"long":135.17401610,"status":"done","name":"上板井公民館前","address":"上板井","city":"丹波篠山市","number":"32-9"}, 
 {"id":"020b678a-9e66-49a0-845d-27c4e95c84fc","lat":35.22094390,"long":135.04373920,"status":"done","name":"鴨内公民館前駐車場","address":"氷上町鴨内","city":"丹波市","number":"管理番号78氷上43"}, 
 {"id":"021690d0-d407-484f-9c60-ce7d8eeefe00","lat":34.84207680,"long":134.64132610,"status":"done","name":"青山チビッコ広場南側フェンス","address":"青山三丁目","city":"姫路市","number":"279"}, 
 {"id":"021e3002-5f6b-45d6-aa54-639c491fa3dd","lat":34.37403380,"long":134.85756580,"status":"done","name":"岡本バス停付近ガードレール","address":"中川原町市原９２６番地２","city":"洲本市","number":"80"}, 
 {"id":"02208db4-4d52-4dc8-ad12-394d2344fede","lat":34.76410930,"long":135.38504000,"status":"done","name":"セブンイレブン 北側","address":"武庫の里2-9セブンイレブン 北側","city":"尼崎市","number":"452"}, 
 {"id":"02228fdb-4d1e-411e-993a-d7b21062ca4d","lat":34.80866240,"long":135.39128490,"status":"done","name":"市立古池運動広場 西側塀","address":"荻野6丁目24番地","city":"伊丹市","number":"340"}, 
 {"id":"0229172d-43e1-434b-af67-7accfd470a54","lat":null,"long":null,"status":"not_yet","name":"花屋敷さくら会館金網","address":"花屋敷2丁目2番13号","city":"加西市","number":"72"}, 
 {"id":"022efddd-72b2-4e37-b959-571cb72fa688","lat":34.87059510,"long":134.64995250,"status":"not_yet","name":"市営書写西住宅東側","address":"書写台二丁目16","city":"姫路市","number":"254"}, 
 {"id":"0231200d-f082-4a91-b173-f095cefc3c25","lat":34.91116300,"long":134.82279100,"status":"not_yet","name":"古角宏貴様宅北側ガードレール","address":"西横田町","city":"加西市","number":"63"}, 
 {"id":"0240194d-5d76-4a4d-b0ea-2fa8005a2b6f","lat":34.53958690,"long":134.92081570,"status":"not_yet","name":"飯田建設横ガードレール","address":"浅野南","city":"淡路市","number":"148"}, 
 {"id":"0244a1a8-7019-4a50-9268-61ed680813f6","lat":34.91939530,"long":134.91365810,"status":"done","name":"高岡3班構造改善センター","address":"高岡1980番地4","city":"加東市","number":"106"}, 
 {"id":"0245c847-d131-46b9-8ec0-49089d4a4233","lat":34.80982080,"long":134.97551410,"status":"not_yet","name":"平田公民館道路側植込","address":"平田","city":"三木市","number":"154"}, 
 {"id":"0247bc28-daa8-46d1-9df9-194378872dec","lat":34.73129420,"long":135.32968100,"status":"done","name":"香櫨園第２コーポラス西向い夙川公園内","address":"川東町 5番","city":"西宮市","number":"33"}, 
 {"id":"02490d68-6f86-4829-a2d3-d0150f7491ac","lat":34.72633360,"long":135.26229650,"status":"done","name":"水道局用地東側金網","address":"東灘区西岡本4丁目17番","city":"神戸市","number":"126"}, 
 {"id":"024bdf10-4a75-4b59-85ed-78cfc1aefcc5","lat":34.69091890,"long":135.13709960,"status":"done","name":"「市営大日丘第2住宅集会所」前ガードレール","address":"長田区大日丘町2丁目2番","city":"神戸市","number":"20"}, 
 {"id":"024d8a6b-3b09-475a-b99d-fd3854e85a97","lat":34.71903640,"long":135.22508990,"status":"done","name":"上岡橋北側欄干","address":"灘区篠原本町5丁目6番","city":"神戸市","number":"114"}, 
 {"id":"024fbc06-7039-493a-8f42-95aa175e0438","lat":34.71847940,"long":135.22135620,"status":"done","name":"五毛天神東交差点東・南側ガードパイプ(北向)","address":"灘区国玉通2丁目2番","city":"神戸市","number":"121"}, 
 {"id":"0250494f-667b-46d5-957c-e16c9a351ff6","lat":34.69265210,"long":134.98347710,"status":"done","name":"バス停平野八幡神社前付近","address":"西区平野町慶明183番地の1","city":"神戸市","number":"157"}, 
 {"id":"02532e92-9549-4a7f-bd26-51bfbfcd3fa8","lat":34.94801940,"long":134.55725520,"status":"not_yet","name":"上笹会館フェンス","address":"新宮町上笹3区","city":"たつの市","number":"28"}, 
 {"id":"0265761a-3cce-4523-83c2-5eec48dc80d5","lat":35.43440200,"long":134.59490000,"status":"not_yet","name":"masked","address":"村岡区宿44","city":"香美町","number":"179"}, 
 {"id":"026b78c1-43ee-4cd0-b9cb-c99363950325","lat":34.91571520,"long":135.03273280,"status":"done","name":"旧米田小学校","address":"上久米1693番地","city":"加東市","number":"56"}, 
 {"id":"026c304e-8a7c-4401-b994-4f46b275c497","lat":34.81005190,"long":134.63927020,"status":"not_yet","name":"(株)きんでん姫路支店 電力情報通信部南側","address":"飾磨区鎌倉町43","city":"姫路市","number":"467"}, 
 {"id":"027a105f-4bc0-46da-b7c4-466a5c65f70f","lat":34.83644100,"long":135.38886030,"status":"done","name":"ふじガ丘2-1付近　ガードレール","address":"宝塚市ふじガ丘3","city":"宝塚市","number":"49-01"}, 
 {"id":"02801069-59e3-4466-824e-bce6e91064e0","lat":34.64939000,"long":134.98673840,"status":"done","name":"大明石町カイツカ公園（南側フェンス）","address":"大明石町2丁目5","city":"明石市","number":"114"}, 
 {"id":"0281a463-ee70-40c1-9b54-a0fbb109830d","lat":35.34885190,"long":134.74986490,"status":"not_yet","name":"masked","address":"大坪495","city":"養父市","number":"84"}, 
 {"id":"028faadd-d8e1-4610-810d-987bab14f7ec","lat":34.71960530,"long":135.22333280,"status":"done","name":"上野中学校北東金網","address":"灘区国玉通1丁目1番","city":"神戸市","number":"117"}, 
 {"id":"029bee9c-3fbf-478c-984b-0bfc1b7efc20","lat":34.81157530,"long":135.33738620,"status":"done","name":"グリーンエクセル宝塚西側駐車場フェンス","address":"宝塚市栄町3-1","city":"宝塚市","number":"06-04"}, 
 {"id":"02a60ef1-8c1b-40fc-854b-440cfdfcb5f1","lat":34.72602870,"long":134.93769670,"status":"not_yet","name":"上講市民公園付近","address":"西区岩岡町野中875番地の1","city":"神戸市","number":"347"}, 
 {"id":"02b70e59-2f8d-4a95-8e28-9c9c237974c6","lat":34.73807440,"long":134.85248320,"status":"done","name":"大溝川公園東側フェンス","address":"平岡町一色西2丁目145","city":"加古川市","number":"219"}, 
 {"id":"02ba85b3-0e66-4fc4-b0ae-14d676ea2237","lat":34.75743670,"long":134.38652550,"status":"done","name":"大町もみじ公園東面","address":"大町もみじ公園東面","city":"赤穂市","number":"149"}, 
 {"id":"02be1d19-c7be-4de0-9436-3cae5dcbcbea","lat":35.23572910,"long":134.79275770,"status":"not_yet","name":"旧㈱大師堂前","address":"新井１区","city":"朝来市","number":"124"}, 
 {"id":"02c01ed5-dfc8-4a9f-87a0-d5d7b20a1065","lat":34.44105400,"long":134.89038840,"status":"done","name":"津名ゴルフセンター入り口ガードパイプ","address":"大谷鮎原神代線","city":"淡路市","number":"29"}, 
 {"id":"02c6f366-1530-4e8e-acce-ea3e3e431121","lat":35.64231870,"long":134.83669710,"status":"error_wrong_place","name":"masked","address":"masked","city":"豊岡市","number":"144"}, 
 {"id":"02cd07f7-1341-4c98-8fa7-0aede0d92428","lat":34.65976720,"long":135.04227560,"status":"not_yet","name":"多聞台ショッピングセンター南C-6号棟前鉄柵","address":"垂水区多聞台2丁目11番","city":"神戸市","number":"154"}, 
 {"id":"02d66679-9504-4d45-8bde-a9741cd986cb","lat":null,"long":null,"status":"not_yet","name":"大和第9公園（南側）金網","address":"大和東5丁目73","city":"加西市","number":"289"}, 
 {"id":"02d6901a-6b4b-4d42-a34c-b39dff77ac90","lat":34.73012840,"long":135.25814630,"status":"done","name":"白鶴美術館新館西側側沿いガードレール","address":"東灘区住吉山手3丁目9番25号","city":"神戸市","number":"195"}, 
 {"id":"02dd4d9d-8d79-4212-b5b2-9ccbbd571945","lat":34.73726350,"long":134.86575020,"status":"done","name":"二俣プール西側ガードパイプ","address":"平岡町二俣(99-0405 里道)","city":"加古川市","number":"177"}, 
 {"id":"02de99b2-1f8b-4291-9991-c9a67ed087ad","lat":34.68179140,"long":135.05828060,"status":"done","name":"学園駅前橋付近","address":"西区学園西町1丁目14番地","city":"神戸市","number":"80"}, 
 {"id":"02e12df2-6bad-40d8-aba9-748447763db9","lat":34.80530660,"long":135.36595770,"status":"done","name":"市立病院駐車場南側植え込み","address":"宝塚市小浜4-5","city":"宝塚市","number":"01-02"}, 
 {"id":"02e14419-8a5c-4c33-b486-0194ac523e4b","lat":35.20806930,"long":135.13643010,"status":"done","name":"市島支所南交差点　転落防止柵","address":"市島和知線","city":"丹波市","number":"管理番号307市島30"}, 
 {"id":"02e7aa77-b46b-4139-912d-bf0ac254c43e","lat":35.04533790,"long":135.29469340,"status":"not_yet","name":"masked","address":"曽地中","city":"丹波篠山市","number":"15-3"}, 
 {"id":"02e7d684-1624-4e39-b329-681ddb33f26b","lat":35.09611230,"long":135.18337780,"status":"done","name":"市立西紀運動公園温水プール駐車場進入口","address":"西谷","city":"丹波篠山市","number":"32-4"}, 
 {"id":"02eb2e1e-f7ac-4390-9744-00956d8a2f0b","lat":34.71620850,"long":135.30862660,"status":"done","name":"潮見南公園(東側)","address":"潮見町26番","city":"芦屋市","number":"142"}, 
 {"id":"02ebd2b0-30b6-4fe7-a522-a8976c4f6151","lat":34.76045060,"long":134.94167870,"status":"not_yet","name":"マザービレッジファーマーズ前","address":"野寺 55-14","city":"稲美町","number":"78"}, 
 {"id":"02efc15a-18fb-43da-9f50-ec81b7bf2e5d","lat":34.75558270,"long":135.33307240,"status":"done","name":"神原小学校南側","address":"神原12番","city":"西宮市","number":"136"}, 
 {"id":"02efeeef-71a1-4448-923b-d9bd06df2dd0","lat":34.77500900,"long":134.55725520,"status":"done","name":"黒崎北村入口東側ガードパイプ","address":"御津町黒崎","city":"たつの市","number":"237"}, 
 {"id":"02f0e964-02ec-44c5-acb9-b32935881250","lat":34.85766700,"long":135.42083060,"status":"done","name":"masked","address":"masked","city":"川西市","number":"167"}, 
 {"id":"02f3082f-e242-4fce-8856-fc292a20ad11","lat":34.92179290,"long":135.16282580,"status":"not_yet","name":"masked","address":"masked","city":"三田市","number":"94"}, 
 {"id":"02f3c826-153c-4780-b1d2-bc57499f937b","lat":34.68661480,"long":135.18140290,"status":"done","name":"ハナクマモータープール前ガードレール","address":"中央区北長狭通6丁目2番","city":"神戸市","number":"165"}, 
 {"id":"02fc5f35-3571-4a0d-8a69-cd9a9dae644e","lat":34.87392790,"long":134.91172400,"status":"not_yet","name":"昭和町公園の東側フェンス 昭和団地の西側道向","address":"三和町121の1","city":"小野市","number":"11-76"}, 
 {"id":"03005139-4f8e-4d93-bfe9-546180f5a0a5","lat":34.69890810,"long":134.93919190,"status":"not_yet","name":"大窪ケヤキ公園(西側)","address":"大久保町大窪2620-247","city":"明石市","number":"328"}, 
 {"id":"030530dc-c535-44cc-9f26-4b5b5a08d042","lat":34.66711820,"long":134.94598240,"status":"done","name":"藤江3号公園(東側)","address":"藤が丘1丁目31","city":"明石市","number":"259"}, 
 {"id":"030571cf-9fdf-4107-94be-b4b0ddb0749c","lat":34.78570600,"long":134.59719800,"status":"not_yet","name":"第一クリーニング 北西の公園","address":"網干区大江島119ー2","city":"姫路市","number":"563"}, 
 {"id":"030f958e-bedc-4935-9a7f-3838b9aa4e28","lat":null,"long":null,"status":"not_yet","name":"萩原台第5公園鉄柵","address":"萩原台西3丁目268番地","city":"加西市","number":"57"}, 
 {"id":"031b1c04-087a-4f46-b79d-7cde6b6847d7","lat":34.67021100,"long":135.10795270,"status":"done","name":"横尾中央公園南鉄柵","address":"須磨区横尾7丁目3番地","city":"神戸市","number":"154"}, 
 {"id":"032706a9-da47-4a74-a40d-ec27abd1f9f3","lat":34.75149740,"long":135.40765390,"status":"done","name":"塚口西第１公園　北側","address":"南塚口町8-32塚口西第1公園 北側","city":"尼崎市","number":"262"}, 
 {"id":"0329d30e-dc30-4786-b6f5-5510ad7c1d47","lat":35.16041960,"long":135.11285680,"status":"done","name":"県道春日栗柄線歩道　転落防止柵（春日中学校前）","address":"春日栗柄線","city":"丹波市","number":"管理番号173春日14"}, 
 {"id":"032be0b1-de69-4f09-a4de-cba348c596d1","lat":34.89185700,"long":134.71826200,"status":"done","name":"姫ヶ丘東入口　ガードフェンス","address":"香寺町須加院2番地567　地先","city":"姫路市","number":"788"}, 
 {"id":"032c6733-e08a-4b6d-94f1-17d1a4c0a788","lat":35.64796600,"long":134.76403080,"status":"not_yet","name":"小守神社","address":"竹野町松本443-1小守神社","city":"豊岡市","number":"229"}, 
 {"id":"03343ce5-a48c-464f-b63c-2e6e960ead12","lat":35.05786960,"long":134.44413940,"status":"not_yet","name":"山根正宗集会所前 市道法面","address":"山崎町土万1422-1","city":"宍粟市","number":"119"}, 
 {"id":"0338933a-a160-46e2-8352-1852dd61c9a8","lat":34.92132200,"long":134.90073200,"status":"not_yet","name":"県道高岡北条線ゴミターミナル東側ガードパイプ","address":"別府東町","city":"加西市","number":"140"}, 
 {"id":"0344de8f-7c02-497a-bf2c-ab2745d78fe2","lat":34.72403460,"long":135.31659370,"status":"done","name":"阪急バス芦屋浜営業所バス停付近植込","address":"新浜町1-3","city":"芦屋市","number":"122"}, 
 {"id":"0344f883-c1d2-42c6-ba54-75147beff746","lat":34.89189460,"long":135.40799210,"status":"done","name":"市立東谷小学校(西側)ブロック塀","address":"見野2丁目30番1号市立東谷小学校(西側)ブロック塀","city":"川西市","number":"268"}, 
 {"id":"034531a5-81ed-45c0-bfd2-d40feffa611a","lat":35.03244680,"long":135.16875090,"status":"done","name":"矢代新公民館向い畑地","address":"矢代新","city":"丹波篠山市","number":"46-7"}, 
 {"id":"0346bb96-fd31-4449-97b2-bcadb98357c1","lat":34.78531830,"long":135.38217500,"status":"done","name":"池尻北公園","address":"池尻4丁目","city":"伊丹市","number":"220"}, 
 {"id":"03508196-18e7-4580-b4a3-aa194185cd4e","lat":34.69187130,"long":135.16631970,"status":"done","name":"温泉橋北フェンス","address":"兵庫区上三条町9番9号","city":"神戸市","number":"19"}, 
 {"id":"0351cfc5-4787-4ae6-b06d-f443d3b27ba2","lat":34.89693600,"long":134.80890900,"status":"not_yet","name":"グラウンドフェンス","address":"東剣坂町","city":"加西市","number":"60"}, 
 {"id":"035634a8-967d-47cf-8d75-2b86ce150fd9","lat":35.17116740,"long":135.03730640,"status":"done","name":"氷上文化センター　植栽地","address":"氷上町西中","city":"丹波市","number":"管理番号38氷上3"}, 
 {"id":"0357540c-469f-490b-81f2-47da51a360e5","lat":34.82670100,"long":134.93630730,"status":"not_yet","name":"市場町公民館の西側フェンス","address":"市場町320の2","city":"小野市","number":"16-106"}, 
 {"id":"036cfd95-a0a5-4949-b910-ca3fe7d05158","lat":34.82583540,"long":135.41107340,"status":"error_wrong_place","name":"栄南団地南東鉄柵（5号棟横）","address":"栄町27番栄南団地南東鉄柵(5号棟横)","city":"川西市","number":"12"}, 
 {"id":"036e519e-eb7c-41c1-a4fa-cb721ea038dd","lat":34.81334260,"long":135.09369650,"status":"not_yet","name":"西口橋北側欄干","address":"北区淡河町淡河2番地の8東","city":"神戸市","number":"407"}, 
 {"id":"0372ac1a-5b46-451b-b2ea-a7a24023e145","lat":34.78690314,"long":134.81295450,"status":"done","name":"宝殿駅北公園の南側(植栽)","address":"高砂市神爪1丁目10","city":"高砂市","number":"20-2"}, 
 {"id":"03737994-80f2-4fdf-95c7-9054ef89413c","lat":34.87000780,"long":134.36425720,"status":"not_yet","name":"東町総合センター駐車場","address":"上郡1190","city":"上郡町","number":"6"}, 
 {"id":"0373aae9-1e65-451d-8e98-dcdb692c00de","lat":35.38488300,"long":134.70329240,"status":"not_yet","name":"masked","address":"masked","city":"養父市","number":"186"}, 
 {"id":"0379d5d3-8b7d-40a6-9b65-1d803d6cb275","lat":34.69191230,"long":134.94634710,"status":"not_yet","name":"山手小学校(正門フェンス)","address":"大久保町大窪上槌山1600","city":"明石市","number":"350"}, 
 {"id":"037cb42a-3660-48f5-93f0-d432a43014ba","lat":34.89568970,"long":134.74617900,"status":"done","name":"姫路甲丘アーバンコンフォート西","address":"豊富町甲丘三丁目1693−16","city":"姫路市","number":"344"}, 
 {"id":"037cdc59-3afc-4044-b131-2fb9fad57c2f","lat":35.35147120,"long":134.87750570,"status":"done","name":"masked","address":"野村","city":"朝来市","number":"158"}, 
 {"id":"03820d9c-a06c-427e-8757-b8c31d9c06ff","lat":35.60894390,"long":134.47830120,"status":"not_yet","name":"旧七釜公会堂跡　空地","address":"七釜","city":"新温泉町","number":"53"}, 
 {"id":"0383ad48-70dd-4dea-96e0-d2c6d18faba3","lat":34.67299090,"long":135.14586910,"status":"done","name":"「第1宮川橋」東詰北側の柵","address":"長田区宮川町5丁目1番","city":"神戸市","number":"69"}, 
 {"id":"0399996d-169f-4b6e-89b8-0b22b7cbbcce","lat":34.86819820,"long":135.40002630,"status":"done","name":"移瀬第1公園金網","address":"緑台7丁目5番地の33移瀬第1公園金網","city":"川西市","number":"201"}, 
 {"id":"039c404b-29d4-4eb0-80af-f09777846f54","lat":34.91916480,"long":134.55254750,"status":"not_yet","name":"八木たばこ店前市道ガードパイプ","address":"新宮町北新町","city":"たつの市","number":"32"}, 
 {"id":"039f0d90-f677-4f85-81f9-711ea3faa708","lat":35.06581260,"long":135.28882800,"status":"done","name":"上宿公民館前","address":"上宿","city":"丹波篠山市","number":"13-8"}, 
 {"id":"03a10243-1829-4da7-aba3-a702f8ae85a5","lat":34.89644000,"long":134.82560800,"status":"not_yet","name":"北条鉄道(株)長駅南側フェンス","address":"西長町","city":"加西市","number":"70"}, 
 {"id":"03a586e0-d6ff-490c-89e2-1e17a5110b35","lat":35.40234310,"long":134.57154100,"status":"not_yet","name":"中大谷公民館前","address":"村岡区中大谷78","city":"香美町","number":"201"}, 
 {"id":"03b153b7-3117-4d17-8ec3-3b1c2987926e","lat":35.03413600,"long":134.42315950,"status":"not_yet","name":"漆野公民館前","address":"漆野85","city":"佐用町","number":"114"}, 
 {"id":"03b46305-e716-4a9a-937a-b577d642de08","lat":34.47452400,"long":134.84506220,"status":"not_yet","name":"浜北コミュニティ住宅横","address":"郡家","city":"淡路市","number":"193"}, 
 {"id":"03be3f78-3800-43f2-87f0-43f1917bbe2f","lat":34.76060780,"long":134.86998050,"status":"not_yet","name":"野口北小学校正門南側フェンス","address":"野口町北野1110","city":"加古川市","number":"138"}, 
 {"id":"03c085f8-44fb-4b6c-877f-a6403f64871a","lat":34.84333980,"long":134.93577350,"status":"not_yet","name":"電鉄小野駅を市道102号線沿いに東へ100ｍ　賀内刻印の道向の空地","address":"神明町205の1","city":"小野市","number":"2-12"}, 
 {"id":"03c6c516-86a6-4ef5-9cfe-05604fec5edd","lat":34.72615990,"long":135.34090900,"status":"done","name":"浜戎公園東側中央","address":"東町２丁目 6番","city":"西宮市","number":"23"}, 
 {"id":"03cfa58e-faa8-461e-858c-e1818e9400c3","lat":34.93930700,"long":135.11778870,"status":"done","name":"大川瀬　岩尾住吉橋線ガードレール","address":"大川瀬 岩尾住吉橋線ガ-ドレ-ル","city":"三田市","number":"43"}, 
 {"id":"03d8e404-c278-4b6f-866d-932d63e760e2","lat":34.73097200,"long":135.35236900,"status":"done","name":"阪神今津駅北側ロータリー北側","address":"今津曙町 1番","city":"西宮市","number":"190"}, 
 {"id":"03e46ca4-1aa3-4568-b5ca-79cef243d986","lat":34.98984680,"long":134.52429120,"status":"not_yet","name":"masked","address":"山崎町金谷189","city":"宍粟市","number":"46"}, 
 {"id":"03efab2d-7db9-4109-98d5-9ff15e80a2cf","lat":34.27242700,"long":134.75725350,"status":"not_yet","name":"鎮守神社敷地内","address":"神代国衙918","city":"南あわじ市","number":"3-53"}, 
 {"id":"03f0d322-3ee4-45e6-b0b8-d189f24691f3","lat":35.44303120,"long":134.53558770,"status":"not_yet","name":"実山町民バス停 ガードレール","address":"小代区実山301番地先","city":"香美町","number":"219"}, 
 {"id":"03f4b7eb-0801-4392-9e6e-b2e63ad62117","lat":35.07228660,"long":134.78943650,"status":"not_yet","name":"masked","address":"山田","city":"神河町","number":"21"}, 
 {"id":"03f96c2d-ad7a-4abb-af58-f1be714b4b25","lat":34.92346000,"long":134.85251000,"status":"not_yet","name":"玉丘三叉路信号南側ガードパイプ","address":"玉丘町","city":"加西市","number":"151"}, 
 {"id":"03fa4221-f2dc-4975-ada6-21f8c4d4da23","lat":34.73383310,"long":135.36437710,"status":"done","name":"上甲子園中学校北側","address":"上甲子園4丁目 9番11号","city":"西宮市","number":"306"}, 
 {"id":"03fb06dd-484e-45f2-9daf-dd67796c5917","lat":34.78861470,"long":135.01340730,"status":"not_yet","name":"番手池北側金柵","address":"志染町西自由が丘２丁目(吉田)","city":"三木市","number":"237"}, 
 {"id":"03fe1e2f-a67d-4375-a519-de033bb822ff","lat":35.19912860,"long":135.10328080,"status":"done","name":"与戸ふれあい広場　フェンス","address":"市島町与戸","city":"丹波市","number":"管理番号329市島52"}, 
 {"id":"04019d97-2ac6-46b1-9976-3d195e264fd7","lat":35.41614280,"long":134.78234730,"status":"done","name":"八鹿駅前踏切上の宝谷橋横ガードパイプ","address":"八鹿町八鹿15-8","city":"養父市","number":"20"}, 
 {"id":"0402eebb-9e24-4f0d-97cb-02fe49844ce0","lat":34.34711690,"long":134.87730650,"status":"done","name":"なのはなこども園南側フェンス","address":"下加茂一丁目６番６５号","city":"洲本市","number":"56"}, 
 {"id":"040315dc-46ea-4fe7-abb0-81261ee9453b","lat":34.70012500,"long":135.19582870,"status":"done","name":"二宮交番前ガードレール","address":"中央区二宮町3丁目12番1号","city":"神戸市","number":"99"}, 
 {"id":"04056665-b99e-4a7e-9ccc-7e5063a5088f","lat":34.81672640,"long":135.33848710,"status":"done","name":"桜ガ丘第1公園西側フェンス","address":"宝塚市桜ガ丘5","city":"宝塚市","number":"31-02"}, 
 {"id":"04070725-a950-412c-abf6-e7854deffeaa","lat":34.64376570,"long":135.10882900,"status":"done","name":"潮見台南公園金網","address":"須磨区潮見台町2丁目2番","city":"神戸市","number":"20"}, 
 {"id":"0407ae37-91cb-45d3-8f18-9c9a5cb928c5","lat":35.34489830,"long":134.84664610,"status":"done","name":"和田山農産駐車場ガードパイプ（寺谷区入り口付近）","address":"寺谷","city":"朝来市","number":"96"}, 
 {"id":"04120532-4a5a-4f45-881f-1b41d55a7de2","lat":34.63070150,"long":135.07159980,"status":"done","name":"山陽電鉄滝の茶屋駅下鉄柵","address":"垂水区城が山1丁目1番","city":"神戸市","number":"29"}, 
 {"id":"0412fc5a-f43e-4e2f-b217-c9cfb0e85407","lat":34.71619380,"long":135.42641760,"status":"done","name":"髭茶屋バス停 南側","address":"西昆陽3-1 地先髭茶屋バス停 南側","city":"尼崎市","number":"401"}, 
 {"id":"0412ff20-b26b-4de0-ad5b-b9335490cf54","lat":34.70639100,"long":135.22574880,"status":"done","name":"阪神西灘駅東歩道転落防止柵","address":"灘区船寺通4丁目3番","city":"神戸市","number":"81"}, 
 {"id":"04170e31-2530-47fa-9a8b-3288089a3ff6","lat":35.34433640,"long":134.89310190,"status":"done","name":"久田和区公民館前フェンス","address":"久田和","city":"朝来市","number":"72"}, 
 {"id":"0418280e-2771-4d93-a57f-46a652b59410","lat":34.65606390,"long":135.00613660,"status":"done","name":"市道(サークルK北側鉄柵)","address":"荷山町2724地先","city":"明石市","number":"48"}, 
 {"id":"0419466f-123d-497a-afa3-50634c6bb383","lat":34.70588370,"long":135.20810780,"status":"done","name":"西谷公園東側鉄柵","address":"中央区宮本通5丁目2番","city":"神戸市","number":"30"}, 
 {"id":"041a05d2-bbc5-4070-a4c2-5e113522a159","lat":35.46660050,"long":134.76834890,"status":"done","name":"岩中地蔵大菩薩フェンス","address":"日高町岩中280-1岩中地蔵大菩薩フェンス","city":"豊岡市","number":"273"}, 
 {"id":"04200513-6c72-4af4-8281-8b412fbda49e","lat":34.80511289,"long":134.78811690,"status":"not_yet","name":"やまゆり児童公園の南側（ﾌｪﾝｽ）","address":"高砂市阿弥陀町長尾389－1","city":"高砂市","number":"22-4"}, 
 {"id":"04270cfd-716f-4683-b7d9-70f0d5ae646a","lat":34.68250830,"long":135.10138080,"status":"done","name":"花谷公園東植込み柵","address":"須磨区東落合2丁目6番3号","city":"神戸市","number":"234"}, 
 {"id":"044211d3-3515-4164-933d-7bf78f1a7ab4","lat":35.06232880,"long":135.21264550,"status":"done","name":"柳本ホーム工事資材置場西側空き地","address":"谷山","city":"丹波篠山市","number":"43-6"}, 
 {"id":"044ece56-7226-4b38-aa0f-e51fc725a317","lat":35.46429360,"long":134.93023320,"status":"not_yet","name":"市営住宅矢根団地法面","address":"但東町矢根1248-2市営住宅矢根団地法面","city":"豊岡市","number":"437"}, 
 {"id":"044f97a3-1ae3-4f95-8ce7-4f6d4da49c66","lat":34.65395930,"long":135.01238710,"status":"done","name":"市道(入江方南向側ガードレール)","address":"東朝霧丘20","city":"明石市","number":"31"}, 
 {"id":"0453293c-828c-466f-94f0-174ba92fb4cb","lat":34.43349330,"long":134.90580810,"status":"done","name":"国道旧花博記念協会事務所前ガードパイプ","address":"国道28号","city":"淡路市","number":"23"}, 
 {"id":"045c335f-1da1-4ee2-bc71-1c3005db14c6","lat":34.78334170,"long":135.38789680,"status":"done","name":"金井重要工業㈱駐車場 東側金網","address":"奥畑3丁目1番地","city":"伊丹市","number":"200"}, 
 {"id":"04606599-8e92-4e51-899f-2571b4a2ec2b","lat":35.26704470,"long":134.96699520,"status":"done","name":"市道水座明号線　ガードレール（稲土公民館横）","address":"青垣町稲土","city":"丹波市","number":"管理番号146青垣36"}, 
 {"id":"0460f693-5859-4cc3-a568-e5ae90942718","lat":34.79422540,"long":134.95218200,"status":"not_yet","name":"別所中学校県道進入路南側金柵","address":"別所町西這田","city":"三木市","number":"125"}, 
 {"id":"0461783f-ba45-45de-a33d-a05030d6af70","lat":null,"long":null,"status":"not_yet","name":"阪急バス西睦野バス停西向鉄柵","address":"西睦野字霜下4の1","city":"加西市","number":"305"}, 
 {"id":"0461a38a-2704-42c2-99d1-acf50ee71e95","lat":34.91935300,"long":134.63319400,"status":"done","name":"別車口バス停 ガードレール","address":"夢前町菅生澗444番地2 地先","city":"姫路市","number":"744"}, 
 {"id":"0474fdf6-f8e5-4d83-afd4-1731b309aebf","lat":34.33027810,"long":134.75329010,"status":"not_yet","name":"北方消防団屯所近く ガードレール","address":"松帆北方237付近","city":"南あわじ市","number":"2-12"}, 
 {"id":"047ce694-a738-44dd-ae89-a754fac9c46f","lat":34.75449150,"long":135.40140970,"status":"done","name":"富松公園入口 北側","address":"富松町1-23富松公園入口 北側","city":"尼崎市","number":"343"}, 
 {"id":"047cf9cb-3223-4dfb-ba17-3f766e069b16","lat":34.77780900,"long":134.76336700,"status":"done","name":"大塩稲荷公園北側","address":"大塩町936","city":"姫路市","number":"624"}, 
 {"id":"04810cff-f474-4b2d-ba80-3d8ce2a709d6","lat":34.29973870,"long":134.74757410,"status":"not_yet","name":"市道志知纏貫線沿空き地（松本ゲートボール場）","address":"志知松本388付近","city":"南あわじ市","number":"3-57"}, 
 {"id":"04850490-e565-4c06-8436-734e5a85d95a","lat":34.72572350,"long":135.30661540,"status":"done","name":"佐藤ハイツ西側歩道植込","address":"浜芦屋町1-24地先","city":"芦屋市","number":"113"}, 
 {"id":"04894e49-9ea1-4476-84af-bf3936cc43e5","lat":34.72773450,"long":134.90312780,"status":"not_yet","name":"masked","address":"六分一1178-829","city":"稲美町","number":"121"}, 
 {"id":"048b9f73-f78a-449d-9d3e-48af0919757d","lat":34.73519800,"long":135.42917750,"status":"done","name":"潮江北住宅 西側","address":"潮江1-35-1潮江北住宅 西側","city":"尼崎市","number":"110"}, 
 {"id":"049065e2-b86b-4325-815f-18f4b06fdbea","lat":34.87363490,"long":134.35622740,"status":"not_yet","name":"大杉野公民館広場内","address":"大曹699","city":"上郡町","number":"51"}, 
 {"id":"0494f0dd-773c-4565-b74e-9dbebc8914e1","lat":35.54211830,"long":134.81883810,"status":"done","name":"御陵橋西側川沿いフェンス","address":"山王町1-33付近御陵橋西側川沿いフェンス","city":"豊岡市","number":"6"}, 
 {"id":"049eb70c-30b6-43d7-8e93-7e850042c7af","lat":34.77071050,"long":134.84833840,"status":"not_yet","name":"氷丘小学校東側フェンス","address":"加古川町中津886-1","city":"加古川市","number":"60"}, 
 {"id":"04a2b408-93f5-4ea7-a001-934a0d39ddc9","lat":34.78966500,"long":135.21410940,"status":"done","name":"唐櫃小学校正門横南側金網","address":"北区唐櫃台2丁目39番","city":"神戸市","number":"244"}, 
 {"id":"04a2f96b-6f7f-4a08-94a9-1e8abe36db80","lat":35.62332510,"long":134.44645480,"status":"not_yet","name":"川中町ゴミステーション前　ガードレール","address":"川中町","city":"新温泉町","number":"74"}, 
 {"id":"04a5a3ae-4871-4b66-8c23-bad857d43a56","lat":34.77933490,"long":135.43856500,"status":"done","name":"スカイパーク臨時駐車場 北側金網","address":"森本8丁目43番地先","city":"伊丹市","number":"275"}, 
 {"id":"04a7d6dd-d579-4c9b-ab42-1f1f8b087803","lat":34.35648030,"long":134.80062400,"status":"not_yet","name":"masked","address":"五色町上堺１１５１番地１","city":"洲本市","number":"196"}, 
 {"id":"04a8c6f9-0b27-4051-aa5a-7ab01508abf4","lat":34.66364820,"long":134.95889120,"status":"done","name":"JR西明石南和坂アパート(北1棟南側フェンス)","address":"西明石南町3丁目2","city":"明石市","number":"190"}, 
 {"id":"04aacd69-96e0-44d0-ade3-09a032bc9f06","lat":34.89086500,"long":134.60691800,"status":"not_yet","name":"masked","address":"林田町下伊勢","city":"姫路市","number":"317"}, 
 {"id":"04aae1eb-4527-43f1-9965-dbfe5ec55d96","lat":34.29126420,"long":134.94553760,"status":"done","name":"由良支所裏側市有地東側方面","address":"由良二丁目６番１９号付近","city":"洲本市","number":"111"}, 
 {"id":"04b218f5-ca8b-46f9-8eec-0b93b0eb8995","lat":34.59620440,"long":135.01185180,"status":"done","name":"長浜集会所前県道ガードレール","address":"松帆福良江井岩屋線","city":"淡路市","number":"96"}, 
 {"id":"04b6265f-baf8-4c51-8971-0439d835656e","lat":34.90974240,"long":135.16319390,"status":"done","name":"学園４丁目　関西学院前バス停鉄柵","address":"学園4丁目 関西学院前バス停鉄柵","city":"三田市","number":"230"}, 
 {"id":"04b652ff-585a-4243-80ab-1805d6c99b64","lat":34.89153700,"long":135.36813400,"status":"not_yet","name":"広根公会堂前","address":"広根字久保東","city":"猪名川町","number":"4_29"}, 
 {"id":"04ba1a62-2558-4708-8b7f-51676377079f","lat":34.74986870,"long":134.90362890,"status":"done","name":"友遊倶楽部前フェンス","address":"中村 495-83","city":"稲美町","number":"129"}, 
 {"id":"04c19de6-5538-450f-b0c7-a92b0549d42d","lat":34.30741900,"long":134.79652400,"status":"done","name":"中八木バス停留所ガードパイプ（千博屋前）","address":"八木養宜中184-1付近","city":"南あわじ市","number":"3-23"}, 
 {"id":"04c78654-26cf-419f-94c7-61aa337ec131","lat":34.71219950,"long":135.21670790,"status":"done","name":"天城橋東詰南側青谷川公園転落防止柵","address":"灘区福住通8丁目3番","city":"神戸市","number":"132"}, 
 {"id":"04c85c41-89df-42c4-a10d-bcefd23f7d86","lat":34.83019860,"long":135.41739550,"status":"error_wrong_place","name":"鳶台自治会館西側入口 (位置情報が見つかりませんでした)","address":"鳶台1丁目5番地の4鳶台自治会館西側入口 (位置情報が見つかりませんでした)","city":"川西市","number":"61"}, 
 {"id":"04c973f7-7c6d-4683-9db4-c150e2208018","lat":34.39937410,"long":134.79086760,"status":"not_yet","name":"健康村入口","address":"五色町都志大日７０３番地４","city":"洲本市","number":"161"}, 
 {"id":"04cd13e5-68ce-44fa-9572-376913d61bc7","lat":34.65534770,"long":135.12760110,"status":"done","name":"山陽電鉄東須磨駅北側地下道鉄柵","address":"須磨区若木町1丁目1番","city":"神戸市","number":"106"}, 
 {"id":"04d1446e-5729-4b7f-9ea5-2c2b3eeb79cf","lat":35.15156190,"long":134.60961990,"status":"not_yet","name":"西深公民館前","address":"一宮町西深335","city":"宍粟市","number":"157"}, 
 {"id":"04d52456-a75b-43c8-9655-566ab4776ad3","lat":null,"long":null,"status":"not_yet","name":"新じょうご池緑地(西側)鉄柵","address":"丸山台2丁目10の38地先","city":"加西市","number":"320"}, 
 {"id":"04d72251-d76a-49e5-94dc-bf928703ba41","lat":34.67572060,"long":135.01990970,"status":"done","name":"いかわ幼稚園前付近","address":"西区伊川谷町別府1342番地","city":"神戸市","number":"90"}, 
 {"id":"04db2e94-04b1-4013-a166-7050e4eba08f","lat":34.68347330,"long":135.05814980,"status":"done","name":"キャンパススクエア付近","address":"西区学園西町1丁目4番地","city":"神戸市","number":"79"}, 
 {"id":"04db4df4-a737-41f1-a397-a51fd5f945b8","lat":34.78338290,"long":135.01049240,"status":"not_yet","name":"神鉄志染駅ロータリー西側","address":"志染町西自由が丘１丁目","city":"三木市","number":"229"}, 
 {"id":"04dcde6d-ae9d-4522-a105-850b3a6425fd","lat":34.97735240,"long":134.48894690,"status":"not_yet","name":"沢ノ口猪ノ谷橋北ゴミステーション南横","address":"新宮町牧","city":"たつの市","number":"3"}, 
 {"id":"04ded695-d297-4e40-859f-e6983308161d","lat":34.74035450,"long":134.85781900,"status":"done","name":"加古川東郵便局西側県道八幡・別府線フェンス","address":"平岡町一色650地先","city":"加古川市","number":"215"}, 
 {"id":"04e1a9dd-9a2a-4d8d-b547-078214e26dde","lat":34.94995160,"long":134.30236200,"status":"not_yet","name":"大下幸 氏所有地","address":"上秋里２４４－１","city":"佐用町","number":"94"}, 
 {"id":"04e254f6-f617-4042-a538-1975c510e7fa","lat":34.29777100,"long":134.76899700,"status":"not_yet","name":"野辺宮神社敷地内","address":"市十一ケ所398-1","city":"南あわじ市","number":"3-34"}, 
 {"id":"04ed9851-2f30-4749-ba5b-8645cf1f33ba","lat":34.72717670,"long":135.28039780,"status":"done","name":"五反田公園南側鉄柵","address":"東灘区本山中町4丁目19番","city":"神戸市","number":"291"}, 
 {"id":"04ee86e9-6e6b-4c32-bd45-a3387af8a68a","lat":34.75198610,"long":134.91482600,"status":"not_yet","name":"masked","address":"国岡2682-1","city":"稲美町","number":"113"}, 
 {"id":"04efecff-70c6-4f15-a1c9-684b99872684","lat":34.71949100,"long":134.87597860,"status":"done","name":"大西東公園西側植込み","address":"西野添3丁目122","city":"播磨町","number":"14"}, 
 {"id":"04f1bc14-edbf-4f67-b1a3-16934b92dd52","lat":34.79313660,"long":134.90840240,"status":"done","name":"農村環境改善センター南側フェンス","address":"八幡町船町","city":"加古川市","number":"332"}, 
 {"id":"04f201f5-1028-462e-b4b3-d03aa0df20e0","lat":35.06918930,"long":135.27709950,"status":"done","name":"市営日置団地前フェンス","address":"日置","city":"丹波篠山市","number":"13-7"}, 
 {"id":"04f71bec-573b-4826-aaae-f53b6d8a4164","lat":34.78337900,"long":134.70190400,"status":"done","name":"濱端公園東側","address":"白浜町字佐崎北一丁目142","city":"姫路市","number":"657"}, 
 {"id":"04fa8d54-b02c-4e8e-a75c-9d921e01e634","lat":35.40953640,"long":134.77075770,"status":"not_yet","name":"栃尾 宝椿ブロック塀（八鹿町今井）","address":"八鹿町今井548","city":"養父市","number":"46"}, 
 {"id":"04fc2a0c-1afa-45c6-a08b-a0a173480fd9","lat":34.78433620,"long":135.40369310,"status":"done","name":"天神社西側 溝鉄柵","address":"千僧2丁目151番地","city":"伊丹市","number":"284"}, 
 {"id":"0504192e-9af7-4544-8b71-c09b0e7cad32","lat":35.02227440,"long":134.75138410,"status":"not_yet","name":"masked","address":"鶴居365先","city":"市川町","number":"99"}, 
 {"id":"0508aef9-d61c-4148-b1cd-e9d20bb8acf1","lat":34.84544110,"long":134.69188680,"status":"done","name":"八代郵便局南側駐車場","address":"八代本町二丁目11","city":"姫路市","number":"124"}, 
 {"id":"050cee71-7ec9-4ac7-8b29-0fc041c3f974","lat":35.01561370,"long":135.02331960,"status":"not_yet","name":"masked","address":"上比延町","city":"西脇市","number":"115"}, 
 {"id":"0527bfd5-2f47-4861-86cd-77ad628f17f6","lat":35.09471710,"long":135.25130720,"status":"done","name":"みたけ会館駐車場県道側植栽","address":"瀬利","city":"丹波篠山市","number":"8-3"}, 
 {"id":"05293310-68f7-487e-a89e-602a5eecf424","lat":35.07925940,"long":135.25130720,"status":"done","name":"masked","address":"和田","city":"丹波篠山市","number":"7-2"}, 
 {"id":"052dc489-1312-43e9-8746-33e92025f27f","lat":34.86511190,"long":135.11671670,"status":"not_yet","name":"吉川総合公園体育館前","address":"吉川町西奥","city":"三木市","number":"297"}, 
 {"id":"0530b51f-18f1-4f37-88f4-8ed62e1b2975","lat":35.05711600,"long":134.48081910,"status":"not_yet","name":"masked","address":"山崎町塩田527-2","city":"宍粟市","number":"40"}, 
 {"id":"0531952a-7dcd-45c7-a54e-0e639ee0467d","lat":34.72914060,"long":135.25819350,"status":"done","name":"山田公園東側鉄柵","address":"東灘区住吉山手3丁目9番","city":"神戸市","number":"194"}, 
 {"id":"0538747c-526f-4be0-b4f9-59b249df804e","lat":34.68839340,"long":135.18322700,"status":"done","name":"花隈公園南ガードレール","address":"中央区花隈町1番","city":"神戸市","number":"162"}, 
 {"id":"0539ae0d-c317-4ac3-95cc-167e3c3ff580","lat":35.16443840,"long":135.09346780,"status":"done","name":"平松公民館前　ガードレール","address":"春日町平松","city":"丹波市","number":"管理番号170春日11"}, 
 {"id":"053ab7b9-d1c1-42d5-9143-0bdee894bf9a","lat":35.32514000,"long":134.85557900,"status":"not_yet","name":"朝来医療センター前","address":"法興寺","city":"朝来市","number":"68"}, 
 {"id":"053e7288-8a96-4fce-9c1d-34d73f801c3c","lat":null,"long":null,"status":"not_yet","name":"勝福寺前バス停南約30m防火水槽金網","address":"火打2丁目8番","city":"加西市","number":"66"}, 
 {"id":"054782a3-779e-4ab8-a755-730904b6d6bb","lat":34.69807980,"long":134.93328890,"status":"not_yet","name":"西脇シラカシ公園(東側金網)","address":"大久保町緑が丘1","city":"明石市","number":"333"}, 
 {"id":"054cd8ce-8244-44d3-972e-da678719e542","lat":34.65184700,"long":135.01792590,"status":"done","name":"市道(神戸友の会南(階段の北側))","address":"朝霧東町1丁目13","city":"明石市","number":"27"}, 
 {"id":"054db271-5842-4960-acb9-fc7ea7cdec02","lat":34.38974800,"long":134.88645900,"status":"not_yet","name":"安乎郵便局東約100m付近雑種地","address":"安乎町平安浦４８５番地","city":"洲本市","number":"90"}, 
 {"id":"054f53a0-4a74-4fb2-919e-fb6a5cfe4b50","lat":34.75531790,"long":135.33744130,"status":"done","name":"六軒市民館向かい川沿いフェンス","address":"大社町12番26号","city":"西宮市","number":"142"}, 
 {"id":"05584796-3895-478f-acc2-a413468c5b2b","lat":35.37973800,"long":134.77559070,"status":"error_wrong_place","name":"広谷地域福祉コミュニティセンター向いガードレール","address":"広谷889-1","city":"養父市","number":"101"}, 
 {"id":"055cb5f6-af59-4151-9404-16eee83ee974","lat":35.29479380,"long":134.66693390,"status":"done","name":"和田公民館","address":"大屋町和田297-4","city":"養父市","number":"158"}, 
 {"id":"055e8718-cc6c-45bf-a498-ceb108db39bd","lat":34.79138687,"long":134.77502660,"status":"done","name":"さつき会館の南側","address":"高砂市時光寺町25－10","city":"高砂市","number":"25-3"}, 
 {"id":"055f3d73-16b3-4a56-97e0-c0118f10fb00","lat":34.34999050,"long":134.89098020,"status":"not_yet","name":"洲本市子育て支援センター入口右側フェンス","address":"炬口二丁目９番１１号","city":"洲本市","number":"33"}, 
 {"id":"055f6260-c120-4388-a37e-f1da0c677ca6","lat":34.67522610,"long":135.15617550,"status":"done","name":"市立神港橘高等学校西側 歩道植栽","address":"兵庫区会下山町3丁目16番","city":"神戸市","number":"107"}, 
 {"id":"05697803-42d0-4c46-adb5-49547afc6ac6","lat":35.62521460,"long":134.81068800,"status":"done","name":"城崎文芸館","address":"城崎町湯島357-1城崎文芸館","city":"豊岡市","number":"172"}, 
 {"id":"056a6761-5b10-4a99-999b-dab2bfc5ff71","lat":34.67962150,"long":134.96392240,"status":"not_yet","name":"鳥羽新池公園(東側)","address":"沢野2丁目8","city":"明石市","number":"230"}, 
 {"id":"0579256c-4461-4550-9c5e-7be7473248da","lat":34.80374870,"long":134.72890110,"status":"not_yet","name":"見野公民館前ポンプ場西","address":"四郷町見野747","city":"姫路市","number":"210"}, 
 {"id":"057d347f-5752-4a77-9fea-2a54664d18c1","lat":34.71565390,"long":134.95323970,"status":"not_yet","name":"masked","address":"西区岩岡町岩岡820番地","city":"神戸市","number":"342"}, 
 {"id":"057e2d97-e5e9-4a1c-ae35-d2913afd6c55","lat":34.73923350,"long":134.83300400,"status":"not_yet","name":"浜の宮変電所東側交差点月極駐車場フェンス","address":"尾上町口里400-1","city":"加古川市","number":"270"}, 
 {"id":"057faca3-d7f7-4a52-8d73-013fc66a47d9","lat":34.80864040,"long":135.39363610,"status":"done","name":"県営宝塚山本野里団地集会所横水路フェンス","address":"宝塚市山本野里1-6","city":"宝塚市","number":"61-01"}, 
 {"id":"05863bfb-ee2c-4838-89b4-d06ffe93d1a2","lat":35.10059520,"long":135.16465620,"status":"done","name":"東木之部農事センター横植栽","address":"東木之部","city":"丹波篠山市","number":"32-10"}, 
 {"id":"058d5de3-4a0f-4e7d-bbb3-9c0876aea29d","lat":34.67687620,"long":135.16597240,"status":"done","name":"兵庫警察署東側 ガードレール","address":"兵庫区下沢通2丁目1番","city":"神戸市","number":"122"}, 
 {"id":"058dab32-98c7-4e73-a0af-a7435beb2254","lat":35.58028620,"long":134.82151740,"status":"not_yet","name":"稲葉純子氏所有空き地県道沿い","address":"下鶴井1609-4稲葉純子氏所有空き地県道沿い","city":"豊岡市","number":"69"}, 
 {"id":"0590560c-01be-44da-bb70-136e07a1aa52","lat":35.33978320,"long":134.85234830,"status":"done","name":"和田山郵便局向かい側「ふれあいの庭」敷地右隅","address":"東谷","city":"朝来市","number":"91"}, 
 {"id":"059ae752-818f-442e-8f22-62ab4fba6d67","lat":35.47361550,"long":134.74699120,"status":"done","name":"夏栗区集会所前市道路肩","address":"日高町夏栗553地先夏栗区集会所前市道路肩","city":"豊岡市","number":"289"}, 
 {"id":"059b0d41-77f5-4ff1-b994-9392ad376b29","lat":34.78819490,"long":134.72290050,"status":"done","name":"西濱畑公園 北側フェンス","address":"東山1323","city":"姫路市","number":"643"}, 
 {"id":"059ea045-7609-4561-a0fd-3434aa165d6e","lat":34.66131260,"long":134.95127980,"status":"done","name":"藤江出ノ上公園(北側鉄柵)","address":"藤江1191","city":"明石市","number":"243"}, 
 {"id":"05a0302a-547e-47ea-83ac-e868063c6ccd","lat":34.74555850,"long":135.43565080,"status":"done","name":"向田公園 南側","address":"若王寺3-5向田公園 南側","city":"尼崎市","number":"486"}, 
 {"id":"05addc50-eba2-4a5b-bfac-aadf58547b83","lat":34.34748100,"long":134.87677000,"status":"not_yet","name":"元潮レンタカー南県道池ガードレール","address":"下加茂２９番地３","city":"洲本市","number":"54"}, 
 {"id":"05b02cb0-dca1-42b8-b3b7-4c0afae33b1d","lat":34.79072200,"long":134.69284100,"status":"not_yet","name":"妻鹿町自治会館東側","address":"飾磨区妻鹿887-1","city":"姫路市","number":"407"}, 
 {"id":"05b2e878-8b14-4a87-bd45-ee76792f052d","lat":35.21090180,"long":134.66486360,"status":"not_yet","name":"井内自治会消防器具庫東側（NTT鉄塔の道向い）","address":"一宮町井内167","city":"宍粟市","number":"174"}, 
 {"id":"05b6ad3e-97c0-4ee4-b6cb-799714b5575f","lat":34.34190000,"long":134.90269500,"status":"done","name":"大浜公園内海月側スロープ付近","address":"海岸通一丁目2番（大浜公園内）","city":"洲本市","number":"10"}, 
 {"id":"05b723e3-cd50-4454-a94b-b3a808ad2d42","lat":34.95802640,"long":134.75396680,"status":"not_yet","name":"駐車場（馬田公民館南西・個人所有）（★）","address":"馬田130-1, 131-1, 132-2","city":"福崎町","number":"53"}, 
 {"id":"05b9bf82-ac44-4050-81f4-89f13f875c94","lat":34.65359360,"long":135.02033110,"status":"done","name":"市道(西部中継ポンプ場北東側鉄柵)","address":"松が丘3丁目35","city":"明石市","number":"7"}, 
 {"id":"05bc5294-46ff-42a7-9de6-41efe202aa5d","lat":35.33978320,"long":134.85234830,"status":"done","name":"ﾌﾚｯｼｭﾊﾞｻﾞｰﾙ和田山宮田店駐車場ガードパイプ","address":"高瀬","city":"朝来市","number":"105"}, 
 {"id":"05bd2a4a-e7a7-4688-8637-d69db3e1ad24","lat":34.89000020,"long":135.22550700,"status":"not_yet","name":"masked","address":"masked","city":"三田市","number":"90"}, 
 {"id":"05c2e301-b17d-4b14-8ce3-8aaf7a42cc85","lat":35.10581370,"long":134.96740540,"status":"done","name":"道路公園前　ガードレール","address":"山南町山本","city":"丹波市","number":"管理番号265山南47"}, 
 {"id":"05c4449b-7fc8-4df3-8bd4-348d97fb9a8b","lat":34.84949680,"long":135.41245010,"status":"done","name":"阪急バス鶯台バス停南金網(鶯の森第3公園)","address":"錦松台2番阪急バス鶯台バス停南金網(鶯の森第3公園)","city":"川西市","number":"185"}, 
 {"id":"05c70523-34a8-47b5-a8cf-ef87b84d7777","lat":34.76279700,"long":135.37740040,"status":"done","name":"阪神バス㈱武庫営業所　南向東北側","address":"武庫豊町3丁目10阪神バス(株)武庫営業所 南向東北側","city":"尼崎市","number":"388"}, 
 {"id":"05c9d908-d037-4334-b23d-92f0b3edc875","lat":34.49455840,"long":134.86043410,"status":"not_yet","name":"旧尾崎小学校裏門道路肩フェンス","address":"尾崎","city":"淡路市","number":"183"}, 
 {"id":"05cf3126-dc67-42a5-ae9a-2076757202d7","lat":35.37722490,"long":134.64534260,"status":"not_yet","name":"JAたじま旧関宮支店跡地","address":"関宮365","city":"養父市","number":"172"}, 
 {"id":"05d03770-76c3-470d-9bd3-6591e0944da4","lat":34.72851950,"long":135.24596000,"status":"done","name":"第一御影山手公園東側鉄柵","address":"東灘区御影山手4丁目19番","city":"神戸市","number":"253"}, 
 {"id":"05ddfa49-ec12-4085-ba81-1d5dc8a13fc8","lat":null,"long":null,"status":"not_yet","name":"市心身障害者総合福祉センター(西側)金網","address":"小戸3丁目12番10号","city":"加西市","number":"32"}, 
 {"id":"05e3548d-ed65-4dec-95c0-7497a9e2fc00","lat":34.91363430,"long":134.97761750,"status":"done","name":"masked","address":"山国1641番地","city":"加東市","number":"16"}, 
 {"id":"05e98840-ebc8-4406-97b2-0f0a3b426241","lat":34.79483300,"long":134.39873040,"status":"not_yet","name":"真殿門前第1児童遊園西面","address":"真殿門前第1児童遊園西面","city":"赤穂市","number":"110"}, 
 {"id":"05ec9bf1-ecd6-4884-bd4a-6f3be234c108","lat":34.94430940,"long":135.12898920,"status":"done","name":"つつじが丘北２丁目　中央公園入口右側鉄柵","address":"つつじが丘北2丁目 中央公園入口右側鉄柵","city":"三田市","number":"209"}, 
 {"id":"05f22ffd-cf37-4439-993d-1d930b648569","lat":34.88291240,"long":135.01089320,"status":"done","name":"池田町公民館の東側フェンス","address":"池田町162の4","city":"小野市","number":"25-165"}, 
 {"id":"05f80b5a-58d1-44ec-9f0f-10632f5da768","lat":35.47269900,"long":134.59197910,"status":"done","name":"masked","address":"村岡区村岡340-1（新町）","city":"香美町","number":"147"}, 
 {"id":"05f8e549-7056-49ca-9b02-f0260f370067","lat":35.00130300,"long":134.90953600,"status":"done","name":"レストラン瀬戸前歩道フェンス","address":"下野間661-94","city":"多可町","number":"85"}, 
 {"id":"0603181f-9fff-44c8-9b58-eda845ab4529","lat":34.83551280,"long":135.08676040,"status":"not_yet","name":"小二谷バス停附近","address":"細川町瑞穂（小二谷）","city":"三木市","number":"28"}, 
 {"id":"060553b6-2a5f-485d-a4c7-e331a83fb2ca","lat":35.02559100,"long":135.00233140,"status":"not_yet","name":"県道黒田庄多井田線歩道柵（宮池東側）","address":"黒田庄町岡","city":"西脇市","number":"160"}, 
 {"id":"060cc297-ee6b-4393-85c6-4699e31cd3b4","lat":35.37997500,"long":134.88669800,"status":"done","name":"内海区公民館向かい側広場","address":"内海","city":"朝来市","number":"80"}, 
 {"id":"060ce86f-6a52-4c66-83f6-239c5332a988","lat":34.87668600,"long":134.77540600,"status":"not_yet","name":"セントラルパーク岩屋ゲート東","address":"豊富町神谷(岩屋)","city":"姫路市","number":"334"}, 
 {"id":"061206cc-6981-4ab6-ab91-2515fa17bdbc","lat":35.12124000,"long":134.91900000,"status":"done","name":"杉原部消防庫南町有地","address":"杉原42-1","city":"多可町","number":"50"}, 
 {"id":"0615df15-d1a8-4629-812a-7c67d4451e13","lat":35.24409870,"long":134.79721000,"status":"not_yet","name":"㈱公正建設前交差点","address":"森","city":"朝来市","number":"231"}, 
 {"id":"06278151-efc8-428b-889a-41b762b60ae3","lat":34.79759890,"long":135.35089180,"status":"done","name":"阪急逆瀬川駅北東側入口ガードフェンス","address":"宝塚市逆瀬川1-2","city":"宝塚市","number":"46-13"}, 
 {"id":"06386247-1cf2-4fbf-9b45-22501d146c6a","lat":34.64885570,"long":135.14250730,"status":"done","name":"「ペルソネ野田」西側ガードレール","address":"長田区野田町7丁目3番","city":"神戸市","number":"216"}, 
 {"id":"06388721-97c4-4aaa-a289-6f14a54a1eef","lat":35.16827280,"long":134.81280400,"status":"not_yet","name":"新町市営住宅3号棟前","address":"生野新町","city":"朝来市","number":"16"}, 
 {"id":"063a4a3b-f9f2-4c8a-83b5-28cd0fcaa8e1","lat":34.68316740,"long":135.15866110,"status":"done","name":"夢野公園東側 鉄柵","address":"兵庫区湊川町7丁目6番","city":"神戸市","number":"59"}, 
 {"id":"063fa65b-d23a-43e6-93a8-2f67decefd81","lat":34.81408830,"long":134.65688910,"status":"not_yet","name":"玉手グラウンド北側フェンス","address":"玉手四丁目","city":"姫路市","number":"400"}, 
 {"id":"064046c7-29e7-417a-bd9a-2cb5bfdfed53","lat":34.88156240,"long":134.96851570,"status":"not_yet","name":"らんらんバス停「住吉町上」 奥の芝地 マウスの石像の隣","address":"住吉町411","city":"小野市","number":"28-186"}, 
 {"id":"06426f51-6956-4277-90a8-b4a7fe425ee8","lat":34.75827550,"long":134.94824540,"status":"not_yet","name":"野谷団地集会所横","address":"野寺 39-1","city":"稲美町","number":"80"}, 
 {"id":"0647866e-7ca5-4a61-b458-6d0181d69712","lat":34.27954810,"long":134.78414310,"status":"not_yet","name":"南あわじ市温水プール駐車場","address":"八木寺内1216付近","city":"南あわじ市","number":"3-15"}, 
 {"id":"0647e73c-6eb2-4fe2-9e67-130248adfe84","lat":34.67226660,"long":135.07378890,"status":"done","name":"神和台東公園西側鉄柵","address":"垂水区神和台2丁目1番","city":"神戸市","number":"48"}, 
 {"id":"0659a6ec-fe7b-4597-a9ca-abf687d79dfd","lat":null,"long":null,"status":"not_yet","name":"北陵集会所金網","address":"美山台3丁目3番地の3","city":"加西市","number":"316"}, 
 {"id":"065f024f-e262-416d-a919-55ecc0b771eb","lat":34.84075940,"long":134.92959270,"status":"not_yet","name":"県営小野垂井団地（神明団地）の南　神明分譲1号公園の北側フェンス","address":"神明町417の5","city":"小野市","number":"2-13"}, 
 {"id":"0666cd81-a6ba-40a0-876a-da7bf0f572e2","lat":34.42620940,"long":134.85780210,"status":"not_yet","name":"大町保育園前ガードパイプ","address":"大町上","city":"淡路市","number":"80"}, 
 {"id":"0667fbb3-7bd4-4b2f-a5e7-fa0ecd8c3258","lat":34.91859150,"long":134.97344360,"status":"done","name":"市道屋度西古瀬線 東古瀬消防器具庫向かい柵","address":"東古瀬216番地先","city":"加東市","number":"38"}, 
 {"id":"066a7720-c01a-4d62-8c2f-4cffd019ab1b","lat":34.85250410,"long":134.81077010,"status":"not_yet","name":"masked","address":"志方町畑425-2地先（0002志方東中央線）","city":"加古川市","number":"481"}, 
 {"id":"066d844a-3797-40c2-8f5f-779663008723","lat":34.77006110,"long":135.41290590,"status":"done","name":"南小学校 南側金網","address":"御願塚2丁目6番1号","city":"伊丹市","number":"86"}, 
 {"id":"066f1e9b-fb68-48c1-9125-a1ce3d115c5c","lat":35.33978320,"long":134.85234830,"status":"not_yet","name":"masked","address":"柊木","city":"朝来市","number":"219"}, 
 {"id":"06701f0e-c07d-4421-b433-8953355c5485","lat":34.83305310,"long":135.38033850,"status":"done","name":"山手台東3丁目7付近ガードパイプ","address":"宝塚市山手台東3-7","city":"宝塚市","number":"58-17"}, 
 {"id":"067155ba-2c4f-43c9-9592-c600ef062ae6","lat":34.71384160,"long":135.37055150,"status":"done","name":"照寂公園","address":"鳴尾町２丁目 25番","city":"西宮市","number":"252"}, 
 {"id":"0681548d-c44a-414b-ac34-456b9a774130","lat":35.19938100,"long":135.12369690,"status":"done","name":"masked","address":"国道175号","city":"丹波市","number":"管理番号322市島45"}, 
 {"id":"068dc881-f637-4247-9d75-8851d1b2059e","lat":34.76944950,"long":134.84443920,"status":"done","name":"氷丘南小学校南側ガードパイプ","address":"加古川町溝之口246","city":"加古川市","number":"73"}, 
 {"id":"069154f9-3ddc-4f4e-987c-2f41872b1e9c","lat":34.89049700,"long":134.83697700,"status":"not_yet","name":"グラウンドフェンス","address":"両月町","city":"加西市","number":"92"}, 
 {"id":"06939952-5af3-41cd-ae81-b644fcd3e6c7","lat":34.20785500,"long":134.73623700,"status":"done","name":"masked","address":"阿万東町1005付近","city":"南あわじ市","number":"4-66"}, 
 {"id":"0695b221-8ee3-40db-bef4-4ef5dc59ec4e","lat":34.68473070,"long":135.15369010,"status":"done","name":"旧夢野中学校 石垣東側","address":"兵庫区熊野町5丁目15番","city":"神戸市","number":"47"}, 
 {"id":"06a08f87-e232-4492-8c64-c8e11e195b6d","lat":34.78394300,"long":134.91151400,"status":"not_yet","name":"八幡派出所南側の畑地","address":"八幡町下村895-1","city":"加古川市","number":"323"}, 
 {"id":"06a42dad-03c0-44f5-bb0c-0685caf99aa9","lat":35.24250400,"long":134.82033560,"status":"not_yet","name":"牧野配水池登り口","address":"多々良木","city":"朝来市","number":"108"}, 
 {"id":"06a93c53-c42b-41b6-abc4-d3acced9a3bc","lat":34.79188770,"long":135.37191020,"status":"done","name":"小松原児童遊園地 東側金網","address":"西野6丁目234番地","city":"伊丹市","number":"321"}, 
 {"id":"06a9cd09-0f7d-4ffd-afd3-eb2b13530f89","lat":34.67084140,"long":134.96406820,"status":"not_yet","name":"西明石北町公園(東側フェンス)","address":"西明石北町2丁目7","city":"明石市","number":"217"}, 
 {"id":"06ab6f69-5eed-47ce-98cd-c32a164b91be","lat":35.04373770,"long":134.98484360,"status":"done","name":"西澤グラウンドフェンス（西澤八幡神社向い）","address":"黒田庄町西澤","city":"西脇市","number":"163"}, 
 {"id":"06abf5cd-3734-4b2d-8b5c-68996159b39a","lat":34.80813450,"long":135.39584040,"status":"done","name":"山本野里2丁目公園植え込み","address":"宝塚市山本野里2-7","city":"宝塚市","number":"61-03"}, 
 {"id":"06aed2b7-11f2-4efc-915b-a533e189ec77","lat":35.03505170,"long":134.37597970,"status":"not_yet","name":"（旧）長谷保育園前路肩","address":"口長谷５０６−１地先","city":"佐用町","number":"22"}, 
 {"id":"06b7192b-5531-42df-b092-7ed1354a6118","lat":35.54785480,"long":134.48372990,"status":"not_yet","name":"井上かをる氏所有　倉庫前","address":"湯","city":"新温泉町","number":"91"}, 
 {"id":"06b89041-152d-4ab7-ac94-d87912e444c2","lat":34.76403180,"long":135.39965230,"status":"done","name":"野間口バス停南 水路鉄柵","address":"車塚1丁目32番地1地先","city":"伊丹市","number":"330"}, 
 {"id":"06bafb2b-0173-41fb-9752-a00943f6020b","lat":35.20100310,"long":134.42984410,"status":"not_yet","name":"西河内公民館横 畑","address":"千種町西河内488","city":"宍粟市","number":"239"}, 
 {"id":"06c63904-323c-4088-8e42-aa1bcbc41597","lat":35.25877930,"long":134.54077610,"status":"not_yet","name":"資源物回収ステーション波18-1北側空き地","address":"波賀町鹿伏59-1","city":"宍粟市","number":"209"}, 
 {"id":"06c90c8d-2385-4f00-b1be-476ae4dd0294","lat":34.71969770,"long":135.27607340,"status":"done","name":"ファミール本山 東側ガードレール","address":"東灘区魚崎北町5丁目2番","city":"神戸市","number":"149"}, 
 {"id":"06cfcfc6-bdec-491d-a196-92812a7aeda8","lat":34.78007640,"long":134.57908150,"status":"done","name":"サニーハイツ駐車場北側フェンス","address":"網干区浜田56－1","city":"姫路市","number":"583"}, 
 {"id":"06d99d9a-900f-48b5-be6d-6ac994ed8dc3","lat":34.69075790,"long":134.98216600,"status":"done","name":"唐土橋付近","address":"西区玉津町田中594番地先","city":"神戸市","number":"2"}, 
 {"id":"06dd953c-9614-4937-8cad-0b3bcb753468","lat":34.95227970,"long":134.75162450,"status":"not_yet","name":"県道三木宍粟線 ガードパイプ（喫茶まさと北側）","address":"福崎新399-4","city":"福崎町","number":"51"}, 
 {"id":"06e44af4-131e-4ebd-ae02-bc56e0f3da68","lat":34.76460660,"long":134.95632230,"status":"not_yet","name":"masked","address":"草谷 1046-13","city":"稲美町","number":"74"}, 
 {"id":"06e8dec8-7f54-41e3-9233-f33f169ae860","lat":null,"long":null,"status":"not_yet","name":"さつき公園(東側)金網","address":"向陽台3丁目1番地の26","city":"加西市","number":"202"}, 
 {"id":"06ff0971-26c9-4203-aa6a-ee22774d65d5","lat":34.50933670,"long":134.98028190,"status":"not_yet","name":"本昌寺付近（上）公園フェンス","address":"下田","city":"淡路市","number":"271"}, 
 {"id":"0705f4bc-940a-44ee-9e75-9416bd99b0d9","lat":35.41750260,"long":134.59476810,"status":"not_yet","name":"森脇消防器具庫横","address":"村岡区森脇302-1","city":"香美町","number":"191"}, 
 {"id":"0708b662-5063-4e2c-b520-59bad2b4f022","lat":34.73837930,"long":135.35353460,"status":"done","name":"大塚橋北側ガードレール","address":"津門大塚町 6番","city":"西宮市","number":"10"}, 
 {"id":"0709530d-a47d-4da3-8076-91b513ec8e30","lat":34.68234000,"long":135.16670350,"status":"done","name":"荒田公園南側 鉄柵","address":"兵庫区荒田町2丁目19番","city":"神戸市","number":"80"}, 
 {"id":"070a9359-392d-46c4-97d7-01e57177fc85","lat":35.01042690,"long":134.53488930,"status":"not_yet","name":"門前1号線 溝沿いガードレール","address":"山崎町門前87-4付近","city":"宍粟市","number":"10"}, 
 {"id":"070d428c-4a32-4b25-9564-12f58413daa6","lat":34.83456690,"long":134.71480900,"status":"done","name":"市川台公園北東面フェンス","address":"市川台三丁目14-50","city":"姫路市","number":"39"}, 
 {"id":"070f5d68-7128-496b-9afb-b65c4d54473d","lat":34.79108180,"long":135.34744160,"status":"done","name":"緑地植え込み","address":"宝塚市千種3-4","city":"宝塚市","number":"47-04"}, 
 {"id":"07176edb-b984-4b4d-993c-cfb4081d326d","lat":34.72359170,"long":135.30481290,"status":"done","name":"阪急バステニスコート前バス停付近(芦屋公園西側)","address":"浜芦屋町5番","city":"芦屋市","number":"116"}, 
 {"id":"071d0242-f20a-425d-9d43-139e01cce933","lat":35.05316500,"long":134.57521020,"status":"not_yet","name":"エス・ジー・アイ山崎工場 フェンス前花壇","address":"山崎町田井46-1","city":"宍粟市","number":"107"}, 
 {"id":"0727434d-5a3d-4bf5-bc35-6d7e26384eb8","lat":null,"long":null,"status":"not_yet","name":"大和第2公園（南側）金網","address":"大和西1丁目63番地の2","city":"加西市","number":"280"}, 
 {"id":"072aa6a9-09d5-48b8-a171-498512f9f098","lat":35.10408480,"long":135.25482350,"status":"not_yet","name":"masked","address":"奥畑","city":"丹波篠山市","number":"9-3"}, 
 {"id":"072de700-0081-455d-b5a7-76a28562c2e1","lat":34.83067580,"long":134.68891540,"status":"done","name":"城南公園北側","address":"塩町235","city":"姫路市","number":"6"}, 
 {"id":"07307b7f-1bdd-4ef3-9063-88d9bd16376e","lat":34.72750480,"long":135.14413270,"status":"done","name":"北区民センター北側鉄柵","address":"北区鈴蘭台西町1丁目22番1号","city":"神戸市","number":"109"}, 
 {"id":"07349a1a-8dfc-407d-9776-0ac8aaa25653","lat":35.19565450,"long":135.11380350,"status":"done","name":"市営住宅城ケ花団地","address":"市島町酒梨","city":"丹波市","number":"管理番号327市島50"}, 
 {"id":"073fab73-3636-4db2-8293-5ae156f2bebe","lat":35.57249800,"long":134.52100380,"status":"not_yet","name":"masked","address":"熊谷","city":"新温泉町","number":"119"}, 
 {"id":"0740d8a4-9915-4230-a502-cfdc08dd04d3","lat":34.77572770,"long":134.84728450,"status":"done","name":"的場公園南側フェンス","address":"加古川町中津259-83","city":"加古川市","number":"57"}, 
 {"id":"074b3a1a-e9ed-429b-ab23-bbd6d7ee52c3","lat":34.84597830,"long":134.63993110,"status":"done","name":"姫路西消防団青山分団西駐車場","address":"青山五丁目16－1","city":"姫路市","number":"281"}, 
 {"id":"074c66a8-9f78-4a90-bda4-a028cbce90f0","lat":34.64434750,"long":135.10532380,"status":"done","name":"G棟北金網(旗振公園東側)","address":"須磨区一ノ谷町1丁目1番","city":"神戸市","number":"15"}, 
 {"id":"074d14a9-cd88-4388-962b-cddba75e6777","lat":34.77523250,"long":135.34898310,"status":"done","name":"イエズス会フェンス","address":"宝塚市仁川高台2-1","city":"宝塚市","number":"44-06"}, 
 {"id":"07516ea2-8b40-4528-8439-ee2ffbb1e72c","lat":35.43150430,"long":134.72383350,"status":"not_yet","name":"森山イナカーバス停横","address":"日高町森山54-1森山イナカ-バス停横","city":"豊岡市","number":"304"}, 
 {"id":"0756b4a8-1148-409c-a15b-b20d0e06cf71","lat":null,"long":null,"status":"not_yet","name":"水明台第5公園(スポーツ公園)(南側)金網","address":"水明台4丁目8番地の22","city":"加西市","number":"219"}, 
 {"id":"075f7332-aa34-47e1-8dfb-8873d0f885de","lat":34.73236800,"long":134.84336900,"status":"done","name":"わくのくち公園前市道ガードレール","address":"別府町新野辺北町2丁目(06-3803 新野辺北町2丁目3号線)","city":"加古川市","number":"300"}, 
 {"id":"07646329-b19e-4440-b629-9b161e88da7c","lat":34.53020280,"long":134.99151430,"status":"done","name":"県営住宅久留麻団地(3号棟)付近フェンス","address":"一本松砂田線","city":"淡路市","number":"253"}, 
 {"id":"07670170-9cc5-4d6c-9044-9903fa9577fd","lat":34.29931600,"long":134.82122800,"status":"not_yet","name":"masked","address":"中条中筋1122付近","city":"南あわじ市","number":"1-17"}, 
 {"id":"076743e4-9f18-4724-8007-eb6176d58c44","lat":34.77491210,"long":135.01894630,"status":"not_yet","name":"消防署広野分署西側金柵","address":"志染町広野５丁目","city":"三木市","number":"96"}, 
 {"id":"077085a1-47a7-4e43-8909-8171d90086af","lat":35.10733630,"long":134.83623970,"status":"done","name":"masked","address":"越知","city":"神河町","number":"11"}, 
 {"id":"0771e055-0f0f-46c6-b78a-54dd5f13bf42","lat":34.30638590,"long":134.84645610,"status":"not_yet","name":"㈱国益電業社資材置場","address":"前平２１９番地１","city":"洲本市","number":"64"}, 
 {"id":"07726c0b-584e-4064-994e-5088f1e99778","lat":34.82523030,"long":134.56850770,"status":"done","name":"保健福祉会館東側畑","address":"老原102-1","city":"太子町","number":"14"}, 
 {"id":"0775fe74-fde6-40fd-86ed-57fdef655a95","lat":34.74599030,"long":135.38867660,"status":"done","name":"南武庫之荘中学校　西側","address":"南武庫之荘4-11-1南武庫之荘中学校 西側","city":"尼崎市","number":"379"}, 
 {"id":"077f01b1-013a-497b-a742-667324ce68a3","lat":34.65014450,"long":135.14155720,"status":"done","name":"「駒ヶ林小学校」フェンスの北西角","address":"長田区野田町6丁目1番","city":"神戸市","number":"210"}, 
 {"id":"07851d5c-3538-48b4-be16-6b6e08b3132f","lat":34.25941800,"long":134.88833600,"status":"not_yet","name":"相川バス停付近","address":"相川組102番地6","city":"洲本市","number":"71"}, 
 {"id":"078b731f-99b9-4c4c-8b35-f69b0976de77","lat":35.33978320,"long":134.85234830,"status":"done","name":"masked","address":"観音町","city":"朝来市","number":"86"}, 
 {"id":"078ba3a1-6d37-41f5-84d7-ef572bbd93d8","lat":35.27630050,"long":134.81077010,"status":"not_yet","name":"アパート跡地（旧ＪＡ中川支店前）","address":"物部","city":"朝来市","number":"267"}, 
 {"id":"078e7fa4-5fb7-42d8-8694-a1d7128352a2","lat":34.98370930,"long":134.34663820,"status":"not_yet","name":"衣畑千里 区方物置","address":"山脇８０１","city":"佐用町","number":"19"}, 
 {"id":"07918084-e23b-4342-ba6d-210dda2ecc17","lat":35.01290980,"long":134.78384250,"status":"not_yet","name":"法雲寺前交差点ガードレール","address":"小畑2126先","city":"市川町","number":"23"}, 
 {"id":"0792752f-3652-4e6b-b0a6-ad8153645364","lat":34.66073120,"long":135.09889830,"status":"done","name":"奥須磨公園駐車場前鉄柵","address":"須磨区多井畑字柳ヶ谷1番地","city":"神戸市","number":"44"}, 
 {"id":"07927dc4-7c3e-43db-8ee4-9f4897bf5d4d","lat":34.71974670,"long":135.14535750,"status":"not_yet","name":"一本松交差点北側駐輪場金網","address":"北区鈴蘭台南町7丁目2番12号","city":"神戸市","number":"107"}, 
 {"id":"079b9e4c-b0ad-4107-a6a3-5d9ca9eb3395","lat":null,"long":null,"status":"not_yet","name":"大和第2公園（北側）金網","address":"大和西1丁目63番地の2","city":"加西市","number":"279"}, 
 {"id":"079cb115-d70e-414c-a965-e42bbc9a6f9c","lat":34.76361390,"long":135.03790040,"status":"done","name":"富士見が丘北公園付近","address":"西区富士見が丘5丁目13番地","city":"神戸市","number":"294"}, 
 {"id":"079e451b-7f31-4630-9fbe-521a33550690","lat":34.39970180,"long":134.81896280,"status":"done","name":"鮎原郵便局横ガードレール","address":"五色町鮎原南谷５５番地１","city":"洲本市","number":"166"}, 
 {"id":"07a09ce9-b7ea-426b-a088-a90761f0a3b9","lat":34.78374900,"long":134.90109300,"status":"not_yet","name":"市道上西条宗佐線ガードパイプ(宮脇製材所南側)","address":"八幡町上西条1035地先 (0028 上西条宗佐線)","city":"加古川市","number":"324"}, 
 {"id":"07a0c959-9ca4-4c22-a419-5b0739bd1588","lat":34.80570490,"long":135.38667090,"status":"done","name":"市営北野団地 北側金網","address":"北野5丁目44番地","city":"伊丹市","number":"277"}, 
 {"id":"07a563da-fdb7-4b34-9853-22d271780e25","lat":34.69995240,"long":134.94926460,"status":"not_yet","name":"都市機構大久保東第一住宅(高丘1丁目バス停前)","address":"大久保町高丘3丁目1","city":"明石市","number":"309"}, 
 {"id":"07a71201-96a1-4a9a-bad7-11c5908dceeb","lat":34.90301500,"long":134.67138700,"status":"not_yet","name":"ヌーベルバーグ(喫茶店)北側 県道67号東側ガードフェンス","address":"夢前町置本461番地5 付近","city":"姫路市","number":"690"}, 
 {"id":"07a985f5-b50a-40a3-a39f-41a12377a8e3","lat":34.73545990,"long":135.41612430,"status":"done","name":"名月西公園　南側","address":"尾浜町2-2名月西公園 南側","city":"尼崎市","number":"277"}, 
 {"id":"07ba7550-a911-4f65-82c2-f4323b89c6c4","lat":34.67402470,"long":134.97773630,"status":"done","name":"浄泉寺公園付近","address":"西区王塚台6丁目14番地","city":"神戸市","number":"33"}, 
 {"id":"07bd9d6f-de65-4063-a468-010bb424d56e","lat":34.79288318,"long":134.77177000,"status":"done","name":"JR曽根駅北歩道橋下（ﾌｪﾝｽ）","address":"高砂市阿弥陀町阿弥陀2643－1地先","city":"高砂市","number":"27-5"}, 
 {"id":"07bf98f0-bb2a-48f9-8c2b-9a22c9db0fa1","lat":35.40076200,"long":134.76795380,"status":"done","name":"masked","address":"八鹿町八鹿1475-3","city":"養父市","number":"26"}, 
 {"id":"07c2c9e7-6fbd-455a-b4b7-fb152e40cf6a","lat":34.86637780,"long":134.94085800,"status":"not_yet","name":"広渡団地駐車場の西側フェンス","address":"広渡町311の1","city":"小野市","number":"23-151"}, 
 {"id":"07c355bf-a8d8-486d-bc2c-4eb8b67c5fe2","lat":35.47243810,"long":134.72357210,"status":"not_yet","name":"庄境広場","address":"日高町庄境160-2庄境広場","city":"豊岡市","number":"314"}, 
 {"id":"07cd38da-5227-424f-b01f-a676a37ccbe9","lat":34.84636550,"long":134.99650280,"status":"done","name":"大開町公民館の西　大開神社の敷地","address":"大開町54","city":"小野市","number":"4-30"}, 
 {"id":"07d44087-d29a-47f5-9fe2-5c11c62515c4","lat":34.87024440,"long":134.67288710,"status":"done","name":"津田氏所有車庫裏空地","address":"御立北一丁目1","city":"姫路市","number":"94"}, 
 {"id":"07d4ef03-c6b2-4d67-bca1-8d5f24e5f7e7","lat":null,"long":null,"status":"not_yet","name":"masked","address":"東睦野3丁目9番","city":"加西市","number":"301"}, 
 {"id":"07dda8d3-51a5-455c-ac08-3ab9e8691e77","lat":34.75806380,"long":135.37854320,"status":"done","name":"武庫元町緑地内","address":"武庫元町3-13-1 地先武庫元町緑地内","city":"尼崎市","number":"395"}, 
 {"id":"07de15cb-dd85-49ac-853a-dc2c3906ac04","lat":34.79488960,"long":134.81693900,"status":"not_yet","name":"神吉八幡宮大社南側石垣","address":"西神吉町大国382","city":"加古川市","number":"413"}, 
 {"id":"07debb13-e61b-475f-bff3-f57e6894823e","lat":34.66602150,"long":135.15068500,"status":"done","name":"「市営長田北住宅」南東角の金網","address":"長田区北町3丁目4番地","city":"神戸市","number":"119"}, 
 {"id":"07dec675-9096-49a2-a1af-82b7800aaa3b","lat":34.98386290,"long":134.72662160,"status":"not_yet","name":"県道田口福田線 西側ガードレール（田口公民館前）","address":"田口2-1","city":"福崎町","number":"71"}, 
 {"id":"07e68715-b8fd-4d7f-b15d-a67fcf99fed6","lat":34.70055870,"long":135.12080720,"status":"done","name":"市公社ひよどり台団地63号棟南側スロープ鉄柵","address":"北区ひよどり台5丁目7番地","city":"神戸市","number":"164"}, 
 {"id":"07e6b226-317f-4f56-b9d7-fe68bea17f53","lat":34.79980170,"long":135.36014240,"status":"done","name":"市役所正面玄関東側ガードパイプ","address":"宝塚市東洋町1","city":"宝塚市","number":"46-06"}, 
 {"id":"07e73282-105d-4db8-b4f3-15ebeffbab73","lat":34.81468400,"long":135.33437740,"status":"done","name":"生瀬東町公園内","address":"生瀬東町7番","city":"西宮市","number":"479"}, 
 {"id":"07f448c5-5664-4e97-98d2-855536449dfe","lat":35.32420000,"long":134.91000000,"status":"done","name":"塩田区集会所広場ゴミステーション横","address":"塩田","city":"朝来市","number":"212"}, 
 {"id":"07f4630e-c3b7-4bde-89a0-28e9c5294a17","lat":34.92781800,"long":135.34697000,"status":"done","name":"町道万善１号線 \n猪名川町スポーツセンター入口","address":"木津字細ヶ平井","city":"猪名川町","number":"6_39"}, 
 {"id":"07f652e4-c98f-4389-ad54-80b941ffdd12","lat":34.84432780,"long":134.55372450,"status":"not_yet","name":"masked","address":"誉田町上沖","city":"たつの市","number":"148"}, 
 {"id":"07f86a35-3aaa-46f2-accb-1641f35676cc","lat":34.97715550,"long":134.32740960,"status":"not_yet","name":"masked","address":"上月３２３－２地先","city":"佐用町","number":"75"}, 
 {"id":"07fc791b-c4a3-44f4-9779-2d7eead1706d","lat":34.70276070,"long":135.23299740,"status":"done","name":"にしこう会館南向金網","address":"灘区大石南町1丁目2番","city":"神戸市","number":"172"}, 
 {"id":"081071b6-99b1-4aec-b15f-113b28d59d33","lat":35.15005490,"long":134.47951730,"status":"not_yet","name":"市道岩野辺徳久線入口 国道429号線路肩","address":"千種町岩野辺2885-1地先","city":"宍粟市","number":"231"}, 
 {"id":"0811b3d3-053e-4add-8c73-3ea2828194da","lat":34.71107500,"long":135.04140050,"status":"done","name":"西神南三ツ松公園付近","address":"西区井吹台北町5丁目","city":"神戸市","number":"179"}, 
 {"id":"08130e15-87c6-4761-aec9-d5eebbb6d616","lat":34.71949340,"long":135.34855190,"status":"done","name":"真砂中学校東側南端","address":"今津真砂町 1番10号","city":"西宮市","number":"195"}, 
 {"id":"08193046-ffa1-4598-8867-d7b01cfb25d7","lat":34.64058900,"long":135.02579800,"status":"done","name":"西舞子橋(山田川)欄干","address":"垂水区西舞子5丁目1番","city":"神戸市","number":"144"}, 
 {"id":"081c7986-f82b-40b4-bfde-9e52de3b14ca","lat":35.15692200,"long":134.79159300,"status":"not_yet","name":"北真弓変電所前ガードレール","address":"北真弓","city":"朝来市","number":"30"}, 
 {"id":"081d4c75-d470-402b-abd2-6fa13b9dad4b","lat":34.26960260,"long":134.76323460,"status":"not_yet","name":"masked","address":"神代国衙1548-1","city":"南あわじ市","number":"3-52"}, 
 {"id":"0823c20d-088a-47c4-9fc8-2f1c5814c714","lat":34.89132300,"long":134.75209000,"status":"done","name":"NTT西日本兵庫支店仁豊野別館東","address":"豊富町豊富(重国)2288","city":"姫路市","number":"325"}, 
 {"id":"082c2141-40ea-45cb-849c-55a3e336aba9","lat":34.67060590,"long":135.11058170,"status":"done","name":"横尾小学校南東門鉄柵","address":"須磨区横尾5丁目3番地","city":"神戸市","number":"150"}, 
 {"id":"08368829-ce0d-4a07-a397-a0c219384bbf","lat":34.74597062,"long":134.80376920,"status":"not_yet","name":"旧市営堀川駐車場の東側（ﾌｪﾝｽ）","address":"高砂市高砂町材木町1210番地の1","city":"高砂市","number":"1-3"}, 
 {"id":"0839fe87-2bc1-43d6-aefc-8759f06e9857","lat":34.68456440,"long":135.05627880,"status":"done","name":"学園西町北公園付近","address":"西区学園西町2丁目7番地","city":"神戸市","number":"76"}, 
 {"id":"083f3bfe-54b1-45c0-8e08-10480408ba35","lat":34.86698460,"long":135.19479000,"status":"done","name":"菅生公園フェンス","address":"北区上津台3丁目13番","city":"神戸市","number":"376"}, 
 {"id":"08401e41-4d49-41a6-ac4e-83100e84ed59","lat":35.08458040,"long":135.29117410,"status":"not_yet","name":"masked","address":"西本荘","city":"丹波篠山市","number":"18-2"}, 
 {"id":"084590c8-2df6-470b-9fc3-39e0b9a67352","lat":35.07417180,"long":135.21791570,"status":"done","name":"丹波篠山市役所庁舎前駐車場植栽","address":"北新町","city":"丹波篠山市","number":"2-2"}, 
 {"id":"08464163-37cc-4757-ba97-dcb5548754fe","lat":34.87398000,"long":134.85342000,"status":"not_yet","name":"県道小野香寺線順禮橋西側ガードパイプ","address":"東笠原町","city":"加西市","number":"83"}, 
 {"id":"0847d827-c81f-4532-a2b2-8d631fd580c4","lat":34.63609230,"long":135.07247540,"status":"done","name":"市営王居殿第2住宅西側鉄柵","address":"垂水区王居殿2丁目10番","city":"神戸市","number":"26"}, 
 {"id":"08509da5-2169-4daa-9fd5-3dfccd972c67","lat":34.41403650,"long":134.85576830,"status":"done","name":"masked","address":"大谷鮎原神代線","city":"淡路市","number":"78"}, 
 {"id":"0850da41-0a45-4760-8e37-0181b63129bd","lat":34.84459610,"long":135.41139040,"status":"done","name":"萩原台自治会館前鉄柵","address":"萩原台西1丁目88番地萩原台自治会館前鉄柵","city":"川西市","number":"53"}, 
 {"id":"085e3aad-418e-43e4-87d1-67114c1329c5","lat":34.43046170,"long":134.79728470,"status":"not_yet","name":"市道草香都志線と浜出1号線の交差点付近ガードレール","address":"深草","city":"淡路市","number":"235"}, 
 {"id":"0869139c-3a9d-4704-943d-640cd9b97537","lat":34.71380260,"long":135.42791050,"status":"done","name":"大物川緑地　北側（大物派出所前）","address":"東大物町1大物川緑地 北側(大物派出所前)","city":"尼崎市","number":"35"}, 
 {"id":"086f415f-84f9-487e-95f6-6d81de715ffb","lat":34.89717770,"long":134.95091430,"status":"done","name":"沢部コミュニティセンターグラウンド","address":"沢部669番地2","city":"加東市","number":"36"}, 
 {"id":"08732f8f-8986-465d-8f63-32b0031d7597","lat":34.76647960,"long":134.42466260,"status":"not_yet","name":"坂越小学校西面栅","address":"坂越小学校西面栅","city":"赤穂市","number":"84"}, 
 {"id":"08751ca7-3d2d-43f1-92a4-720af58c57a5","lat":34.73075050,"long":135.36072980,"status":"done","name":"春風公園西側転落防止策","address":"甲子園春風町 2番","city":"西宮市","number":"304"}, 
 {"id":"087ffbd6-5019-4e43-9b1c-0bb71a315116","lat":34.64657170,"long":134.99927140,"status":"done","name":"忠度公園(東側フェンス)","address":"天文町2丁目4","city":"明石市","number":"82"}, 
 {"id":"0889d840-7ff6-479c-a2c4-cc2fdb2750ea","lat":34.78538520,"long":135.37512340,"status":"done","name":"西野変電所交差点　南ガードレール","address":"西野4丁目106番地先","city":"伊丹市","number":"208"}, 
 {"id":"088a98eb-a4f1-4669-8034-fc7873fd291a","lat":34.67797900,"long":135.10561590,"status":"done","name":"市バス南落合4丁目バス停東向ガードレール","address":"須磨区南落合4丁目1番","city":"神戸市","number":"247"}, 
 {"id":"088b2ef5-3570-4490-8ecc-421da66d5e26","lat":35.64706820,"long":134.63280100,"status":"done","name":"消防詰所（壁面）","address":"香住区一日市316","city":"香美町","number":"6"}, 
 {"id":"0892ecb6-b40b-4d92-9a1f-e6bfcd901f7f","lat":35.36862500,"long":134.72641850,"status":"not_yet","name":"新津上公会堂","address":"新津351-2","city":"養父市","number":"90"}, 
 {"id":"089a728e-1192-4ef7-9102-b5333f619da2","lat":34.80843810,"long":134.66516370,"status":"not_yet","name":"構西公園北側","address":"飾磨区構三丁目77","city":"姫路市","number":"458"}, 
 {"id":"08a194c9-9f45-4dbb-b3e3-1ae084ca50a1","lat":null,"long":null,"status":"not_yet","name":"旧川西高等学校北グラウンドフェンス","address":"加茂3丁目13番","city":"加西市","number":"105"}, 
 {"id":"08a1aa95-33d9-4638-a013-f5ef85d51c53","lat":34.84753170,"long":135.27086990,"status":"done","name":"名塩北山公園入口西ガードレール","address":"名塩美山9番","city":"西宮市","number":"528"}, 
 {"id":"08a41427-d67c-4790-a8ac-9741dbfbe5cb","lat":34.93550430,"long":134.95821240,"status":"done","name":"北野コミュニティセンターフェンス","address":"北野288番地1","city":"加東市","number":"114"}, 
 {"id":"08af8992-199e-40ad-bb66-976a227a1862","lat":35.62332510,"long":134.44645480,"status":"not_yet","name":"浜坂北小学校フェンス（踏切前）","address":"上六軒","city":"新温泉町","number":"3"}, 
 {"id":"08b201c8-4ee5-4134-8689-1491c1c27aa8","lat":34.97151490,"long":134.97137970,"status":"done","name":"主要地方道西脇三田線歩道柵（野村交番北側）","address":"野村町397","city":"西脇市","number":"62"}, 
 {"id":"08b42fa5-d75a-4234-b499-1b05df88eb3a","lat":34.81134290,"long":134.85873510,"status":"not_yet","name":"西川沿市道ガードレール","address":"平荘町小畑429-4地先(0587 西川左岸線)","city":"加古川市","number":"352"}, 
 {"id":"08b59156-4816-4952-be76-c0f95e3ddfe0","lat":34.80992640,"long":134.47303330,"status":"not_yet","name":"㈱相生米穀","address":"旭五丁目","city":"相生市","number":"19"}, 
 {"id":"08b83e29-8b51-4541-9dc9-b0ee8c5adf30","lat":34.76145380,"long":134.91594300,"status":"not_yet","name":"中新田公会堂前グラウンドフェンス","address":"加古2661","city":"稲美町","number":"59"}, 
 {"id":"08bbb85c-50ae-40b7-a9f3-6869bbd74bb2","lat":34.85134980,"long":135.21737950,"status":"done","name":"東川原公園北側歩道ガードレール　道路側へ向ける","address":"北区八多町中1126番地東","city":"神戸市","number":"356"}, 
 {"id":"08bccf7e-29c0-42af-925f-51c9c14740b9","lat":35.13011990,"long":135.34868950,"status":"not_yet","name":"小倉ふれあいセンター北ゲートボール場","address":"小倉","city":"丹波篠山市","number":"24-5"}, 
 {"id":"08bdc0c5-a9a9-4114-b96c-d0457fa272d8","lat":34.76479710,"long":134.36105860,"status":"not_yet","name":"西部診療所南面柵","address":"西部診療所南面柵","city":"赤穂市","number":"57"}, 
 {"id":"08cdc534-aa3c-4a49-9e31-19aa1e27866a","lat":34.65569240,"long":135.10361240,"status":"error_wrong_place","name":"高倉台小学校北西鉄柵","address":"須磨区高倉台4丁目1番1号","city":"神戸市","number":"35"}, 
 {"id":"08cef739-bb26-44f0-84d4-69e0c8412aa1","lat":34.77838270,"long":135.41788990,"status":"done","name":"西ノ町児童遊園地 西側金網","address":"中央6丁目3番街区","city":"伊丹市","number":"268"}, 
 {"id":"08d063f6-7227-473c-824a-cb5e0fc2c052","lat":34.80768230,"long":134.68506540,"status":"done","name":"堀川町西公園東側","address":"飾磨区上野田三丁目146","city":"姫路市","number":"417"}, 
 {"id":"08d52011-7b5f-42eb-8fd9-fadef311b613","lat":34.65503050,"long":134.97748220,"status":"done","name":"大道公園（東側フェンス）","address":"大道町2丁目9","city":"明石市","number":"138"}, 
 {"id":"08d69aa4-7f5c-4eb4-b22a-b11f26da3689","lat":35.54970470,"long":134.81866200,"status":"done","name":"豊岡総合高等学校南側フェンス","address":"加広町6-68豊岡総合高等学校南側フェンス","city":"豊岡市","number":"31"}, 
 {"id":"08e0428b-cc84-4dc4-90ad-ffe974fed722","lat":34.81509590,"long":135.39635480,"status":"done","name":"口谷西3丁目1　広報板横ガードレール","address":"宝塚市口谷西3-1","city":"宝塚市","number":"20-13"}, 
 {"id":"08ed677c-dcb1-4225-a308-1a2024019e5f","lat":34.73227820,"long":135.40777460,"status":"done","name":"難波の梅小学校　北側（橋公園バス停前）","address":"西難波町6-14-57難波の梅小学校 北側(橋公園バス停前)","city":"尼崎市","number":"65"}, 
 {"id":"08f4194a-d8ee-44de-bfd2-eec4179050aa","lat":34.78747745,"long":134.76702670,"status":"done","name":"牛谷東公園の北側（ﾌｪﾝｽ）","address":"高砂市北浜町牛谷20－15","city":"高砂市","number":"29-5"}, 
 {"id":"08f4f1f9-d461-427a-918e-1839b27273c9","lat":35.30242210,"long":134.91627340,"status":"not_yet","name":"柴区公民館南東のR427沿","address":"柴","city":"朝来市","number":"252"}, 
 {"id":"08f540e5-e0d3-45ea-9372-82dd044afaa9","lat":34.89084850,"long":135.41555770,"status":"done","name":"大和第6公園(東側)金網","address":"大和西3丁目26番地の5大和第6公園(東側)金網","city":"川西市","number":"296"}, 
 {"id":"08fdb608-bdc6-4c46-ba98-9baa742732fc","lat":34.81766720,"long":135.36254850,"status":"done","name":"売布4丁目公園向かい菰池北側ガードレール","address":"宝塚市売布4-2","city":"宝塚市","number":"50-07"}, 
 {"id":"09099246-acd5-4917-87c8-3713890cd8b0","lat":34.62954390,"long":135.05102710,"status":"done","name":"天神川JR高架下西側ガードレール","address":"垂水区五色山1丁目1番","city":"神戸市","number":"106"}, 
 {"id":"090d1f8f-1b12-4743-af0a-a5c0b2b22523","lat":34.72352040,"long":135.39053000,"status":"done","name":"ＪＡ大庄支店　西側","address":"大庄西町3-18-18JA大庄支店 西側","city":"尼崎市","number":"184"}, 
 {"id":"090dc218-f8a2-4c0c-b95a-7336701b052e","lat":35.33978320,"long":134.85234830,"status":"not_yet","name":"猪野々下橋たもとガードパイプ","address":"猪野々","city":"朝来市","number":"25"}, 
 {"id":"091cfc20-92c6-4fca-bba1-ee8242450e19","lat":35.59448640,"long":134.47847530,"status":"not_yet","name":"masked","address":"古市","city":"新温泉町","number":"55"}, 
 {"id":"092af477-846c-4bbf-96b7-7abb17eb1bd8","lat":34.83092740,"long":134.43824040,"status":"not_yet","name":"宮野尾入口付近","address":"若狭野町野々","city":"相生市","number":"93"}, 
 {"id":"092e19fc-3605-440c-9a1f-5e488d33e6fd","lat":34.95801500,"long":134.57792700,"status":"not_yet","name":"masked","address":"安富町狭戸682番地　地先","city":"姫路市","number":"804"}, 
 {"id":"09308aa2-ed24-4b4e-9641-5d4f6fce0103","lat":34.78416990,"long":134.81211850,"status":"done","name":"米田公園東側植込","address":"米田町平津453-1","city":"加古川市","number":"433"}, 
 {"id":"0931fbc8-e49a-4097-b463-3c542dbb3abb","lat":34.84151440,"long":135.41632260,"status":"done","name":"八皇子神社横水路脇ガードレール","address":"萩原2丁目3番八皇子神社横水路脇ガ-ドレ-ル","city":"川西市","number":"47"}, 
 {"id":"0937c27c-e9a5-402e-85ff-a1397892e05c","lat":34.65585630,"long":135.13624410,"status":"done","name":"市営新大池東住宅北東（バス停）鉄柵","address":"須磨区大池町4丁目1番","city":"神戸市","number":"83"}, 
 {"id":"09429ff2-3e3d-4a7d-aaf5-8e1e66ca2bdb","lat":34.69208570,"long":135.17291910,"status":"done","name":"楠谷橋北側防護柵","address":"兵庫区梅元町1番","city":"神戸市","number":"8"}, 
 {"id":"0942f5cb-facd-430f-abe5-922824f4ab94","lat":34.76269500,"long":135.30744900,"status":"done","name":"苦楽園中学校テニスコート東ガードレール","address":"苦楽園三番町 14番","city":"西宮市","number":"101"}, 
 {"id":"0944806f-afe4-482f-885b-42f0f841a1f9","lat":35.40672230,"long":134.55490140,"status":"not_yet","name":"masked","address":"村岡区大笹59","city":"香美町","number":"202"}, 
 {"id":"09454581-082e-4fd4-8c8b-0da24c3479a4","lat":34.31207700,"long":134.79130600,"status":"done","name":"入田公会堂（門柱付近）","address":"八木入田239","city":"南あわじ市","number":"3-22"}, 
 {"id":"0947d4e6-30f6-423e-aca5-0babc91b633f","lat":34.74625435,"long":134.80213920,"status":"not_yet","name":"旧高砂公民館の南側（植栽）","address":"高砂市高砂町横町1099－1","city":"高砂市","number":"1-4"}, 
 {"id":"0947f0c6-d325-43e6-a432-23734586f37b","lat":34.74335030,"long":135.45074940,"status":"done","name":"イマキタハイツ５９ 東側","address":"額田町17イマキタハイツ59 東側","city":"尼崎市","number":"84"}, 
 {"id":"095065c7-ffda-4a6e-83cf-5e23a1d0028c","lat":34.79210970,"long":135.21564650,"status":"reserved","name":"大田モータープール北側ガードレール","address":"北区唐櫃台1丁目20番","city":"神戸市","number":"248"}, 
 {"id":"09537616-6af8-41f3-82df-8a2bac5e657a","lat":35.11312320,"long":134.62740050,"status":"not_yet","name":"県道加美実栗線「バス停本谷お堂手前」歩道ガードレール","address":"一宮町東河内2092","city":"宍粟市","number":"150"}, 
 {"id":"0954c03b-3771-4de4-8502-e98f69832a1f","lat":35.63787570,"long":134.62671120,"status":"not_yet","name":"香住小学校体育館裏側のフェンス 香住小学校裏・中道","address":"香住区香住1595-9","city":"香美町","number":"18"}, 
 {"id":"0957228f-2cf7-4cdc-8593-f0f7cd8d9dc2","lat":34.80138800,"long":134.66003400,"status":"not_yet","name":"大森氏所有空地","address":"飾磨区加茂84","city":"姫路市","number":"454"}, 
 {"id":"0957dd89-cb67-49c6-bff3-193131bcd345","lat":34.74076570,"long":135.38714040,"status":"done","name":"県営尼崎水堂高層住宅 西側","address":"水堂町4丁目3県営尼崎水堂高層住宅 西側","city":"尼崎市","number":"426"}, 
 {"id":"09589ddc-c677-4343-b32a-5bda2490d706","lat":34.80938570,"long":135.35001080,"status":"done","name":"宮の町5-19付近　歩行者用地下通路コンクリートガードフェンス","address":"宝塚市宮の町5","city":"宝塚市","number":"05-03"}, 
 {"id":"096333cf-1d79-41ea-93c3-bdbdce6259a0","lat":34.73543180,"long":135.23534070,"status":"done","name":"鶴甲交番北側ガードパイプ","address":"灘区鶴甲4丁目7番","city":"神戸市","number":"142"}, 
 {"id":"096617db-787f-4ffa-87fe-adffa84beb90","lat":34.74167150,"long":135.15174880,"status":"reserved","name":"市営桜の宮住宅1号棟東側三又路碑鉄金網","address":"北区甲栄台1丁目8番1号","city":"神戸市","number":"59"}, 
 {"id":"097150cf-d0ae-4497-b16a-faff2e3813c7","lat":35.63657610,"long":134.62492340,"status":"done","name":"香美町保健センター","address":"香住区香住1281-1","city":"香美町","number":"26"}, 
 {"id":"0972ae07-c606-46c5-947a-dfa14fe011c5","lat":34.76079730,"long":135.42874880,"status":"done","name":"ビレッジハウス南清水 東側 公園","address":"南清水36-1ビレッジハウス南清水 東側 公園","city":"尼崎市","number":"472"}, 
 {"id":"0977b5f0-67e7-4160-8f17-cb5c798271a3","lat":34.72005520,"long":135.37600480,"status":"done","name":"小松ケヤキ公園南側","address":"小松西町２丁目 6番","city":"西宮市","number":"257"}, 
 {"id":"097a2748-2e3f-4168-a870-35f59604cc2b","lat":34.65871040,"long":134.98795270,"status":"not_yet","name":"市営玉津東住宅10号棟西側公園付近","address":"西区玉津町上池148番地","city":"神戸市","number":"20"}, 
 {"id":"097c1cbd-e2dd-4d1d-9d81-de575a489959","lat":34.75534900,"long":134.80186650,"status":"done","name":"高砂高校正門南側（ﾌｪﾝｽ）","address":"高砂市高砂町朝日町2丁目5－1","city":"高砂市","number":"3-4"}, 
 {"id":"099167b9-1058-49ab-a6c7-c19ded0ee796","lat":34.72417500,"long":134.85464250,"status":"done","name":"水田川西公園南西側植込み","address":"宮西1丁目101-3","city":"播磨町","number":"45"}, 
 {"id":"09944ad5-18c7-42a5-9e16-035235ed2eb4","lat":34.71535480,"long":135.23043470,"status":"done","name":"関西電力南灘変電所西側金網","address":"灘区将軍通2丁目2番","city":"神戸市","number":"109"}, 
 {"id":"0995932b-f45d-4bc6-92a8-7d89425956e3","lat":34.25185000,"long":134.70871000,"status":"done","name":"市営福良住宅 南側フェンス","address":"福良丙28","city":"南あわじ市","number":"4-31"}, 
 {"id":"09a1e96a-8c4f-4849-afb3-24f510e0df37","lat":null,"long":null,"status":"not_yet","name":"阪急電鉄雲雀丘花屋敷駅鉄柵","address":"寺畑2丁目9番","city":"加西市","number":"77"}, 
 {"id":"09a45e77-e0c7-4d99-9e00-aee5e8ea500a","lat":34.74769730,"long":135.45570860,"status":"done","name":"東園田団地７号棟　南東側","address":"東園田町7-10 地先東園田団地7号棟 南東側","city":"尼崎市","number":"564"}, 
 {"id":"09a747e1-3e19-4f9c-8062-8a2474bb23a3","lat":34.71255570,"long":135.25680570,"status":"done","name":"エディオン西側ガードレール","address":"東灘区御影本町4丁目2番","city":"神戸市","number":"220"}, 
 {"id":"09b0ec4e-2516-415f-9276-732981f0efc7","lat":34.66384220,"long":134.94659720,"status":"done","name":"山陽電鉄藤江駅(踏切東)","address":"藤江1703-1","city":"明石市","number":"262"}, 
 {"id":"09c1744b-c8ba-454f-8d62-56a86fd34581","lat":34.86880920,"long":135.38599740,"status":"done","name":"西駒谷公園","address":"清和台西4丁目3番地の166西駒谷公園","city":"川西市","number":"251"}, 
 {"id":"09c29ea9-f412-434b-84a1-138dcada8826","lat":34.71358510,"long":135.24676570,"status":"done","name":"エルセレーノ石屋川南側側溝","address":"灘区記田町3丁目2番","city":"神戸市","number":"150"}, 
 {"id":"09d576c3-97a1-49ea-8515-6213d1e8e1ca","lat":35.07650290,"long":135.22113660,"status":"done","name":"神戸新聞篠山専売所西駐車場フェンス","address":"呉服町","city":"丹波篠山市","number":"2-5"}, 
 {"id":"09d62e16-de67-4b89-88b3-0136e719dc69","lat":34.79031060,"long":134.85639650,"status":"done","name":"masked","address":"平荘町池尻284-1地先(0529 本村平山線)","city":"加古川市","number":"349"}, 
 {"id":"09d70dd1-a48c-4906-b0dc-19ffc837157e","lat":34.81132960,"long":135.35346120,"status":"done","name":"阪急清荒神駅宝塚方面ホームフェンス","address":"宝塚市清荒神1-9","city":"宝塚市","number":"27-02"}, 
 {"id":"09db0eac-9e6c-416f-aa6c-45922939e269","lat":34.59362990,"long":135.01381520,"status":"done","name":"岩屋事務所（岩屋保健センター）横県道ガードパイプ","address":"松帆福良江井岩屋線","city":"淡路市","number":"94"}, 
 {"id":"09dd25ff-3c78-424d-b33d-772a7a4d2d82","lat":35.46310130,"long":134.87821040,"status":"done","name":"市道敷（東條小公園北面）","address":"出石町東條市道敷(東條小公園北面)","city":"豊岡市","number":"339"}, 
 {"id":"09e0ceba-f164-4006-aedc-9f2af6c0cf3c","lat":34.69739570,"long":135.06065570,"status":"error_wrong_place","name":"バス停前開上(名谷行)付近","address":"西区伊川谷町前開410番地","city":"神戸市","number":"61"}, 
 {"id":"09eada06-5020-4598-9d0a-9416982926c7","lat":35.64144130,"long":134.56482690,"status":"not_yet","name":"電話局機械室付近の歩道沿いフェンス 国道沿い・谷口食堂横","address":"香住区余部1069-4(市千)","city":"香美町","number":"99"}, 
 {"id":"09f4e07f-2131-4798-8bfa-7b67ffc8c86a","lat":34.83588060,"long":134.67875120,"status":"done","name":"琴岡駐車場南側","address":"琴岡町274","city":"姫路市","number":"110"}, 
 {"id":"09f8a803-9f5b-4f52-adf8-1ff9e4f94d2f","lat":34.83657760,"long":134.68497240,"status":"done","name":"県住吉田町団地集会所北側","address":"吉田町6","city":"姫路市","number":"107"}, 
 {"id":"09f90de1-9e01-42e4-8068-dbedfb318b90","lat":34.71964080,"long":135.34810220,"status":"done","name":"県営西宮真砂高層住宅集会所向い","address":"今津真砂町 1番","city":"西宮市","number":"198"}, 
 {"id":"09fcc23b-279f-4204-8853-2c7dd8ebe4d3","lat":35.08632750,"long":135.27358150,"status":"not_yet","name":"masked","address":"春日江","city":"丹波篠山市","number":"19-2"}, 
 {"id":"0a07cb37-de0a-4b3a-b941-89fa197bd81e","lat":35.40953640,"long":134.77075770,"status":"done","name":"川見製パン前 高校側フェンス歩道沿い","address":"八鹿町栄町68-1","city":"養父市","number":"37"}, 
 {"id":"0a1dc4ea-b1e5-4260-92c7-b57b1743c468","lat":34.94670900,"long":134.81396900,"status":"done","name":"グラウンド北側","address":"西谷西町","city":"加西市","number":"36"}, 
 {"id":"0a1f7b68-b345-4635-aa0c-8dca3f77bb5f","lat":34.75558270,"long":135.33307240,"status":"done","name":"大社中学校東側フェンス（市消防団大社分団北西向い）","address":"神原12番","city":"西宮市","number":"134"}, 
 {"id":"0a1f9a8b-563f-4f7d-bf37-8ce6d3e182e1","lat":35.65574530,"long":134.76139740,"status":"not_yet","name":"乳原五雄氏管理建物壁際（駐車場横）","address":"竹野町楠2046-1乳原五雄氏管理建物壁際(駐車場横)","city":"豊岡市","number":"185"}, 
 {"id":"0a2057ff-6c0c-4c06-91d3-0a51b116f1c4","lat":34.96218130,"long":134.46654850,"status":"not_yet","name":"時重公民館前ガードレール","address":"新宮町時重","city":"たつの市","number":"4"}, 
 {"id":"0a243cc6-b701-4d11-bf6f-b796b5f47a92","lat":34.90474380,"long":135.07905380,"status":"done","name":"長谷公民館グラウンドフェンス","address":"永福289番地","city":"加東市","number":"158"}, 
 {"id":"0a26ac13-e8a2-4369-8d05-5ea97cecc9bf","lat":34.31772540,"long":134.74198970,"status":"not_yet","name":"西路コミュニティプラザ（公会堂）前フェンス","address":"松帆西路74-1","city":"南あわじ市","number":"2-18"}, 
 {"id":"0a2a275f-c70e-4c15-b25d-07c23dcb87bf","lat":34.81050480,"long":134.48806300,"status":"done","name":"masked","address":"古池一丁目","city":"相生市","number":"23"}, 
 {"id":"0a2f263f-9c0c-4513-8e91-b546471c73f0","lat":34.76027300,"long":135.35986300,"status":"done","name":"ファミール西宮夙川公園マンション南","address":"下陵原町 1番32号","city":"西宮市","number":"55"}, 
 {"id":"0a3123d8-b16e-4408-a567-c12d7a039a92","lat":34.84146590,"long":134.63082550,"status":"done","name":"青山団地公園西側","address":"青山南三丁目1","city":"姫路市","number":"289"}, 
 {"id":"0a318d09-e894-4650-a70c-518863906e73","lat":34.81154230,"long":135.23080080,"status":"done","name":"都市機構住宅B5号棟北西側石垣 (有野東小学校正門前)","address":"北区有野台6丁目20番地","city":"神戸市","number":"269"}, 
 {"id":"0a372beb-6400-4268-a325-31e20bb33a3d","lat":34.88103700,"long":135.02752940,"status":"done","name":"masked","address":"藪554番地3先","city":"加東市","number":"149"}, 
 {"id":"0a39495b-f415-4237-b33e-172202c6a224","lat":34.63708810,"long":135.03651510,"status":"done","name":"苅谷公園体育館東側階段横鉄柵","address":"垂水区舞子台4丁目2番","city":"神戸市","number":"118"}, 
 {"id":"0a49a402-59bc-4539-86db-97b7bd6f1472","lat":34.74054960,"long":134.40359630,"status":"done","name":"明神木南バス停横","address":"明神木南バス停横","city":"赤穂市","number":"81"}, 
 {"id":"0a49c242-f553-4e86-baf6-c74bb5153c84","lat":34.91688640,"long":135.18525730,"status":"done","name":"ゆりのき台５丁目　平谷川停留所　(平谷大橋左側鉄柵）","address":"ゆりのき台5丁目 平谷川停留所 (平谷大橋左側鉄柵)","city":"三田市","number":"261"}, 
 {"id":"0a4a5576-7e3d-42d1-a735-71effaa2a726","lat":34.22254540,"long":134.73634800,"status":"not_yet","name":"阿万小学校北側フェンス","address":"阿万下町420","city":"南あわじ市","number":"4-54"}, 
 {"id":"0a518ddf-d565-4f9b-b735-b1a609460c65","lat":34.75985250,"long":135.35825170,"status":"done","name":"ダイドービル西側 水路横鉄柵","address":"門戸東町 4番16号","city":"西宮市","number":"411"}, 
 {"id":"0a544184-6e5d-4cf9-bf61-3bf825bca505","lat":34.37252360,"long":134.85668970,"status":"done","name":"masked","address":"中川原町市原５６９番地４付近","city":"洲本市","number":"81"}, 
 {"id":"0a568c4e-dad7-4563-b38c-020e90cb6ece","lat":34.97317560,"long":134.96793360,"status":"not_yet","name":"主要地方道西脇八千代市川線歩道柵（野村ローソン東側）","address":"野村町","city":"西脇市","number":"74"}, 
 {"id":"0a589628-5cc4-4854-a1ae-0a1d5f32958b","lat":34.89048190,"long":135.22647490,"status":"not_yet","name":"三輪　三田ゴルフ南側金網(ゴミステーション右側）","address":"三輪 三田ゴルフ南側金網(ゴミステ-ション右側)","city":"三田市","number":"14"}, 
 {"id":"0a5915e6-4271-4f2e-9e2a-062e866de8ae","lat":34.75276760,"long":134.81567120,"status":"not_yet","name":"若宮小学校正門右横フェンス","address":"尾上町養田218","city":"加古川市","number":"284"}, 
 {"id":"0a650b71-ed72-4d5a-8f5a-73fef0342e9f","lat":34.78084350,"long":135.42211330,"status":"done","name":"JR伊丹駅東広場　東側金網","address":"東有岡１丁目６番地","city":"伊丹市","number":"367"}, 
 {"id":"0a6b141d-edec-47cc-b357-e3c41d8fbcdc","lat":34.96240280,"long":134.74023080,"status":"not_yet","name":"神谷公民館東側 ガードレール","address":"高岡956-1","city":"福崎町","number":"82"}, 
 {"id":"0a721dc1-0323-42af-94da-1aa08940a372","lat":34.81898050,"long":135.23808380,"status":"done","name":"すみれ台武番館南向い空地（すみれ台５号緑地）","address":"すみれ台２丁目 6番8号向い","city":"西宮市","number":"555"}, 
 {"id":"0a749aac-74c4-46d6-a7e3-fde8670e4529","lat":34.65137680,"long":135.02091430,"status":"done","name":"市道(あかねが丘学園南側鉄柵)","address":"松が丘5丁目7","city":"明石市","number":"10"}, 
 {"id":"0a7667d2-7968-4c1d-95cd-7ceb62f5c58e","lat":34.64431040,"long":134.99715860,"status":"done","name":"中崎遊園地（緑地）","address":"相生町2丁目14","city":"明石市","number":"99"}, 
 {"id":"0a77d71e-89a2-40d7-b70c-e11a04ae454e","lat":35.10679440,"long":134.58098900,"status":"not_yet","name":"国道29号線「曲里バス停付近」歩道に設置の転落防止柵","address":"一宮町安積1237","city":"宍粟市","number":"125"}, 
 {"id":"0a7b27e0-a21e-425b-9f66-777feacd3b1e","lat":34.69163060,"long":134.98717570,"status":"not_yet","name":"平野八幡神社東側入口付近","address":"西区平野町慶明180番地の10","city":"神戸市","number":"158"}, 
 {"id":"0a7e7221-03a9-4b98-a0af-efe7b985d2ef","lat":35.01677760,"long":135.15529830,"status":"done","name":"ＪＲ古市駅前フェンス","address":"古市","city":"丹波篠山市","number":"47-6"}, 
 {"id":"0a7f95f7-d829-4611-b2f4-b67c6641e583","lat":35.01637990,"long":135.24740530,"status":"not_yet","name":"永沢寺　永沢寺そば道場手前市道・県道三叉路付近（市民農園看板側　野立て）","address":"永沢寺 永沢寺そば道場手前市道・県道三叉路付近(市民農園看板側 野立て)","city":"三田市","number":"96"}, 
 {"id":"0a801f04-ae23-4c54-983f-4814d6b1bdc4","lat":34.86379140,"long":134.38677450,"status":"not_yet","name":"6丁目公園","address":"高田台6丁目11-1","city":"上郡町","number":"42"}, 
 {"id":"0a814abf-06c3-4302-aa3d-c65a6b78bea3","lat":34.91288970,"long":135.25716780,"status":"not_yet","name":"香下　香下公会堂県道側フェンス前野立て","address":"香下 香下公会堂県道側フェンス前野立て","city":"三田市","number":"28"}, 
 {"id":"0a878e14-2dcd-4c9f-a121-fff3320fa55b","lat":34.78207380,"long":135.37969600,"status":"done","name":"池尻文化センター北側水路防護柵（南向）","address":"池尻6丁目172番地1地先","city":"伊丹市","number":"213"}, 
 {"id":"0a8bc138-5e11-4ae0-b456-e7815bd11698","lat":34.63776720,"long":135.06153120,"status":"done","name":"高丸小学校東門北側金網","address":"垂水区大町2丁目6番","city":"神戸市","number":"60"}, 
 {"id":"0a90437d-ecfb-4577-bec5-1dc8b4158ca6","lat":34.78134090,"long":135.37121250,"status":"done","name":"masked","address":"田近野町 9番17","city":"西宮市","number":"444"}, 
 {"id":"0a994072-b941-4488-b09c-c0987d00234b","lat":34.73784540,"long":135.42290890,"status":"done","name":"久々知南公園 西側","address":"久々知西町1-8久々知南公園 西側","city":"尼崎市","number":"122"}, 
 {"id":"0a9b5d4e-dcf5-4b43-b5bd-4ce321b16895","lat":34.71434700,"long":135.42054400,"status":"done","name":"明城小学校　南門東","address":"南城内10明城小学校 南門東","city":"尼崎市","number":"2"}, 
 {"id":"0a9f4682-4037-4620-9d92-1bb6b1735fcf","lat":34.76028370,"long":135.33914760,"status":"done","name":"市営一ヶ谷町住宅1号棟南西水路金網","address":"一ヶ谷町8番","city":"西宮市","number":"146"},