[{"id":"0001f615-5c99-48d7-a4b9-a056cdd0294b","lat":34.53822603,"long":135.60479000,"status":"done","name":"大阪外環状線西浦南交差点北東側道路ガードパイプ","address":"西浦","city":"羽曳野市","number":"100"}, 
 {"id":"0003c5cd-5f14-4242-957b-dc0453634088","lat":34.73650800,"long":135.60882970,"status":"done","name":"関西電力東大阪古川橋線No.33号　鉄塔敷フェンス","address":"島頭１丁目６番","city":"門真市","number":"194"}, 
 {"id":"000a2461-8fe2-48ad-bc0d-a4e28ee3abc7","lat":34.84883200,"long":135.50705710,"status":"done","name":"奥自治会館　南側","address":"粟生間谷西６丁目７番７号先","city":"箕面市","number":"251"}, 
 {"id":"000b4989-465e-4bb4-9662-b5a8f5827620","lat":34.54446660,"long":135.48756550,"status":"done","name":"北條橋西側道路","address":"西区北条町1丁24","city":"堺市","number":"5"}, 
 {"id":"000bf84a-419e-471f-af29-40c88ea97ed7","lat":34.37193560,"long":135.27316930,"status":"done","name":"呉海プール","address":"鳴滝１丁目７−２","city":"泉南市","number":"83"}, 
 {"id":"000e2a8a-4d54-4207-9ba2-3db71917a217","lat":34.47560370,"long":135.40019440,"status":"done","name":"新条小学校フェンス","address":"荒木町２丁目４－３３","city":"岸和田市","number":"166"}, 
 {"id":"00162ae1-ff77-4753-a865-341db73fb4e6","lat":34.91409600,"long":135.48462600,"status":"done","name":"消防団格納庫付近防火水槽","address":"川尻","city":"豊能町","number":"2-3"}, 
 {"id":"00186075-e718-4f89-a761-2f4434872ff2","lat":34.71725410,"long":135.55311140,"status":"done","name":"ヤナセ新森モータープール南側フェンス","address":"旭区新森 ２丁目８番１８号","city":"大阪市","number":"709"}, 
 {"id":"0021edbe-2ecc-42fe-8493-f7dc6e93a598","lat":34.53938300,"long":135.53755200,"status":"done","name":"日置荘北町児童公園東側","address":"東区日置荘北町22-3","city":"堺市","number":"4"}, 
 {"id":"0022ae36-31dc-4596-8a76-f76b23b182d8","lat":34.42298260,"long":135.36631040,"status":"not_yet","name":"masked","address":"橋本地内","city":"貝塚市","number":"101"}, 
 {"id":"002f6ab5-822f-4396-abf8-08efe88e9d40","lat":34.62381470,"long":135.61939965,"status":"done","name":"独立行政法人都市再生機構山本南団地（5号棟西側）","address":"山本町南３丁目１番地内","city":"八尾市","number":"38-07"}, 
 {"id":"002fdaf9-e73e-4ddd-85f6-94110ff6b276","lat":34.80147080,"long":135.57867690,"status":"done","name":"南中学校北門横のフェンス","address":"若園町6-41","city":"茨木市","number":"18"}, 
 {"id":"0031ae7c-1664-448f-a06b-596b909ff9b9","lat":34.74070810,"long":135.58691190,"status":"done","name":"門真はすはな中学校グラウンド北側フェンス","address":"中町2番1号","city":"門真市","number":"5"}, 
 {"id":"00461655-4020-4bad-9492-4ac489ef6ea5","lat":34.81031660,"long":135.57916560,"status":"done","name":"大池西公園南側植栽","address":"大池一丁目12","city":"茨木市","number":"40"}, 
 {"id":"00466c0e-cb3f-42ba-ae34-d9bd34ef5155","lat":34.52673508,"long":135.62507430,"status":"not_yet","name":"道路南側ガードレール","address":"通法寺","city":"羽曳野市","number":"139"}, 
 {"id":"004e7656-1d5f-4ad8-b62c-94389242cc6a","lat":34.74077790,"long":135.63449120,"status":"done","name":"市民総合体育館北側の鉄製フェンス","address":"四條畷市西中野一丁目3番6号","city":"四條畷市","number":"4-7"}, 
 {"id":"005a1796-9bf3-4bc7-b6e1-c92340325c3b","lat":34.72499812,"long":135.61404587,"status":"done","name":"下馬伏南公園北側フェンス","address":"脇田町１５番","city":"門真市","number":"212"}, 
 {"id":"005eeaae-3c49-4e66-a566-dfec4fc6c667","lat":34.67336440,"long":135.58509630,"status":"done","name":"梅田真空包装株式会社 第2工場 南側","address":"御厨2丁目1番37号","city":"東大阪市","number":"307-8"}, 
 {"id":"00615b0a-7ce2-4f3e-8faf-6730fb0dae83","lat":34.83555490,"long":135.58806470,"status":"done","name":"さつき児童遊園","address":"富田丘町29番","city":"高槻市","number":"51-5"}, 
 {"id":"006e1a0a-2c9b-4df4-9988-f6d85a617be5","lat":34.47944010,"long":135.38867450,"status":"done","name":"春木幼稚園東側ネットフェンス","address":"春木宮川町11－52","city":"岸和田市","number":"132"}, 
 {"id":"006e7640-7f14-4e72-b240-5081b8bc5245","lat":34.54043060,"long":135.49102140,"status":"not_yet","name":"陵南南公園","address":"中区深井北町3258","city":"堺市","number":"2"}, 
 {"id":"00780949-eedd-449b-95a2-a3d5034414c3","lat":34.34414800,"long":135.22328700,"status":"done","name":"市道下荘1号線釈迦坊川ガードパイプ","address":"貝掛779","city":"阪南市","number":"18-2"}, 
 {"id":"008e5085-529e-4263-9fb6-053a21354fa6","lat":34.39652120,"long":135.36666190,"status":"done","name":null,"address":"大宮二丁目","city":"熊取町","number":"2-6"}, 
 {"id":"008fcdbb-e42e-46a1-8d6a-2c3ac134777e","lat":34.61992145,"long":135.60383434,"status":"done","name":"松山町二丁目第２児童遊園（東側）","address":"松山町２丁目１番地内","city":"八尾市","number":"43-04"}, 
 {"id":"00a22f1e-4bd4-40be-8eea-9f8a83d25c58","lat":34.51231940,"long":135.42288920,"status":"done","name":"東助松駐車場F","address":"東助松町1-4","city":"泉大津市","number":"15-3"}, 
 {"id":"00a51960-bc36-45fe-8ab0-1256b9313a6a","lat":34.61460100,"long":135.50283800,"status":"done","name":"大阪シティバス 住吉東車前 百側金網","address":"住吉区万代東3丁目5番22号","city":"大阪市","number":"228"}, 
 {"id":"00a8ee95-7773-45c8-a24b-6e66727f296f","lat":34.57720335,"long":135.56120932,"status":"done","name":"ちびっこ広場西側フェンス","address":"松原市松ヶ丘1丁目","city":"松原市","number":"30-2"}, 
 {"id":"00a9cf10-92a3-40c6-a21f-edeb002e994d","lat":34.66109800,"long":135.54335000,"status":"done","name":"中川公園北側敷地","address":"生野区中 川2丁目 4番","city":"大阪市","number":"1460"}, 
 {"id":"00ad073c-a9bc-4cf1-82bd-b940f2bebb1c","lat":34.41640790,"long":135.31332430,"status":"done","name":"第12投票区（元町他）","address":"元町　元町会館","city":"泉佐野市","number":"78"}, 
 {"id":"00ad34a7-e7a9-4e28-811c-4bbff19ddee4","lat":34.66714870,"long":135.57066070,"status":"done","name":"長栄中学校 東側","address":"長栄寺12番30号","city":"東大阪市","number":"312-4"}, 
 {"id":"00bc53a2-b097-46f2-a885-98d96b2f9129","lat":34.81534430,"long":135.49662190,"status":"done","name":"北丘聖愛園入口横植込み","address":"新千里北町1丁目18番1号","city":"豊中市","number":"16_2"}, 
 {"id":"00c6be03-7d09-4f0d-9efd-dd61c7639730","lat":34.66940430,"long":135.60971180,"status":"done","name":"消防局西側フェンス 西側","address":"稲葉1丁目1番9号","city":"東大阪市","number":"214-2"}, 
 {"id":"00cb0ec7-d5ee-4242-924a-dcfd625d371b","lat":34.72548150,"long":135.57872300,"status":"done","name":"菊水公園","address":"菊水通4丁目19","city":"守口市","number":"32-6"}, 
 {"id":"00ce3ac8-74f5-4ae3-ad40-a178a720c35f","lat":34.65382140,"long":135.63087650,"status":"done","name":"池島学園(前期) 北側","address":"池島町3丁目6番30号","city":"東大阪市","number":"121-5"}, 
 {"id":"00d51885-5d71-43ad-8ece-44dd5994f98e","lat":34.76825680,"long":135.50367660,"status":"done","name":"円山公園フェンス","address":"円山町５０","city":"吹田市","number":"151-6"}, 
 {"id":"00db4182-dddc-4927-b03e-249a18c89a71","lat":34.82075110,"long":135.60009970,"status":"done","name":"富田団地90棟西","address":"牧田町14番","city":"高槻市","number":"58-3"}, 
 {"id":"00dc0ec1-3a7f-491a-91b7-88591fce7130","lat":34.59385240,"long":135.63095530,"status":"done","name":"masked","address":"平野１丁目１０番５号","city":"柏原市","number":"8-6"}, 
 {"id":"00e8b6ff-941d-40eb-aad9-d1206f92b1fd","lat":34.79602250,"long":135.65602070,"status":"done","name":"山田神社近辺川沿い","address":"宮之下町13","city":"枚方市","number":"75-7"}, 
 {"id":"01019dc4-29f9-401d-94b9-54ed29dd28a3","lat":34.58194700,"long":135.46756000,"status":"done","name":"堺市内川排水機場","address":"堺区戎島町4丁53","city":"堺市","number":"7"}, 
 {"id":"01031261-e8b4-4d3c-a39f-c5800511a54a","lat":34.35527550,"long":135.24016670,"status":"done","name":"黒田住民センターフェンス","address":"黒田5－3","city":"阪南市","number":"8-1"}, 
 {"id":"01062c1e-3324-4a42-b5a1-9308eee201bf","lat":34.62935582,"long":135.59384426,"status":"done","name":"市道八尾第122号線（長瀬川フェンス）","address":"本町４丁目９番地内","city":"八尾市","number":"09-05"}, 
 {"id":"010fc3f8-19e0-463e-a892-1a83564315dd","lat":34.49502260,"long":135.56146460,"status":"done","name":"２２４棟南側石垣","address":"寺池台一丁目１６","city":"富田林市","number":"191"}, 
 {"id":"012b24b2-43c0-4f74-b487-48a3690e08aa","lat":34.51135580,"long":135.54067540,"status":"not_yet","name":"城前測量設計 北側フェンス","address":"山本東541先","city":"大阪狭山市","number":"28"}, 
 {"id":"01320a07-3e8d-4fb6-964d-cab0b655f865","lat":34.43602510,"long":135.57161470,"status":"not_yet","name":"滝谷イトマンスイミングスクールフェンス","address":"三日市町６９","city":"河内長野市","number":"42-1"}, 
 {"id":"013627a6-abef-4b22-8e04-22b7ae204917","lat":34.61935808,"long":135.48419107,"status":"done","name":"加賀屋東小学校南門横","address":"住之江区東加賀屋1丁目6番25号","city":"大阪市","number":"161"}, 
 {"id":"0140fe04-f7e5-4aee-9aa7-ce4436be0e4b","lat":34.78882140,"long":135.67093000,"status":"not_yet","name":"府営住宅B-33棟前 自転車置場裏","address":"梅が枝33","city":"交野市","number":"38"}, 
 {"id":"014e81eb-4a6f-43df-b6a7-dbfcf4f382c7","lat":34.45344870,"long":135.57275510,"status":"done","name":"古野公園防護柵","address":"本町１８−１８","city":"河内長野市","number":"2-6"}, 
 {"id":"01519d8e-396a-431a-8a9b-fb9450428820","lat":34.65858500,"long":135.55001800,"status":"done","name":"大阪市立東中川小学校西側鉄柵","address":"生野区新今里7丁目14番37号","city":"大阪市","number":"1468"}, 
 {"id":"015aac12-9af8-440f-937d-8166b137ad7d","lat":34.31461920,"long":135.11505370,"status":"done","name":"楠木公民館前府道フェンス","address":"多奈川谷川1156番地の4","city":"岬町","number":"8-9"}, 
 {"id":"016df19e-7c50-457e-a484-237d51288224","lat":34.84285730,"long":135.70532970,"status":"done","name":"京阪バス北山中央バス停向かい（大阪工大）","address":"北山１丁目79","city":"枚方市","number":"77-2"}, 
 {"id":"016f377e-9574-4ee1-8a93-4c68e1754b8b","lat":34.80146490,"long":135.64878020,"status":"not_yet","name":"さつき丘中央公園近辺","address":"山之上西町16","city":"枚方市","number":"74-7"}, 
 {"id":"0180ca9d-e28e-4cc3-b726-9d65d9736562","lat":34.70497200,"long":135.48729800,"status":"done","name":"大淀中公園東側鉄柵","address":"北区大淀中1丁目9番","city":"大阪市","number":"347"}, 
 {"id":"018197e0-5d4c-4678-91c2-be6b6a40280c","lat":34.79072940,"long":135.47232300,"status":"done","name":"豊中ｳｴﾉﾊｲﾂ北側ｶﾞｰﾄﾞﾚｰﾙ","address":"上野東1丁目3番","city":"豊中市","number":"10_7"}, 
 {"id":"018b7630-e2a3-46c2-b65a-d0e81eff247b","lat":34.61481900,"long":135.54751600,"status":"done","name":"金森モータープール南側鉄柵","address":"平野区喜連西５－１－４０","city":"大阪市","number":"605"}, 
 {"id":"018fe3f9-c0dd-4793-8b9e-db6ab2de765c","lat":34.63182400,"long":135.51283300,"status":"done","name":"市立阿倍野小学校正門横","address":"阿倍野区阪南町２－１７－２１","city":"大阪市","number":"1933"}, 
 {"id":"01a0f8f3-f752-4d4e-9b48-c53bf32c598c","lat":34.41570590,"long":135.34247780,"status":"done","name":"第2投票区（鶴原東他）","address":"鶴原東町市営鶴原住宅","city":"泉佐野市","number":"8"}, 
 {"id":"01afd6c0-265e-4a76-9b77-ff977f13dd3b","lat":34.71040300,"long":135.49304200,"status":"done","name":"中津中央公園南側","address":"北区中津3丁目4番","city":"大阪市","number":"342"}, 
 {"id":"01b187a5-580b-4b99-9c5a-238bc03cdea3","lat":34.70620100,"long":135.44217900,"status":"done","name":"市営大和田第１住宅２号棟前","address":"西淀川区大和田５丁目２番","city":"大阪市","number":"1771"}, 
 {"id":"01b7f881-ffc3-4b69-a527-22d60a4ba4e9","lat":34.65216800,"long":135.55946400,"status":"done","name":"巽東3公園北側フェンス","address":"生野区巽 東3丁目11番","city":"大阪市","number":"1495"}, 
 {"id":"01b83b12-6c75-4605-b6d6-2eb75b242779","lat":34.52449860,"long":135.51869210,"status":"not_yet","name":"福田小学校正門南側","address":"中区福田727","city":"堺市","number":"1"}, 
 {"id":"01bbaeb1-3c50-46d9-adef-921b66ddb214","lat":34.63846600,"long":135.51548800,"status":"done","name":"常盤文化会館南面","address":"阿倍野区阪南町１－１１－３９","city":"大阪市","number":"1911"}, 
 {"id":"01bfb658-12df-45a8-9d2e-2be86044bdfd","lat":34.53477430,"long":135.58942050,"status":"done","name":"羽曳が丘１０丁目公園北側植栽（水路敷）","address":"羽曳が丘１０丁目１１番街区","city":"羽曳野市","number":"241"}, 
 {"id":"01c17eec-f2fa-496c-a570-ed9bd5156779","lat":34.33294860,"long":135.17414740,"status":"not_yet","name":"淡輪幼稚園フェンス","address":"淡輪4656番地の1","city":"岬町","number":"1-8"}, 
 {"id":"01c43954-6850-47f8-9c55-7aa8f6f6df95","lat":34.37210850,"long":135.29636940,"status":"not_yet","name":"新家中村公園","address":"新家６９３","city":"泉南市","number":"1"}, 
 {"id":"01c96141-c0e1-4b63-ae95-4f007a3fbf49","lat":34.78971120,"long":135.45527030,"status":"done","name":"千里川下河原歩道橋西側鉄柵","address":"蛍池南町1丁目21番","city":"豊中市","number":"4_5"}, 
 {"id":"01cca99e-d991-4fc6-9889-e5726e97c0ae","lat":34.56907590,"long":135.57702640,"status":"done","name":"東除川新河原橋東詰北側ガードパイプ","address":"高鷲10丁目11番街区","city":"羽曳野市","number":"42"}, 
 {"id":"01ce74b3-ec2d-4576-a8bb-e1819306a3f8","lat":34.75121300,"long":135.54647800,"status":"done","name":"大阪西小学校正門右側鉄柵","address":"東淀川区大隅２丁目３番１８号","city":"大阪市","number":"1052"}, 
 {"id":"01d5faa2-65dd-4d56-b0b1-15777423ba58","lat":34.63116100,"long":135.55094900,"status":"done","name":"ＪＲ平野駅北側植込","address":"平野区平野元町９","city":"大阪市","number":"570"}, 
 {"id":"01d83350-e60a-4e6f-b58c-abb1934685e3","lat":34.67892530,"long":135.60095380,"status":"done","name":"東大阪市役所 南側","address":"荒本北1丁目1番1号","city":"東大阪市","number":"309-1"}, 
 {"id":"01e2d7f6-1fce-4946-bf71-3f8fb7f3e9d5","lat":34.77889600,"long":135.49771400,"status":"done","name":"ぞうさん遊園","address":"千里山西４丁目３８","city":"吹田市","number":"153-2"}, 
 {"id":"01e5d561-22bd-402a-908d-a485365c29d8","lat":34.65761600,"long":135.47236600,"status":"done","name":"大正こども・子育てプラザ正面玄関側金柵","address":"大正区泉尾3丁目9番16号","city":"大阪市","number":"485"}, 
 {"id":"01ea9723-8861-41d8-bc70-d5382290bff6","lat":34.41126090,"long":135.31728180,"status":"done","name":"第１９投票区（上町）","address":"府営泉佐野上町住宅２棟集会所横","city":"泉佐野市","number":"129"}, 
 {"id":"020589f5-e111-4996-9bb6-a8b104212653","lat":34.80046600,"long":135.50662400,"status":"done","name":"Ｃ４８棟東面","address":"津雲台２丁目２","city":"吹田市","number":"163-3"}, 
 {"id":"02072605-6f34-4327-9ec5-384a94ee4ea8","lat":34.60226400,"long":135.51664700,"status":"done","name":"市立苅田小学校 正門西側","address":"住吉区苅田3丁目5番34号","city":"大阪市","number":"256"}, 
 {"id":"021242d1-f856-4f94-a4cc-4a0b882a10c0","lat":34.41781970,"long":135.31643780,"status":"done","name":"第8投票区（新町他）","address":"りんくう往来北　りんくう北駐車場","city":"泉佐野市","number":"50"}, 
 {"id":"0214f92c-98c7-4ee5-a1b8-0aacae8719da","lat":34.77017720,"long":135.67612250,"status":"done","name":"藤が尾2丁目交差点 ガードレール","address":"藤が尾4-20","city":"交野市","number":"95"}, 
 {"id":"021785a1-306b-4cef-98b3-2f3512634a8d","lat":34.44184380,"long":135.37004600,"status":"done","name":"市民庭園（ユニチカ跡）道路側フェンス","address":"半田138-1","city":"貝塚市","number":"24"}, 
 {"id":"0219d41f-1618-4951-9a86-0d396a27669e","lat":34.81199250,"long":135.45972050,"status":"done","name":"エリターム半町前","address":"半町４丁目８番４号","city":"箕面市","number":"35"}, 
 {"id":"0221a7e6-b762-41a9-822f-0ed2467d13b3","lat":34.61973400,"long":135.58952315,"status":"done","name":"龍華町東公園","address":"龍華町１丁目地内","city":"八尾市","number":"05-04"}, 
 {"id":"0222176a-8d58-4ce6-a7fb-99a4b8e0eafd","lat":34.69868100,"long":135.44519000,"status":"done","name":"福町東公園南側","address":"西淀川区福町１丁目１１番４１号","city":"大阪市","number":"1788"}, 
 {"id":"0225a154-70b4-4276-9645-bd43eb82f37e","lat":34.83587110,"long":135.68004040,"status":"done","name":"牧野ハイム付近","address":"招提中町1丁目44","city":"枚方市","number":"43-7"}, 
 {"id":"0227b1d4-bcc1-4d09-8a70-b4c539cd6c0c","lat":34.70291900,"long":135.52398700,"status":"done","name":"中野小学校正門横","address":"都島区中野町3-10-5","city":"大阪市","number":"1812"}, 
 {"id":"023cfc08-0b35-445d-a0ba-140fd20a7a42","lat":34.76942200,"long":135.50120100,"status":"done","name":"円山見晴らし公園南東面","address":"円山町５２番","city":"吹田市","number":"151-2"}, 
 {"id":"0242213b-00fc-4541-8bde-e3d39bbee58b","lat":34.76428270,"long":135.67075000,"status":"done","name":"星田保育園付近 ガードレール","address":"星田３－１０－８","city":"交野市","number":"121"}, 
 {"id":"0244309f-c202-40e6-b9f8-bfca1f701495","lat":34.42456870,"long":135.54733040,"status":"not_yet","name":"井上たばこ店前ガードレール","address":"日野２２０９−１８","city":"河内長野市","number":"11-7"}, 
 {"id":"0247e452-8453-434f-9162-4a7e86c0f817","lat":34.48859110,"long":135.39157870,"status":"not_yet","name":"山本氏空地フェンス","address":"磯上町5丁目759-3","city":"岸和田市","number":"150"}, 
 {"id":"024a79a8-4d4f-4a6e-b3da-012a79e0035c","lat":34.70677035,"long":135.61003661,"status":"done","name":"太子田神社西側(太子田公民館向かい)フェンス","address":"太子田神社西側(太子田公民館向かい)フェンス","city":"大東市","number":"26-6"}, 
 {"id":"024c021f-1b2e-4d93-9e8d-41b31ef6acba","lat":34.82875060,"long":135.48467410,"status":"done","name":"masked","address":"萱野３丁目６番９号","city":"箕面市","number":"145"}, 
 {"id":"025b71ee-a182-4c34-84cc-fc281a05cbde","lat":34.37172010,"long":135.30133270,"status":"not_yet","name":"サングリーン浄化槽","address":"新家３３６５−３５７","city":"泉南市","number":"5"}, 
 {"id":"025e7bc5-f74e-4da7-b14c-f73d7c06785f","lat":34.63545408,"long":135.58952591,"status":"done","name":"近畿自動車道高架下（久宝園西・東交差点の間）","address":"久宝園１丁目地内","city":"八尾市","number":"37-07"}, 
 {"id":"02629399-e51b-4723-bf69-06d8566f8fd0","lat":34.61402221,"long":135.61225457,"status":"done","name":"八尾木北第１公園（東側）","address":"八尾木北４丁目地内","city":"八尾市","number":"26-07"}, 
 {"id":"0269c4f7-4541-4d34-8132-ab16850755a4","lat":34.58856274,"long":135.52954853,"status":"done","name":"府営松原天美住宅集会所東側歩道防護柵","address":"松原市天美西1丁目18番","city":"松原市","number":"13-1"}, 
 {"id":"026e1847-381e-4996-b966-2b11626b540f","lat":34.63522862,"long":135.42287217,"status":"done","name":"南港北中学校西側","address":"住之江区南港中4丁目3番39号","city":"大阪市","number":"134"}, 
 {"id":"026fdb27-010c-4fab-bbd8-e9dcfa8391b8","lat":34.58547690,"long":135.51073030,"status":"done","name":"府営堺浅香山住宅13号館東側","address":"北区東浅香山町3丁104","city":"堺市","number":"2"}, 
 {"id":"027a5bee-b82e-425d-b839-8a4e25c23a24","lat":34.55636980,"long":135.58286110,"status":"done","name":"小池ケ池南側フェンス","address":"はびきの５丁目１５番街区","city":"羽曳野市","number":"219"}, 
 {"id":"0280c9c5-ef66-4654-a3da-c4364fa94a43","lat":34.55608000,"long":135.54919400,"status":"done","name":"美原病院駐車場ブロック塀北端","address":"美原区今井389-1","city":"堺市","number":"5"}, 
 {"id":"0282e1cc-1f85-495b-ad37-123b1ac03292","lat":34.41522350,"long":135.56817550,"status":"not_yet","name":"尾崎会館付近緑地石垣","address":"加賀田９４０","city":"河内長野市","number":"17-2"}, 
 {"id":"028808fc-93b9-4841-a993-355e2988d8ea","lat":34.61002519,"long":135.48010268,"status":"done","name":"住之江西小学校東門横","address":"住之江区御崎4丁目6番43号","city":"大阪市","number":"97"}, 
 {"id":"02890deb-6145-4bd3-a16a-25290623a377","lat":34.35009930,"long":135.26550220,"status":"not_yet","name":"樽井馬場呉水線（桜ヶ丘住宅進入路との交差点）","address":"幡代２丁目５−５","city":"泉南市","number":"104"}, 
 {"id":"028be8f8-87f1-4195-9337-dab25c780ab8","lat":34.83529870,"long":135.46908470,"status":"done","name":"平尾会館 東側（駐車場前）","address":"箕面１丁目９番先","city":"箕面市","number":"108"}, 
 {"id":"028ef25d-43c4-4671-9f10-c39c8cdad3d7","lat":34.45620440,"long":135.56591180,"status":"not_yet","name":"南海千代田検車区正門横フェンス","address":"本多町５−３１","city":"河内長野市","number":"27-4"}, 
 {"id":"029a2d75-b789-44e1-85c8-d50cc17fc769","lat":34.82975600,"long":135.47541440,"status":"done","name":"蓮池 南側","address":"箕面４丁目９番内","city":"箕面市","number":"127"}, 
 {"id":"02ade1cd-e1cf-4d96-9f5a-14f47beb4e96","lat":34.71889770,"long":135.56465160,"status":"done","name":"旭東幼稚園北側鉄柵","address":"旭区新森 ７丁目５番５号","city":"大阪市","number":"699"}, 
 {"id":"02afb399-b22b-4f50-a9f2-4a201010786c","lat":34.66302440,"long":135.58873470,"status":"done","name":"弥栄高校 北グランド 東側","address":"小阪2丁目15番","city":"東大阪市","number":"333-3"}, 
 {"id":"02b19d7f-cf5b-43b7-a8ee-387c1d1f4379","lat":34.63604700,"long":135.46955900,"status":"done","name":"南恩加島小学校正門付近","address":"大正区南恩加島３丁目６番１１号","city":"大阪市","number":"506"}, 
 {"id":"02b2a026-7fa9-45b9-82df-9f6d36a6c332","lat":34.46092290,"long":135.57294920,"status":"not_yet","name":"楠本モータープール前道路防護柵","address":"千代田南町３３−３","city":"河内長野市","number":"27-1"}, 
 {"id":"02b6c478-c4b1-4b7a-9a7c-5d17af30991f","lat":34.70291900,"long":135.52398700,"status":"done","name":"中野小学校南門横","address":"都島区中野町3-10-5","city":"大阪市","number":"1813"}, 
 {"id":"02c377f5-a162-4fbe-95da-2165c32bedb7","lat":34.66130430,"long":135.63665730,"status":"done","name":"神田広場 南側","address":"神田町10番","city":"東大阪市","number":"117-5"}, 
 {"id":"02cb3d32-fffc-4bc4-b2ea-1488d48a88ed","lat":34.78205200,"long":135.47592960,"status":"done","name":"府営桜塚住宅4棟西側植込み","address":"中桜塚5丁目23番","city":"豊中市","number":"25_6"}, 
 {"id":"02cc0ea3-9e72-4d2a-9986-9568a3ea44ca","lat":34.45762980,"long":135.36882140,"status":"done","name":"岸城町スポーツ広場フェンス","address":"岸城町23-30先","city":"岸和田市","number":"8"}, 
 {"id":"02d7f6fd-59bc-4042-ba0e-6cf97ba35b81","lat":34.66965800,"long":135.60991290,"status":"done","name":"消防局北側フェンス 北側","address":"稲葉1丁目1番9号","city":"東大阪市","number":"214-1"}, 
 {"id":"02d9c1e0-0473-42e3-84e5-28ce495a8834","lat":34.55699570,"long":135.45343900,"status":"done","name":"石津太神社南側","address":"西区浜寺石津町中4丁12-7","city":"堺市","number":"5"}, 
 {"id":"02dcb140-f5cf-4b99-89a4-460a05b6b538","lat":34.57924250,"long":135.47955880,"status":"done","name":"殿馬場中学校西側","address":"堺区櫛屋町東3丁2-1","city":"堺市","number":"5"}, 
 {"id":"02dfe8c2-72ce-41e1-96f0-5b90435ece4e","lat":34.63030200,"long":135.49366800,"status":"done","name":"南海公園 西側","address":"西成区岸里3丁目6番","city":"大阪市","number":"1689"}, 
 {"id":"02ea7482-2ff8-4938-a8b9-fbd977985848","lat":34.64724400,"long":135.50864400,"status":"done","name":"大阪公立大学医学部附属病院東側","address":"阿倍野区旭町１－５－７","city":"大阪市","number":"1899"}, 
 {"id":"02eb1609-4930-4152-8586-9db42c5110a3","lat":34.71570200,"long":135.52607700,"status":"done","name":"友渕中学校正門横","address":"都島区友渕町1-5-151","city":"大阪市","number":"1855"}, 
 {"id":"02ff4755-959f-4799-83bc-355de43c5a30","lat":34.67727900,"long":135.56981080,"status":"done","name":"高井田中学校 東側","address":"高井田中5丁目2番5号","city":"東大阪市","number":"306-1"}, 
 {"id":"03056410-a973-45b0-84f4-e44f80f12d36","lat":34.76238830,"long":135.47115460,"status":"done","name":"豊島小学校東側植込み","address":"服部西町3丁目6番5号","city":"豊中市","number":"50_4"}, 
 {"id":"03096bab-7949-477d-b671-637a9fc0f016","lat":34.49027500,"long":135.51399960,"status":"not_yet","name":"茶山台団地集会所西側(公社集会所西側)","address":"南区茶山台2丁1","city":"堺市","number":"7"}, 
 {"id":"030d15c8-1457-45ad-9018-17a2456693fc","lat":34.61362100,"long":135.50657700,"status":"done","name":"市立大領中学校 南側鉄柵東側","address":"住吉区大領4丁目3番25号","city":"大阪市","number":"226"}, 
 {"id":"0311406f-1355-468b-a37d-60dc9c018091","lat":34.44998510,"long":135.57119870,"status":"not_yet","name":"近畿鉄道高架脇","address":"長野町９−３","city":"河内長野市","number":"1-5"}, 
 {"id":"03115976-0e5f-4f48-b2a1-223c1af6e7c2","lat":34.55162080,"long":135.44662220,"status":"done","name":"諏訪の森団地東側","address":"西区浜寺諏訪森町西2丁114","city":"堺市","number":"2"}, 
 {"id":"0313963b-064a-4eaf-9df6-febf626e9d42","lat":34.70439500,"long":135.53627000,"status":"done","name":"水道局所有地フェンス","address":"都島区都島中通3-23-1","city":"大阪市","number":"1829"}, 
 {"id":"031606cf-2c57-444e-a3d8-9fa1bf359e13","lat":34.72042482,"long":135.63691656,"status":"done","name":"野崎駅前(中西) モータープールブロック","address":"野崎駅前(中西) モータープールブロック","city":"大東市","number":"19-4"}, 
 {"id":"03226bad-4da4-4004-8dac-77362d3e7bea","lat":34.48939460,"long":135.55155810,"status":"not_yet","name":"スカイハイツ前緑地","address":"東茱萸木1丁目532-4先","city":"大阪狭山市","number":"119"}, 
 {"id":"0323fcad-6652-43de-b739-dc1df5d2f572","lat":34.76160270,"long":135.48321720,"status":"done","name":"浜1丁目農園東側歩道鉄柵","address":"浜1丁目29番","city":"豊中市","number":"34_2"}, 
 {"id":"0326e9a0-1789-4cf2-9d75-39b1f0b51ffc","lat":34.49079080,"long":135.57673130,"status":"done","name":"masked","address":"廿山二丁目７","city":"富田林市","number":"70"}, 
 {"id":"03342eb7-3d8f-43b5-909f-4c78fac746b5","lat":34.66920800,"long":135.48667900,"status":"done","name":"シティパル桜川西側（歩道植込み）","address":"浪速区幸町2丁目8番の先","city":"大阪市","number":"1197"}, 
 {"id":"033431aa-5fb6-4bb5-9ab5-1fbd674d6dc2","lat":34.67042090,"long":135.60913980,"status":"done","name":"ロイヤルホスト駐車場 西側","address":"菱屋東2丁目7番","city":"東大阪市","number":"214-6"}, 
 {"id":"033700b7-f067-4e36-80cd-310aac053531","lat":34.76015800,"long":135.59355260,"status":"done","name":"金田西公園","address":"金田町5丁目2番地","city":"守口市","number":"24-2"}, 
 {"id":"033ac24d-2c9a-44a5-a5ec-248eb1f00353","lat":34.65487300,"long":135.50915500,"status":"done","name":"逢下公園東側フェンス","address":"浪速区下寺3丁目17番25号","city":"大阪市","number":"1163"}, 
 {"id":"0342ad1c-b9f7-4066-a419-ad180f8d53db","lat":34.67254300,"long":135.47271700,"status":"done","name":"九条南小学校 正門","address":"西区九条南２−１３−１７","city":"大阪市","number":"1629"}, 
 {"id":"03441b56-6df6-4edf-9a3e-569667d0b0ae","lat":34.78762580,"long":135.55305890,"status":"done","name":"さかいがわちびっこ広場","address":"千里丘東四丁目 6番先","city":"摂津市","number":"1"}, 
 {"id":"03514e4c-dafb-41f4-8f49-b82da9099e28","lat":34.62588935,"long":135.58634726,"status":"done","name":"許麻神社","address":"久宝寺５丁目４番８号","city":"八尾市","number":"23-05"}, 
 {"id":"035c1ce1-dc27-46b6-b15c-02e9cdfde29c","lat":34.76428250,"long":135.60306640,"status":"done","name":"masked","address":"対馬江西町3-4","city":"寝屋川市","number":"226"}, 
 {"id":"035c43d2-c68e-42da-8567-b026c1cc35d3","lat":34.76007650,"long":135.61508590,"status":"done","name":"市立成美小学校東側","address":"錦町２３−４５","city":"寝屋川市","number":"136"}, 
 {"id":"035eb52b-bfc3-4a60-bfdf-a8a52554154d","lat":34.65861360,"long":135.60425240,"status":"done","name":"若江本町北公園 南側","address":"若江本町2丁目7番","city":"東大阪市","number":"223-3"}, 
 {"id":"035fd8dd-7a1b-43d1-993a-2aedacbbe279","lat":34.71257890,"long":135.58757590,"status":"done","name":"畑フェンス","address":"ひえ島町31番","city":"門真市","number":"169"}, 
 {"id":"0365953f-0b90-4e71-aff6-0882c59b7ba0","lat":34.84803980,"long":135.60474210,"status":"done","name":"さるびあ児童遊園","address":"川西町1丁目25番","city":"高槻市","number":"10-3"}, 
 {"id":"0367c318-dd55-43db-ae43-4f8c01faa03a","lat":34.72073700,"long":135.45315600,"status":"done","name":"香簑小学校正門横","address":"西淀川区御幣島６丁目５番２５号","city":"大阪市","number":"1743"}, 
 {"id":"036e7db7-9c1e-4520-a7de-faa8650135a9","lat":34.70357923,"long":135.60001216,"status":"done","name":"諸福中学校 東側フェンスフェンス","address":"諸福中学校 東側フェンスフェンス","city":"大東市","number":"5-3"}, 
 {"id":"0376eead-0d38-4795-9ffb-bdfcf448cfa7","lat":34.79014210,"long":135.48851800,"status":"done","name":"油田池公園北側歩道鉄柵","address":"東泉丘2丁目16番","city":"豊中市","number":"61_4"}, 
 {"id":"037929aa-20a2-481b-a001-cb0bfade9c05","lat":34.68470310,"long":135.65106020,"status":"done","name":"今池グラウンド 北側","address":"東石切町4丁目6番","city":"東大阪市","number":"107-4"}, 
 {"id":"0385bb16-8469-4cdd-8e92-320db20ecd27","lat":34.37575670,"long":135.30995430,"status":"not_yet","name":"市道堂之泡東線（曽照寺踏切付近）","address":"兎田４５２−１","city":"泉南市","number":"15"}, 
 {"id":"038bb808-c89c-44ba-8859-a33bee8c1b9e","lat":34.55910380,"long":135.49173800,"status":"done","name":"関西電力鉄塔フェンス","address":"北区百舌鳥赤畑町3丁177","city":"堺市","number":"3"}, 
 {"id":"0391acb6-4ee1-485c-85fa-1f67e0cc903c","lat":34.50314620,"long":135.42230110,"status":"done","name":"コウベフレイトランジトランスポート前F","address":"曽根町2-10","city":"泉大津市","number":"17-6"}, 
 {"id":"0393d9ea-7d10-4eb0-aa9a-ff419cb81e00","lat":34.58607195,"long":135.64647811,"status":"done","name":"masked","address":"雁多尾畑４４３７番地の２","city":"柏原市","number":"15-1"}, 
 {"id":"03a52af8-9ab4-476c-a0c8-8d723cc1d541","lat":34.60270700,"long":135.55346700,"status":"done","name":"瓜破小学校正門西側鉄柵","address":"平野区瓜破 ５－３－１１","city":"大阪市","number":"648"}, 
 {"id":"03a5dec2-1a03-4b15-b655-24422b0131fa","lat":34.74117150,"long":135.60004660,"status":"done","name":"モータープールブロック鉄柵","address":"常盤町11番","city":"門真市","number":"118"}, 
 {"id":"03ace02c-5428-4627-aaab-058bf986be4f","lat":34.52792610,"long":135.59572060,"status":"done","name":"梅の里５号公園","address":"梅の里二丁目２９","city":"富田林市","number":"198"}, 
 {"id":"03b8ad27-057a-48cd-a826-4797f3495ec1","lat":34.71716421,"long":135.64175344,"status":"done","name":"来ぶらり四条西門 コンクリート塀ブロック","address":"来ぶらり四条西門 コンクリート塀ブロック","city":"大東市","number":"14-5"}, 
 {"id":"03b9a513-2de9-48f2-9a43-737ad0419ed4","lat":34.66184200,"long":135.53428600,"status":"done","name":"北桃谷乳児保育園西側フェンス","address":"生野区桃谷3丁目2番40号","city":"大阪市","number":"1411"}, 
 {"id":"03bceeee-be55-4724-886d-fe678357eee1","lat":34.78525620,"long":135.64676860,"status":"done","name":"香里小学校正門近辺","address":"香里ヶ丘１０丁目5","city":"枚方市","number":"17-7"}, 
 {"id":"03c12ee6-6e88-4ba2-add6-26c6fd4d360b","lat":34.66333440,"long":135.62944770,"status":"done","name":"メゾン光陽斜め前 緑地 東側","address":"吉田7丁目3番","city":"東大阪市","number":"219-4"}, 
 {"id":"03c71f4d-a8ed-4142-afa9-db334d308cb1","lat":34.46588330,"long":135.37820840,"status":"done","name":"大阪ガス 西側フェンス","address":"沼町32-1","city":"岸和田市","number":"64"}, 
 {"id":"03d1a672-82ea-46da-96aa-2959ff7979c0","lat":34.51585210,"long":135.59938240,"status":"not_yet","name":"南旭ヶ丘町児童遊園北側植込み","address":"南旭ヶ丘町１４","city":"富田林市","number":"48"}, 
 {"id":"03dac2d8-8ad0-45d1-8d89-5857c4261938","lat":34.36651740,"long":135.27385750,"status":"done","name":"泉南市役所（庁舎前植込み内）","address":"樽井１丁目１−１","city":"泉南市","number":"144"}, 
 {"id":"03e1eff1-d979-4848-aabd-1bca4b7fced2","lat":34.70485700,"long":135.50689700,"status":"done","name":"扇町小学校西側鉄柵（正門横）","address":"北区扇町２丁目７番２４号","city":"大阪市","number":"287"}, 
 {"id":"03ebbc98-1b9e-4257-832e-c8ab2e293a0f","lat":34.50831580,"long":135.44013320,"status":"done","name":"東側線 北信太南2番踏切金網","address":"尾井町一丁目8-32先","city":"和泉市","number":"38-4"}, 
 {"id":"03ec33b8-eb7e-4d16-98c3-4c005f8ece72","lat":34.50443850,"long":135.41057490,"status":"done","name":"泉大津市役所南側駐車場F","address":"東雲町9-12","city":"泉大津市","number":"1-1"}, 
 {"id":"03f3612e-732e-43c6-91bb-784fd5f67a84","lat":34.77357200,"long":135.49974800,"status":"done","name":"千里第三小学校北面","address":"千里山西２丁目１３−１","city":"吹田市","number":"152-4"}, 
 {"id":"03f3a6d9-decc-447a-bc9d-481626180b6c","lat":34.83776120,"long":135.58536870,"status":"done","name":"府営赤大路住宅駐車場東側フェンス","address":"赤大路町37番","city":"高槻市","number":"51-4"}, 
 {"id":"03f6b41c-3983-4ed7-a4c4-4c8fcda9aaed","lat":34.69448950,"long":135.62489090,"status":"done","name":"加納小学校 南側","address":"加納3丁目6番8号","city":"東大阪市","number":"206-3"}, 
 {"id":"03fd2b6c-9c3c-45b4-871a-328dcf17b1d8","lat":34.52774410,"long":135.56378750,"status":"done","name":"菅生地区会館前","address":"美原区菅生378-1付近","city":"堺市","number":"3"}, 
 {"id":"0403f0e4-7622-43b1-923a-61dbffde1631","lat":34.36363110,"long":135.32091360,"status":"not_yet","name":"masked","address":"別所２１９","city":"泉南市","number":"13"}, 
 {"id":"0413a770-1953-4d46-8c7e-a71740a65358","lat":34.57327690,"long":135.50472900,"status":"done","name":"近畿管区警察学校北側塀の正門西横","address":"北区長曽根町1179-4","city":"堺市","number":"8"}, 
 {"id":"0413fc8c-3e4c-4f33-91f4-710723fa0b51","lat":34.57081191,"long":135.56264699,"status":"done","name":"府営上田住宅北東側道路防護柵","address":"松原市上田8丁目","city":"松原市","number":"32-2"}, 
 {"id":"04175a04-079e-41b9-84d4-5fbcc5eadf47","lat":34.61076244,"long":135.63624238,"status":"not_yet","name":"恩智第一公園","address":"大字恩智９４７番地内","city":"八尾市","number":"27-03"}, 
 {"id":"041fc65e-ddb9-4c6c-b315-2deee0e5d45b","lat":34.77215490,"long":135.49588120,"status":"done","name":"寺内南公園西側金網塀","address":"東寺内町10番","city":"豊中市","number":"29_6"}, 
 {"id":"0423ccc4-26ad-428d-8710-f2a0ff1f44a2","lat":34.80906650,"long":135.49705940,"status":"done","name":"長谷南橋鉄柵","address":"新千里東町2丁目2番","city":"豊中市","number":"17_4"}, 
 {"id":"0426466d-a6e7-4729-a67c-ad5ffa63a9f8","lat":34.39546780,"long":135.35413430,"status":"done","name":null,"address":"五門東三丁目","city":"熊取町","number":"5-1"}, 
 {"id":"043d59e6-ac03-4e43-94bb-f1fd3806295d","lat":34.80032380,"long":135.43627240,"status":"error_wrong_place","name":"豊島南１丁目交差点中央環状線下","address":"豊島南１丁目","city":"池田市","number":"22_3"}, 
 {"id":"043e5bb6-0e5d-4bfd-b59f-ebf29b4793c2","lat":34.38997400,"long":135.43851390,"status":"not_yet","name":"大沢山荘入口横フェンス","address":"大沢町440","city":"岸和田市","number":"267"}, 
 {"id":"044460ac-deb2-436c-84a3-337f41a73e42","lat":34.80548100,"long":135.46820150,"status":"done","name":"中道橋北側ｶﾞｰﾄﾞﾚｰﾙ","address":"桜の町7丁目1番","city":"豊中市","number":"12_4"}, 
 {"id":"044a76c2-5b6e-4d89-93e4-db5ce9c28e4c","lat":34.77476110,"long":135.64937130,"status":"done","name":"京阪バス寝屋川団地口バス停前","address":"明徳１丁目７","city":"寝屋川市","number":"264"}, 
 {"id":"044cc2be-4324-4735-9c97-ff024a2bcb71","lat":34.88050600,"long":135.60350850,"status":"done","name":"北清水小学校南坂","address":"安岡寺町6丁目2番","city":"高槻市","number":"47-1"}, 
 {"id":"04550f09-ded1-4652-96d0-1607d0d64b58","lat":34.72322360,"long":135.53566250,"status":"done","name":"生江南公園西側植込み","address":"旭区生江１丁目４番","city":"大阪市","number":"755"}, 
 {"id":"045e2fb8-2d89-46ee-bc13-54cd02806d02","lat":34.77374320,"long":135.57319080,"status":"done","name":"masked","address":"鳥飼野々三丁目37番先","city":"摂津市","number":"1"}, 
 {"id":"046acca6-8f28-4792-9872-8e5c6a82fbbe","lat":34.53932800,"long":135.47271400,"status":"done","name":"URサンヴァリエ津久野9号棟西側","address":"西区津久野町1丁17-9","city":"堺市","number":"1"}, 
 {"id":"047328c2-ee9c-4e71-9c02-fcb2628ca5c1","lat":34.45374990,"long":135.48719280,"status":"done","name":"光明池緑地（光明台幼稚園横）擬木杭","address":"光明台三丁目36","city":"和泉市","number":"55-4"}, 
 {"id":"047e240d-25c3-4125-b7fa-f6caa016160c","lat":34.84513550,"long":135.63558120,"status":"done","name":"天川町たんぽぽ公園","address":"天川町28番","city":"高槻市","number":"57-1"}, 
 {"id":"04814b2c-e329-4776-a709-cc92cc1f2be4","lat":34.61593200,"long":135.47847000,"status":"done","name":"加賀屋公園北側","address":"住之江区中加賀屋3丁目17番","city":"大阪市","number":"148"}, 
 {"id":"0485ac4a-c7f1-4304-a095-3e77c9215e13","lat":34.61945000,"long":135.57310500,"status":"done","name":"加美八尾共同墓地 南側ブロック塀","address":"平野区加美南 ５－１１","city":"大阪市","number":"690"}, 
 {"id":"04860b53-2fa7-46b8-bb96-260be5b3a987","lat":34.72102000,"long":135.48692300,"status":"done","name":"淀川区役所正面玄関横垂幕幕鉄柵","address":"淀川区十三東２丁目３番３号","city":"大阪市","number":"1268"}, 
 {"id":"048aeb60-a263-4b74-af3d-e89847fa9a99","lat":34.42869660,"long":135.57838010,"status":"done","name":"清見台第一公園東側緑地","address":"美加の台１丁目１５−１８","city":"河内長野市","number":"35-4"}, 
 {"id":"048b173a-c742-49d8-8fad-c4b221d2a09c","lat":34.60170871,"long":135.61366351,"status":"done","name":"ライフ志紀店","address":"志紀町１丁目８８番地","city":"八尾市","number":"32-05"}, 
 {"id":"0490191f-5bdb-4619-bc19-7e4870f4456a","lat":34.74594780,"long":135.58757590,"status":"done","name":"旧浜町幼稚園正門横フェンス","address":"浜町22番","city":"門真市","number":"60"}, 
 {"id":"04934eec-9917-4265-b9ca-418f1da7c74f","lat":34.78931120,"long":135.65897630,"status":"done","name":"枚方寝屋川消防組合川越出張所駐車場","address":"茄子作北町7","city":"枚方市","number":"14-5"}, 
 {"id":"04a3bc13-5e58-4117-975e-ab796e891e31","lat":34.68117900,"long":135.55976900,"status":"done","name":"OMパーキング諏訪1丁目 東側ブロック塀","address":"城東区諏訪4丁目10番","city":"大阪市","number":"403"}, 
 {"id":"04a3d657-7e11-4cdd-a2f6-7dc349e5b33d","lat":34.75173000,"long":135.50840500,"status":"done","name":"水道部庁舎南面","address":"南吹田３丁目３−６０","city":"吹田市","number":"103-6"}, 
 {"id":"04a5bad7-f628-4127-a755-c3313722b5cf","lat":34.41733140,"long":135.55784800,"status":"done","name":"ＵＲ高架水槽付近防護柵","address":"大矢船南町３３−１１","city":"河内長野市","number":"30-7"}, 
 {"id":"04a86e3e-b420-4bf6-90c5-e5eac25b7d7d","lat":34.72995400,"long":135.48254400,"status":"done","name":"野中北１公園入口野立て","address":"淀川区野中北１丁目６番","city":"大阪市","number":"1255"}, 
 {"id":"04a8889b-6fbc-46f2-bcba-d7ae4da8ad06","lat":34.68160600,"long":135.54231300,"status":"done","name":"中本一丁目児童遊園北側フェンス","address":"東成区中本１丁目５番８号","city":"大阪市","number":"908"}, 
 {"id":"04a903b5-e8e5-4d10-9143-524b54b34a97","lat":34.67358110,"long":135.60338390,"status":"done","name":"荒本公園 南側","address":"荒本2丁目5番","city":"東大阪市","number":"311-3"}, 
 {"id":"04b2d672-e1d2-4f96-a854-b75849738608","lat":34.69096000,"long":135.45301800,"status":"done","name":"伝法北公園南側","address":"此花区伝法３－７","city":"大阪市","number":"1112"}, 
 {"id":"04bc394d-0cfd-4776-b153-89b2018611c1","lat":34.50820710,"long":135.44283800,"status":"done","name":"上町会館鉄柵","address":"太町24-1","city":"和泉市","number":"40-4"}, 
 {"id":"04bccff3-2254-4785-bb93-77cd81a84d6c","lat":34.53456460,"long":135.54318050,"status":"done","name":"3号棟西側植込","address":"美原区南余部西1丁目","city":"堺市","number":"2"}, 
 {"id":"04bed544-79c7-4fc1-bfd0-66202136d672","lat":34.78071490,"long":135.47584220,"status":"done","name":"下原公園西側金網塀","address":"中桜塚5丁目20番","city":"豊中市","number":"25_5"}, 
 {"id":"04c1a77c-07f8-49cd-bdd7-ee10d33e89db","lat":34.61887300,"long":135.50300500,"status":"done","name":"万代歩道 南東入口側","address":"住吉区万代３丁目７番","city":"大阪市","number":"215"}, 
 {"id":"04c1dd07-9ef5-4d6c-b6f4-2fc006068ddd","lat":34.76314900,"long":135.62448100,"status":"done","name":"園貫々堂ビルの北側（寝屋川駅前線さわやかロードの南側）歩道","address":"早子町８","city":"寝屋川市","number":"212"}, 
 {"id":"04cf7fba-5c55-4232-9c96-d821a85719c1","lat":34.83960120,"long":135.66481420,"status":"done","name":"阪今池公園","address":"黄金野１丁目5","city":"枚方市","number":"38-2"}, 
 {"id":"04d28f95-bc99-4b38-8b03-7a4fc6a2f173","lat":34.49112540,"long":135.42000090,"status":"not_yet","name":"穴田公民館横要池児童公園前鉄柵","address":"池浦515","city":"泉大津市","number":"6-3"}, 
 {"id":"04d2bccf-9240-425d-9e9b-e220679326f8","lat":34.46843655,"long":135.47559722,"status":"done","name":"歩道防護柵（光明池テニスコート前）鉄柵","address":"室堂町1020先","city":"和泉市","number":"57-7"}, 
 {"id":"04dc08a0-0798-4d9f-8d1c-694b718f3271","lat":34.83348390,"long":135.49764860,"status":"done","name":"今宮交差点歩道橋南側","address":"今宮２丁目３番地先","city":"箕面市","number":"187"}, 
 {"id":"04e1a52e-2bc0-4d0d-a600-1507e57438b5","lat":34.66395200,"long":135.50470000,"status":"done","name":"難波千日前公園 北側鉄柵及び植栽内","address":"中央区難波千日前５番","city":"大阪市","number":"72"}, 
 {"id":"04e320f2-6b03-41e6-a157-39ff0bd26b69","lat":34.87065010,"long":135.59331990,"status":"done","name":"バス停塚脇","address":"塚脇2丁目","city":"高槻市","number":"15-5"}, 
 {"id":"04e98653-0975-4e63-b141-6591180814a0","lat":34.82022420,"long":135.42575670,"status":"done","name":"ダイエー駐車場 西","address":"満寿美町１","city":"池田市","number":"5_4"}, 
 {"id":"04ee46b8-2927-45af-a5a5-52abffba48dc","lat":34.59401100,"long":135.62170760,"status":"done","name":"岡村製油(株)交差点前ブロック","address":"河原町４番５号","city":"柏原市","number":"5-2"}, 
 {"id":"04f69ce2-7334-4218-acdc-e16f8475a197","lat":34.77261960,"long":135.49146320,"status":"done","name":"寺内1丁目児童遊園東側鉄柵","address":"寺内1丁目10番","city":"豊中市","number":"65_4"}, 
 {"id":"04f90587-142f-4eee-b1a0-f5fefcac66f8","lat":34.55877890,"long":135.50507170,"status":"done","name":"堺市産業振興センターイベントホール南側","address":"北区長曽根町183-5","city":"堺市","number":"7"}, 
 {"id":"04fb66b8-1f33-4b36-b634-d94c95ecf4a5","lat":34.78912830,"long":135.62489890,"status":"done","name":"香里西公園　東側","address":"香里西之町２６","city":"寝屋川市","number":"319"}, 
 {"id":"0503c9b6-e2af-4e8b-b875-fc0bc825c399","lat":34.66570700,"long":135.45877100,"status":"done","name":"磯路中央公園 南東側","address":"港区磯路２丁目１７番","city":"大阪市","number":"1351"}, 
 {"id":"0503f184-60af-4219-b6fc-f8248e4cd53c","lat":34.39913710,"long":135.37044070,"status":"done","name":null,"address":"五月ヶ丘一丁目","city":"熊取町","number":"2-8"}, 
 {"id":"050754f3-e470-45da-a722-c0fcdc38d326","lat":34.66715200,"long":135.52758800,"status":"done","name":"味原小学校南面ブロック塀","address":"天王寺区味原町８番１９号","city":"大阪市","number":"556"}, 
 {"id":"050b7a4e-bc73-463f-a7af-250b628d66c8","lat":34.80656920,"long":135.59394930,"status":"done","name":"松城荘東側水路鉄柵","address":"目垣一丁目3-9","city":"茨木市","number":"2"}, 
 {"id":"050d48a6-f506-4e9a-97cd-8219c002e5a4","lat":34.87528480,"long":135.59766490,"status":"done","name":"松が丘東公園","address":"松が丘2丁目32番","city":"高槻市","number":"36-6"}, 
 {"id":"0517ed78-130a-4da5-869c-5f1d94181989","lat":34.81211500,"long":135.47369390,"status":"done","name":"野畑小学校ｸﾞﾗﾝﾄﾞ南西側歩道鉄柵","address":"向丘3丁目1番1号","city":"豊中市","number":"13_3"}, 
 {"id":"051f4cee-18b1-4146-9e51-7b0a4476d5e6","lat":34.65710400,"long":135.55598400,"status":"done","name":"金光藤蔭高等学校南側鉄塀","address":"生野区小路東4丁目1番26号","city":"大阪市","number":"1475"}, 
 {"id":"052e2cf4-8d84-4f20-a23b-7b7a07068754","lat":34.75393700,"long":135.50618000,"status":"done","name":"南吹田公園西面","address":"南金田１丁目１２","city":"吹田市","number":"103-2"}, 
 {"id":"05338284-7f81-4a2f-91f2-1b313c736e4a","lat":34.39351790,"long":135.34821900,"status":"done","name":null,"address":"五門東四丁目","city":"熊取町","number":"5-7"}, 
 {"id":"0537e779-d496-409f-95fd-a19a1f40a67a","lat":34.72664300,"long":135.52549700,"status":"done","name":"市営毛馬東住宅3号棟南側植","address":"都島区毛馬町5-9-22","city":"大阪市","number":"1872"}, 
 {"id":"053c7a32-141f-4f02-9cb5-d1c57fa08a72","lat":34.79449490,"long":135.72885640,"status":"done","name":"三之宮神社近辺","address":"穂谷２丁目7","city":"枚方市","number":"78-4"}, 
 {"id":"05481aad-d24a-4bfc-baa6-ecb28ef133fa","lat":34.75000360,"long":135.46466910,"status":"done","name":"島田西公園鉄柵","address":"庄内栄町2丁目11番","city":"豊中市","number":"47_4"}, 
 {"id":"05492940-dc64-47a8-b0d4-eaa2ba38ab30","lat":34.85045300,"long":135.61456240,"status":"done","name":"バス停JR高槻駅西付近","address":"南芥川町1番","city":"高槻市","number":"9-3"}, 
 {"id":"054984a1-16fb-4172-8b3e-d3dcaa2dc3a6","lat":34.73884110,"long":135.60155960,"status":"done","name":"駐車場北側フェンス","address":"大池町1番","city":"門真市","number":"101"}, 
 {"id":"0554b850-da8e-4bb2-a4a9-2c0083ec37fe","lat":34.52852510,"long":135.49573560,"status":"not_yet","name":"沢町公園","address":"中区深井沢町3183","city":"堺市","number":"3"}, 
 {"id":"0555491c-f547-4772-a6e6-cdd66641f63b","lat":34.82430330,"long":135.42333040,"status":"done","name":"河川敷ガードレール","address":"槻木町３","city":"池田市","number":"2_7"}, 
 {"id":"055d2b63-80da-4a62-b065-55b6c8bb91a6","lat":34.62797900,"long":135.56956500,"status":"done","name":"加美東児童遊園北東角金網","address":"平野区加美東 ５－８","city":"大阪市","number":"684"}, 
 {"id":"055fd952-d0d5-4223-b913-6e7e2f428290","lat":34.45688400,"long":135.45104430,"status":"done","name":"音楽教室ブロック塀","address":"唐国町二丁目6-18","city":"和泉市","number":"22-5"}, 
 {"id":"0563389d-9507-4a77-99bf-a4eb8be23575","lat":34.83348460,"long":135.55010990,"status":"done","name":"郡山児童遊園南側金網","address":"郡山二丁目3","city":"茨木市","number":"7"}, 
 {"id":"0567f7ef-d9e7-47a1-802d-ee514864c75c","lat":34.62020500,"long":135.54286200,"status":"done","name":"平野西１丁目駐車場東側金網","address":"平野区平野西１－３","city":"大阪市","number":"585"}, 
 {"id":"056e8702-7fb6-4f38-aaca-e4bb71458f6d","lat":34.71295900,"long":135.52943400,"status":"done","name":"都島郵便局東側発着扉付近","address":"都島区高倉町1-6","city":"大阪市","number":"1847"}, 
 {"id":"056f2772-1bf1-4608-8cdb-039f25a95cfe","lat":34.81571260,"long":135.55010990,"status":"done","name":"第二田中マンション南側水路鉄柵","address":"中穂積三丁目15","city":"茨木市","number":"10"}, 
 {"id":"0571c0f1-12f3-4a11-b9b6-465c13c9bfde","lat":34.60558121,"long":135.47434772,"status":"done","name":"住之江西会館西側","address":"住之江区南加賀屋3丁目120号","city":"大阪市","number":"90"}, 
 {"id":"05720c20-aa01-4891-831b-fcb08f48c1c2","lat":34.80930770,"long":135.44123690,"status":"done","name":"豊島野公園前","address":"天神１丁目７−１","city":"池田市","number":"12_6"}, 
 {"id":"057259f4-abe4-446b-9cd5-f2b81dd3afb6","lat":34.76908210,"long":135.64769440,"status":"done","name":"府道枚方交野寝屋川線　眼鏡市場　寝屋川宇谷店前（内側）","address":"宇谷町３－２０","city":"寝屋川市","number":"333"}, 
 {"id":"057e4bf8-2ffd-430d-8ea9-e860597db9ff","lat":34.46355220,"long":135.50538150,"status":"done","name":"御池みみずく公園","address":"南区御池台3丁19","city":"堺市","number":"3"}, 
 {"id":"058307f6-ab66-4dbc-b189-4b1af55bef67","lat":34.33038700,"long":135.21981800,"status":"done","name":"桃の木台3丁目バス停歩道ガードパイプ","address":"桃の木台4-423-55","city":"阪南市","number":"22-5"}, 
 {"id":"058bbf8d-791d-40f9-9b4b-35c0555d2bb7","lat":34.86029970,"long":135.57789750,"status":"done","name":"阿武野配水池西側フェンス","address":"阿武野2丁目10番","city":"高槻市","number":"59-2"}, 
 {"id":"0590ecb9-e92d-4af7-96be-7648dc1d2db8","lat":34.83940700,"long":135.70325870,"status":"done","name":"水道局・北山配水場横 関西電力鉄塔","address":"北山１丁目66","city":"枚方市","number":"77-1"}, 
 {"id":"0594cd58-6945-480a-b4ab-32ce8f2dcb14","lat":34.54250750,"long":135.52641400,"status":"done","name":"初芝駅北西側(銀行前)","address":"東区日置荘西町2-1-4","city":"堺市","number":"1"}, 
 {"id":"059dc0cc-991a-4487-a64d-a5d68e76d4ff","lat":34.73696300,"long":135.59465950,"status":"done","name":"山初運輸車庫横フェンス","address":"寿町2番","city":"門真市","number":"90"}, 
 {"id":"05a0d072-1259-4276-a576-be6de3acd240","lat":34.66430710,"long":135.61957570,"status":"done","name":"英田公民分館分室 南側","address":"吉田1丁目5番27号","city":"東大阪市","number":"217-2"}, 
 {"id":"05a6f7e7-7356-479a-b1a5-8dfe0e14cd8b","lat":34.70757000,"long":135.45073000,"status":"done","name":"大和田元自転車保管所","address":"西淀川区大和田１丁目１番","city":"大阪市","number":"1765"}, 
 {"id":"05b382a1-7696-41b8-b437-d353ef0517ad","lat":34.81537330,"long":135.65107050,"status":"done","name":"第３分館駐車場前","address":"岡東町8","city":"枚方市","number":"1-4"}, 
 {"id":"05b3bed0-f4e6-41d2-a9ea-4b2bf13364f5","lat":34.72595330,"long":135.69156760,"status":"done","name":"田原中学校南側の金網フェンス","address":"四條畷市田原台五丁目2番1号","city":"四條畷市","number":"6-8"}, 
 {"id":"05bdee3a-4c90-410c-935d-5f4e3390242b","lat":34.62957000,"long":135.50770600,"status":"done","name":"晴明丘公園西面","address":"阿倍野区阿倍野元町１５","city":"大阪市","number":"1942"}, 
 {"id":"05c5342a-154d-41b3-806f-9d7822f434d9","lat":34.55844070,"long":135.64530820,"status":"not_yet","name":"春日台公園フェンス","address":"田辺２丁目９番","city":"柏原市","number":"20-7"}, 
 {"id":"05d160ce-ea91-426d-b44a-0e058d28dee6","lat":34.41565956,"long":135.62197644,"status":"done","name":"旧錦川小学校跡フェンス","address":"石見川１３５","city":"河内長野市","number":"21-5"}, 
 {"id":"05dd263a-6268-44a9-b63f-85bdb5c19c03","lat":34.60752100,"long":135.56410200,"status":"done","name":"瓜破東第２住宅２６号棟南西空地（ポンプ室）","address":"平野区瓜破東 ２－７","city":"大阪市","number":"667"}, 
 {"id":"05efa14d-f897-45ed-a2c6-fcc9a74a3a71","lat":34.50295930,"long":135.60410580,"status":"done","name":"若松団地集会所","address":"若松町一丁目１２－１２","city":"富田林市","number":"26"}, 
 {"id":"05f167ed-576a-4a8a-8057-8220bedcb210","lat":34.51818560,"long":135.61576880,"status":"not_yet","name":"河南橋西詰横植込みフェンス","address":"川面町一丁目８","city":"富田林市","number":"42"}, 
 {"id":"05f4ea25-1b55-4f51-821c-b28c1b0ca115","lat":34.76080830,"long":135.45377920,"status":"done","name":"小林ﾓｰﾀｰﾌﾟｰﾙ北側歩道鉄柵","address":"利倉西2丁目2番","city":"豊中市","number":"60_5"}, 
 {"id":"06029f19-a707-4dc0-9ee7-8ce170924a07","lat":34.73272410,"long":135.64287970,"status":"done","name":"市営住宅敷地内更地","address":"四條畷市南野一丁目14番","city":"四條畷市","number":"1-1"}, 
 {"id":"060818e6-7492-483b-878d-00a64c5df6d6","lat":34.56986020,"long":135.47855190,"status":"done","name":"安井小学校北側正門横","address":"堺区南安井町4丁1-5","city":"堺市","number":"4"}, 
 {"id":"060913d5-282e-40c2-a1bb-a566bc0b7d36","lat":34.49496450,"long":135.48679220,"status":"not_yet","name":"みきとじ公園西側","address":"南区大庭寺569-28","city":"堺市","number":"7"}, 
 {"id":"06234793-278b-4687-ae1f-d5858947529d","lat":34.63632600,"long":135.46472200,"status":"done","name":"南恩加島西公園東面","address":"大正区南恩加島６丁目１４番","city":"大阪市","number":"510"}, 
 {"id":"063224a1-2773-4e9b-8a56-2a30eb15c31d","lat":34.48915540,"long":135.47710730,"status":"done","name":"赤坂第12公園南側","address":"南区赤坂台6丁1","city":"堺市","number":"2"}, 
 {"id":"063fdb9a-91ae-4f8a-8c42-167bdfbc0fc6","lat":34.71320000,"long":135.53677400,"status":"done","name":"内代小学校南側","address":"都島区内代町3-4-6","city":"大阪市","number":"1843"}, 
 {"id":"064c49a7-dfe6-46c3-a848-533687eca207","lat":34.34158300,"long":135.23757900,"status":"done","name":"光陽台3号公園フェンス","address":"光陽台3-19","city":"阪南市","number":"16-6"}, 
 {"id":"064db60d-e9b1-4022-919f-3916fa14492d","lat":34.66647600,"long":135.52554000,"status":"done","name":"小橋公園西面","address":"天王寺区小橋町３番街区","city":"大阪市","number":"557"}, 
 {"id":"06582db0-3546-4ec5-a991-2ef3dc1e65db","lat":34.57830314,"long":135.53733230,"status":"done","name":"西除川フェンス(向井公民館前)","address":"松原市北新町1丁目5番","city":"松原市","number":"31-2"}, 
 {"id":"066a2909-f712-4985-863e-414f1d308da6","lat":34.57806464,"long":135.53201079,"status":"done","name":"木下ガレージ西向いガードレール","address":"松原市北新町6丁目145番","city":"松原市","number":"28-1"}, 
 {"id":"066b0b64-1e7f-4b7e-b159-ec85f09eae6e","lat":34.81179830,"long":135.55246910,"status":"done","name":"竹ヶ池南側金網","address":"下穂積四丁目5","city":"茨木市","number":"35"}, 
 {"id":"066d2c5e-af79-4c7e-add3-e51b3b6ca715","lat":34.69562760,"long":135.64449040,"status":"done","name":"孔舎衙小学校 西側","address":"日下町6丁目3番6号","city":"東大阪市","number":"103-6"}, 
 {"id":"066ff9d3-0ea0-4948-9856-19ce6491816e","lat":34.74454900,"long":135.49717700,"status":"done","name":"市立東三国中学校南側鉄柵","address":"淀川区東三国６丁目３番６８号","city":"大阪市","number":"1325"}, 
 {"id":"067b8b7a-b27f-4e9f-b046-120ed5ee88d4","lat":34.54472810,"long":135.56034230,"status":"not_yet","name":"下黒山ちびっこ公園フェンス","address":"美原区黒山204-2","city":"堺市","number":"6"}, 
 {"id":"067d8e07-2e9b-4e4c-bb90-0056385aef9c","lat":34.72613231,"long":135.63351608,"status":"done","name":"西楠の里公園北側水路沿い(東側フェンス)フェンス","address":"西楠の里公園北側水路沿い(東側フェンス)フェンス","city":"大東市","number":"20-5"}, 
 {"id":"068b1e39-825e-4835-9ff6-837ce1611b19","lat":34.71206583,"long":135.64381603,"status":"done","name":"瓦堂前ガードパイプ","address":"瓦堂前ガードパイプ","city":"大東市","number":"15-4"}, 
 {"id":"068c3ae9-587c-48df-9df9-3d111a2bec1e","lat":34.82720140,"long":135.44007850,"status":"done","name":"渋谷中学校南 防音壁","address":"渋谷１丁目１３－２","city":"池田市","number":"9_7"}, 
 {"id":"0690ee4e-291c-4e32-852c-5d42ea44b910","lat":34.85179760,"long":135.58762890,"status":"done","name":"阿武野小学校西門","address":"氷室町4丁目4番","city":"高槻市","number":"22-2"}, 
 {"id":"0695954d-1c37-49e1-b1a6-05b97aab395b","lat":34.72077180,"long":135.56603670,"status":"done","name":"川西モ－タ－プ－ル","address":"南寺方南通1丁目1番","city":"守口市","number":"8-5"}, 
 {"id":"0695b40a-88bc-4846-b4d3-f52526ce3336","lat":34.74971400,"long":135.47850590,"status":"done","name":"豊南橋北側天竺川堤防金網塀","address":"庄内東町4丁目7番","city":"豊中市","number":"36_5"}, 
 {"id":"06a592dd-45ba-4e04-984a-41f6b3f7c585","lat":34.79254580,"long":135.47776980,"status":"done","name":"上野東2丁目農園西側鉄柵","address":"上野東2丁目19番","city":"豊中市","number":"11_1"}, 
 {"id":"06a72cce-2f99-44bd-80fe-27533303f4ad","lat":34.78705150,"long":135.45230780,"status":"done","name":"箕輪橋北西側千里川堤防金網柵","address":"箕輪1丁目24番","city":"豊中市","number":"3_4"}, 
 {"id":"06ad062a-f49c-4b5c-aa00-78101c3513cb","lat":34.53132070,"long":135.60305730,"status":"done","name":"テクニカル工房ウエスギ東側ブロック塀","address":"尺度152番地の1","city":"羽曳野市","number":"105"}, 
 {"id":"06b1adfc-4128-4e2f-852a-22a44d86a4b6","lat":34.84936730,"long":135.42784220,"status":"done","name":"人権文化交流センター前","address":"古江町５２３－１","city":"池田市","number":"7_5"}, 
 {"id":"06bca9f0-aad2-4c5e-a57e-258cb8df5b2d","lat":34.44592783,"long":135.45659345,"status":"done","name":"緑ヶ丘3号公園杭打ち","address":"緑ヶ丘二丁目9-17","city":"和泉市","number":"52-3"}, 
 {"id":"06c11115-7fc6-48a5-9bc9-5f6e84c203bc","lat":34.83558540,"long":135.47445290,"status":"done","name":"北小学校 東側","address":"箕面３丁目４番１号","city":"箕面市","number":"131"}, 
 {"id":"06c4cb3f-9333-415c-a3c2-7e1911d6ce91","lat":34.78229300,"long":135.45959180,"status":"done","name":"岡町北住宅集会所東側金網塀","address":"立花町2丁目2番","city":"豊中市","number":"1_7"}, 
 {"id":"06c931bb-90b6-4306-853d-e35c9921e778","lat":34.54563100,"long":135.54008500,"status":"done","name":"八上小学校北側信号付近ブロック塀","address":"美原区大饗117-1","city":"堺市","number":"5"}, 
 {"id":"06d2d248-c1d7-4566-b7b7-b92fe1986ed8","lat":34.85311040,"long":135.63593830,"status":"done","name":"あやめ公園","address":"宮野町3番","city":"高槻市","number":"41-2"}, 
 {"id":"06e7ec3c-69ef-475a-ba06-68e949e4087d","lat":34.70846200,"long":135.49989300,"status":"done","name":"毎日放送※館前植込み","address":"北区茶屋町１７番先","city":"大阪市","number":"295"}, 
 {"id":"06e9d7e1-95e6-4936-b9a4-6d6076c38e02","lat":34.84017960,"long":135.52723380,"status":"done","name":"豊川小学校西通用門付近の白いフェンス","address":"宿久庄五丁目14-5","city":"茨木市","number":"32"}, 
 {"id":"06ecd524-5110-4573-88ed-497902a18591","lat":34.67411810,"long":135.63991750,"status":"done","name":"宝町南公園 北側","address":"宝町1番","city":"東大阪市","number":"110-3"}, 
 {"id":"06f0bfd9-6635-4a1e-9967-600aefd345e2","lat":34.75924920,"long":135.45355850,"status":"done","name":"利倉西第1住宅東側ｶﾞｰﾄﾞﾚｰﾙ","address":"利倉西2丁目13番","city":"豊中市","number":"60_4"}, 
 {"id":"06f52e6f-0422-4547-8372-2ba08096d1bf","lat":34.75336800,"long":135.56671100,"status":"done","name":"八雲北公園","address":"八雲北町3丁目96番地","city":"守口市","number":"20-7"}, 
 {"id":"06f69b06-ffb9-43b1-92b8-92ab68bf8b3c","lat":34.52853050,"long":135.46511070,"status":"done","name":"鳳南町ツボスミレ公園西側","address":"西区鳳南町5丁","city":"堺市","number":"6"}, 
 {"id":"06f77e16-e61a-42c6-8df7-a88290efd18e","lat":34.48007850,"long":135.47659210,"status":"done","name":"新檜尾台小学校南西側","address":"南区新檜尾台3丁7-1","city":"堺市","number":"5"}, 
 {"id":"06f83505-0733-43b4-b930-7e7f64b30be8","lat":34.60957300,"long":135.46968100,"status":"done","name":"ゴルフスミノ工事車場会議","address":"住之江区泉1丁目1番82号","city":"大阪市","number":"108"}, 
 {"id":"06fc454e-dc01-44e2-beff-3c76163caa7a","lat":34.75199200,"long":135.51485500,"status":"done","name":"トップ産業(株)物流センター東面","address":"川岸町６−４３","city":"吹田市","number":"104-5"}, 
 {"id":"0701d965-8749-4fea-979f-552821949447","lat":34.65031400,"long":135.51625100,"status":"done","name":"庚申堂公園北面金網","address":"天王寺区堀越町２番街区","city":"大阪市","number":"522"}, 
 {"id":"0705b4cc-c09e-464a-93e2-b26e9fcb9654","lat":34.65722160,"long":135.60644190,"status":"done","name":"(株)極東製作所 西側","address":"若江本町3丁目5番29号","city":"東大阪市","number":"223-4"}, 
 {"id":"070908c5-5cfe-490a-a715-9110bbd605d9","lat":34.62383861,"long":135.60143611,"status":"done","name":"成法中学校 （北側）","address":"清水町２丁目２番５号","city":"八尾市","number":"43-01"}, 
 {"id":"07096abe-f151-4e41-a628-ed70af784a8c","lat":34.65208800,"long":135.52221700,"status":"done","name":"聖和小学校北面鉄柵","address":"天王寺区寺田町一丁目６番３７号","city":"大阪市","number":"533"}, 
 {"id":"071fb02d-8ca2-4e93-9233-679965be714f","lat":34.53632446,"long":135.61087260,"status":"done","name":"水守交差点南向側鉄塔側道路フェンス","address":"古市","city":"羽曳野市","number":"107"}, 
 {"id":"07211fae-d62d-47db-8474-e8f077dbe8ca","lat":34.74170520,"long":135.56309610,"status":"done","name":"府立芦間高等学校西側","address":"外島町1番43号","city":"守口市","number":"1-4"}, 
 {"id":"0727b602-828b-4b04-8280-9abbc4825a2e","lat":34.52809650,"long":135.48008320,"status":"done","name":"八田荘小学校正門南側","address":"中区八田寺町231","city":"堺市","number":"5"}, 
 {"id":"072898e9-1509-435c-a1fa-9b41d667bc01","lat":34.68508900,"long":135.55534400,"status":"done","name":"放出下水処理場 北門西側鉄柵","address":"城東区永田2丁目3番61号","city":"大阪市","number":"396"}, 
 {"id":"07299ac6-dd78-441a-8598-3e936300f8a6","lat":34.63673800,"long":135.53782700,"status":"done","name":"育和児童遊園北側金網","address":"東住吉区杭全２－１３","city":"大阪市","number":"781"}, 
 {"id":"072d9c34-7d6a-470d-b0e0-38a30e7fa684","lat":34.42777110,"long":135.49790630,"status":"done","name":"駐車場 ブロック塀","address":"岡町45先","city":"和泉市","number":"30-2"}, 
 {"id":"072f4471-ef1a-421d-ad5a-bd4442cd2e84","lat":34.63483000,"long":135.50030500,"status":"done","name":"阪堺電気軌道北天下茶屋駅 北東柵","address":"西成区聖天下2丁目11番","city":"大阪市","number":"1720"}, 
 {"id":"073bf8fe-5e65-4eb8-adb5-ae59ac53fa87","lat":34.80778200,"long":135.51271800,"status":"done","name":"弘済院太陽の広場東面","address":"古江台６丁目２−１","city":"吹田市","number":"167-9"}, 
 {"id":"073ef6ce-7bd5-45c9-b1e7-a1cb5e74bfe5","lat":34.66872400,"long":135.54852300,"status":"done","name":"大今里公園南側","address":"東成区大今里４丁目１６番","city":"大阪市","number":"919"}, 
 {"id":"073f590a-9e0c-4772-8e7e-d29bc2dd6a68","lat":34.65814200,"long":135.51934800,"status":"done","name":"天王寺区役所正面玄関前東側植込","address":"天王寺区真法院町２０番３３号","city":"大阪市","number":"537"}, 
 {"id":"07445937-6125-41d3-badb-7a28bec10911","lat":34.37429580,"long":135.32545320,"status":"done","name":"第２０投票区（上之郷）","address":"上之郷1909-1フェンス","city":"泉佐野市","number":"137"}, 
 {"id":"0749aadc-2d2e-46f4-97b9-4a748c29556e","lat":34.57851640,"long":135.63038850,"status":"done","name":"安堂ちびっこ広場フェンス","address":"安堂町２２番","city":"柏原市","number":"13-4"}, 
 {"id":"074a78fc-ffa4-40ba-9795-332085bc3cef","lat":34.48143400,"long":135.40910300,"status":"not_yet","name":"朝日加工西側角（宮ノ前線）","address":"北出2丁目17番","city":"忠岡町","number":"2-6"}, 
 {"id":"074c5327-ebd6-4709-a7f6-de29d97ebccf","lat":34.76089900,"long":135.51560600,"status":"done","name":"空地西面（テニスコート横）","address":"泉町２丁目１０","city":"吹田市","number":"101-4"}, 
 {"id":"074dde19-8eac-4e97-8fc7-7487bbee58a4","lat":34.40897840,"long":135.33107520,"status":"done","name":"第5投票区（中庄他）","address":"中庄町森加美神社","city":"泉佐野市","number":"34"}, 
 {"id":"0754a984-1716-4b0a-a2ae-7f32be434063","lat":34.71355400,"long":135.45603900,"status":"done","name":"御幣島二丁目バス停前","address":"西淀川区御幣島１丁目９番４号","city":"大阪市","number":"1738"}, 
 {"id":"0756a717-a526-4320-a206-6c243adb7d90","lat":34.43029190,"long":135.56911940,"status":"not_yet","name":"加賀田米穀店前ガードレール","address":"加賀田３２１","city":"河内長野市","number":"16-2"}, 
 {"id":"0765bb47-b10f-4885-b1ae-0033518c7d58","lat":34.63639100,"long":135.49705500,"status":"done","name":"天下茶屋駅東出口前 枠込み","address":"西成区天下茶屋3丁目23番","city":"大阪市","number":"1659"}, 
 {"id":"07678828-9391-42dd-942a-cb1502a680b9","lat":34.75313800,"long":135.49013500,"status":"done","name":"吹田支援学校北面","address":"芳野町１３","city":"吹田市","number":"143-8"}, 
 {"id":"076a67cd-4970-41fd-9080-62a6f0cc3408","lat":34.64558000,"long":135.52885400,"status":"done","name":"そかい道路西側緑地フェンス","address":"生野区林 寺1丁目151番 1","city":"大阪市","number":"1443"}, 
 {"id":"076dfd89-7900-48f3-8cea-1bec736c5aa3","lat":34.61479500,"long":135.49724100,"status":"done","name":"帝塚山６跡地北側金網","address":"住吉区住吉１丁目１番","city":"大阪市","number":"209"}, 
 {"id":"076fb6e0-ad9d-4376-a9de-14beca7e403e","lat":34.74426010,"long":135.65403900,"status":"done","name":"忍ケ丘小学校東側の鉄製フェンス","address":"四條畷市岡山東五丁目2番40号","city":"四條畷市","number":"13-9"}, 
 {"id":"077f5be1-3024-4b16-b70a-68d341f1f680","lat":34.75817900,"long":135.68137110,"status":"not_yet","name":"妙見東３丁目バス停向かい フェンス","address":"妙見東３","city":"交野市","number":"110"}, 
 {"id":"07804b1d-4b8e-4830-8b75-9d435a6ee1be","lat":34.36562740,"long":135.26717940,"status":"done","name":"玉橋商店　池の間","address":"樽井３丁目１６−１５","city":"泉南市","number":"146"}, 
 {"id":"0782dea9-cd12-4e01-8ff8-602bb18e613d","lat":34.73935350,"long":135.58683810,"status":"done","name":"市役所第二駐車場西側フェンス","address":"中町1番","city":"門真市","number":"7"}, 
 {"id":"07863fa2-548f-48c9-9af8-58d95a2590b9","lat":34.76851300,"long":135.46891800,"status":"done","name":"豊島公園北入口横鉄柵","address":"曽根南町1丁目4番","city":"豊中市","number":"52_1"}, 
 {"id":"07893046-d538-47d6-aa93-8dae683eb6a8","lat":34.50281680,"long":135.41553750,"status":"done","name":"寿町4ジョイフル寿向かい鉄柵","address":"寿町4","city":"泉大津市","number":"20-3"}, 
 {"id":"078a611e-ae16-483f-970e-424c5d1cf91e","lat":34.65519700,"long":135.44172700,"status":"done","name":"港晴南公園 北東側","address":"港区港晴２丁目８番","city":"大阪市","number":"1394"}, 
 {"id":"078b97e9-c1ab-4619-8c73-3570f93e58fa","lat":34.55400440,"long":135.59141270,"status":"done","name":"下印池東側フェンス","address":"はびきの４丁目１３番街区","city":"羽曳野市","number":"187"}, 
 {"id":"078f248f-a19b-49bd-9d12-c29264141e75","lat":34.62110319,"long":135.57700285,"status":"done","name":"北亀井町公園","address":"北亀井町３丁目２０３番地内","city":"八尾市","number":"07-02"}, 
 {"id":"079284cf-0d3a-4036-8fa7-6fababc0afcb","lat":34.81173760,"long":135.67530940,"status":"done","name":"池之宮3丁目3-19南側","address":"池之宮３丁目3","city":"枚方市","number":"25-8"}, 
 {"id":"079b2781-90c2-460c-9874-071f4cb0bd82","lat":34.48899480,"long":135.53864570,"status":"not_yet","name":"西山台第５公園 南側","address":"西山台5丁目5先","city":"大阪狭山市","number":"79"}, 
 {"id":"07a02d28-2006-49f7-82ed-5ab7ed3c94d6","lat":34.52849070,"long":135.44034400,"status":"done","name":"masked","address":"東羽衣５－２７－１０","city":"高石市","number":"39"}, 
 {"id":"07a67150-a22a-43df-8d68-fdb22676edd3","lat":34.81330810,"long":135.56028480,"status":"done","name":"レジオン小島北側歩道鉄柵","address":"松ケ本町5","city":"茨木市","number":"35"}, 
 {"id":"07a7cbf7-ccfd-46e8-9d0a-32fcd98bcbc7","lat":34.51036100,"long":135.55189500,"status":"not_yet","name":"狭山池博物館 北側","address":"池尻中2丁目961-5先","city":"大阪狭山市","number":"110"}, 
 {"id":"07a9704c-074d-479e-aeea-edb4e1d2ecf5","lat":34.80359680,"long":135.64781980,"status":"done","name":"山之上西町6-26向い","address":"山之上西町6","city":"枚方市","number":"74-1"}, 
 {"id":"07aab6c1-139d-42eb-834e-bcb8a0997cee","lat":34.74022000,"long":135.64186000,"status":"done","name":"飯盛公園東側鉄柵ガードパイプ","address":"飯盛公園東側鉄柵ガードパイプ","city":"大東市","number":"13-2"}, 
 {"id":"07ab7800-c662-40e8-8b00-ae12fad3c9b2","lat":34.89119700,"long":135.67820700,"status":"done","name":"山崎公民館","address":"山崎一丁目5番","city":"島本町","number":"2-3"}, 
 {"id":"07b03bf0-ec80-4915-81d0-c6ddccbf89dc","lat":34.84583980,"long":135.70030040,"status":"done","name":"スーパー万代前  川沿い","address":"高野道１丁目23","city":"枚方市","number":"56-1"}, 
 {"id":"07c0767d-4f76-4493-b721-e5e984f649a2","lat":34.57039390,"long":135.57488730,"status":"done","name":"道路南側フェンス","address":"南恵我之荘２丁目６番街区","city":"羽曳野市","number":"210"}, 
 {"id":"07c4091c-d022-46b9-88c6-e941b16ce51c","lat":34.72189340,"long":135.57638560,"status":"done","name":"錦小学校東側","address":"寺方錦通2丁目8番45号","city":"守口市","number":"15-7"}, 
 {"id":"07cb8bb3-da3e-4aaa-9fa7-95873a7613ec","lat":34.46628822,"long":135.60226008,"status":"done","name":"JA大阪南東條支店横歩道フェンス","address":"佐備1108-5","city":"富田林市","number":"124"}, 
 {"id":"07cca756-d3d9-49e7-b661-291d9c0e1de8","lat":34.77299270,"long":135.57791160,"status":"done","name":"大阪府管理用地","address":"鳥飼野々一丁目26番先","city":"摂津市","number":"1"}, 
 {"id":"07ce6b7e-7aff-44e5-8695-390f9bc051b8","lat":34.77842770,"long":135.47170770,"status":"done","name":"南桜塚小学校南側植込み","address":"南桜塚2丁目2番1号","city":"豊中市","number":"28_3"}, 
 {"id":"07cfc4c9-1824-4199-9393-4cbe9656ca25","lat":34.63250274,"long":135.63095961,"status":"done","name":"市道高安第46号線（東山本わかばこども園前水路フェンス）","address":"東町３丁目５番地内","city":"八尾市","number":"19-05"}, 
 {"id":"07d1b978-f7fc-4240-bd66-a99ccc708416","lat":34.81216150,"long":135.45694280,"status":"done","name":"masked","address":"半町４丁目５番７号","city":"箕面市","number":"31"}, 
 {"id":"07d52537-6d53-4e53-bf39-526f7960c533","lat":34.65819500,"long":135.48779300,"status":"done","name":"もと市民交流センターなにわ東側フェンス","address":"浪速区浪速西1丁目3番10号","city":"大阪市","number":"1207"}, 
 {"id":"07db3489-4c89-4294-a682-7af3d0a52f5a","lat":34.52266350,"long":135.42774820,"status":"done","name":"たかいし保育園 東側","address":"千代田４−２−１５","city":"高石市","number":"12"}, 
 {"id":"07de3fdd-3ea9-4917-9f11-a385d3522584","lat":34.39370510,"long":135.30759980,"status":"not_yet","name":"第２１投票区（安松町）","address":"安松町長南中学校西側","city":"泉佐野市","number":"152"}, 
 {"id":"07ed1f63-f956-4038-9119-7e6736eaae3f","lat":34.60876800,"long":135.45610000,"status":"done","name":"平林南公園北側","address":"住之江区平林南2丁目6番","city":"大阪市","number":"112"}, 
 {"id":"07edc067-cec6-42ad-b68d-d9a3b3384f79","lat":34.52658910,"long":135.52436290,"status":"done","name":"西友堺福田店駐車場フェンス","address":"中区陶器北1678","city":"堺市","number":"2"}, 
 {"id":"07f57aa1-ecf4-4c89-a75e-3fc515ba03f3","lat":34.71387500,"long":135.59845000,"status":"done","name":"市営茨田大宮住宅１９号館 南側植え込み","address":"鶴見区茨田大宮4丁目28番19号","city":"大阪市","number":"2007"}, 
 {"id":"07fabb8e-b42b-4a08-b375-c9c4669c8567","lat":34.44057970,"long":135.34324270,"status":"not_yet","name":"市営脇浜住宅ポンプ室フェンス","address":"脇浜４丁目２８－８先","city":"貝塚市","number":"64"}, 
 {"id":"07ff1812-9696-458e-93ce-ad8dbc7080ec","lat":34.63068000,"long":135.54153400,"status":"done","name":"今川学園（新園舎）南側金網","address":"東住吉区今川３－５－８","city":"大阪市","number":"792"}, 
 {"id":"07ff7d60-acf2-4101-b837-db6c7f918731","lat":34.47422390,"long":135.43399260,"status":"done","name":"郷荘中学校（父鬼・和気線側） 鉄柵","address":"寺門町二丁目1","city":"和泉市","number":"51-4"}, 
 {"id":"0807d6d3-00fe-4b32-8266-c618e4830e66","lat":34.48307540,"long":135.54480220,"status":"done","name":"コノミヤ狭山店 東側","address":"大野台2丁目1先","city":"大阪狭山市","number":"65"}, 
 {"id":"08175cd5-5f41-4785-9b76-1743c2e4e5ba","lat":34.76319870,"long":135.66983980,"status":"not_yet","name":"全現堂池東側向かい ガードレール","address":"星田８","city":"交野市","number":"124"}, 
 {"id":"081916f2-0628-40c8-b1c6-415cfde47b80","lat":34.49250050,"long":135.55291150,"status":"not_yet","name":"川司児童遊園 東側","address":"半田3丁目167-1先","city":"大阪狭山市","number":"25"}, 
 {"id":"0820d7a9-4984-4f80-98cb-7fa62a130333","lat":34.50436950,"long":135.55640870,"status":"done","name":"市立子育て支援世代間交流センター 北向側","address":"狭山4丁目2311-1先","city":"大阪狭山市","number":"94"}, 
 {"id":"082737a3-469f-4afc-84b6-9b4fa4474b0b","lat":34.85607850,"long":135.62389250,"status":"done","name":"メゾン高槻古曽部西側水路","address":"古曽部町2丁目5番","city":"高槻市","number":"70-4"}, 
 {"id":"0827b91f-a46f-4611-aad8-65e847d67b6b","lat":34.74094160,"long":135.61288970,"status":"done","name":"駐車場フェンス","address":"宮前町3番","city":"門真市","number":"149"}, 
 {"id":"082a3aa1-ab38-424c-907e-5e35842ce250","lat":34.66168410,"long":135.61735490,"status":"done","name":"花園駅前南墓地 東側","address":"花園本町1丁目8番","city":"東大阪市","number":"221-3"}, 
 {"id":"082a6faa-6383-4597-aeb7-b6d16000c83e","lat":34.61012300,"long":135.53624000,"status":"done","name":"湯里の森公園南側","address":"東住吉区湯里５－７","city":"大阪市","number":"838"}, 
 {"id":"082f7cb5-5347-4caa-84d4-d1bb58ed227d","lat":34.67401650,"long":135.64156750,"status":"done","name":"枚岡西小学校 南側","address":"南荘町2番26号","city":"東大阪市","number":"110-5"}, 
 {"id":"08346b28-2444-4988-b7e7-7383dc4da39f","lat":34.79297510,"long":135.68536340,"status":"done","name":"倉治交番 横フェンス","address":"倉治3-4","city":"交野市","number":"15"}, 
 {"id":"0834eff8-8f1b-40cf-afc0-82b99d61d954","lat":34.33578260,"long":135.21523130,"status":"error_wrong_place","name":"万葉台児童遊園前道路ガードレール","address":"箱作441-47","city":"阪南市","number":"19-11"}, 
 {"id":"08383eef-4d2e-43c2-a8c1-74022875b522","lat":34.67202560,"long":135.59438890,"status":"done","name":"意岐部小学校 南側","address":"新家2丁目11番52号","city":"東大阪市","number":"310-4"}, 
 {"id":"0838ba5d-d7ff-47f5-b889-1b51de038b37","lat":34.66300600,"long":135.53027300,"status":"done","name":"災害避難施設用地東側フェンス","address":"生野区鶴橋1丁目6番15号","city":"大阪市","number":"1403"}, 
 {"id":"083ae521-d547-4b89-8212-523fa68bd3a4","lat":34.77035930,"long":135.55926430,"status":"done","name":"メモリアルホール前バス停","address":"東別府一丁目4番9号","city":"摂津市","number":"7"}, 
 {"id":"083f4e70-5942-4711-a574-2d5d9d6c459e","lat":34.61078600,"long":135.57081600,"status":"done","name":"長吉公園東側入口南側鉄柵","address":"平野区長吉出戸 ５－４","city":"大阪市","number":"621"}, 
 {"id":"08477873-b87c-4fb1-a231-bf1af48cf2f3","lat":34.56051230,"long":135.57713270,"status":"done","name":"向野老人いこいの家東側フェンス","address":"向野3丁目11番13号","city":"羽曳野市","number":"72"}, 
 {"id":"08487e4b-ed54-43bc-bdcb-89bf189682c3","lat":34.39843380,"long":135.30560130,"status":"done","name":"第２７投票区（新安松他）","address":"府営羽倉崎住宅3号棟前","city":"泉佐野市","number":"185"}, 
 {"id":"0859872a-93c5-440a-a0e1-a6b5a3173606","lat":34.76548700,"long":135.51339100,"status":"done","name":"片山保育園西面","address":"出口町３２","city":"吹田市","number":"135-1"}, 
 {"id":"085c0832-2563-4d99-983d-db87e99b9ee6","lat":34.57183050,"long":135.48147860,"status":"done","name":"一条通公用車立体駐車場","address":"堺区一条通19-1","city":"堺市","number":"2"}, 
 {"id":"08630e83-d39b-4d1b-8f45-c636fd59f16b","lat":34.77170800,"long":135.63176040,"status":"done","name":"香里グランドコーポ北側歩道","address":"国松町１４－１","city":"寝屋川市","number":"69"}, 
 {"id":"086a3402-6ef8-4fca-b255-98838c5c595f","lat":34.79775900,"long":135.54405400,"status":"done","name":"千里丘もくもく遊園","address":"千里丘中４６","city":"吹田市","number":"192-2"}, 
 {"id":"086cbf58-43d6-4722-90dc-59d9a84483f7","lat":34.60322200,"long":135.53210400,"status":"done","name":"もと東住吉区役所矢田出張所東側金網","address":"東住吉区矢田６－７－２５","city":"大阪市","number":"866"}, 
 {"id":"0874476b-abae-4dd3-9475-c7e1bc9c036f","lat":34.78199100,"long":135.51156600,"status":"done","name":"高塚南遊園北面","address":"千里山高塚６","city":"吹田市","number":"156-3"}, 
 {"id":"0876fa91-997d-47ba-a7a6-a023e37c5ba6","lat":34.72285670,"long":135.61060130,"status":"done","name":"コノミヤ門真千石東店駐車場北側フェンス","address":"千石東町３１番","city":"門真市","number":"211"}, 
 {"id":"087fa87b-a26b-4cf5-9e27-b55e8ef555b1","lat":34.75877600,"long":135.48889600,"status":"done","name":"市営豊津住宅Ｔ５棟北面","address":"豊津町４６","city":"吹田市","number":"143-3"}, 
 {"id":"0880dc11-706c-4bb3-9743-057e6b94eda7","lat":34.58690663,"long":135.54224610,"status":"done","name":"椿原商会北向いガードレール","address":"松原市天美東1丁目","city":"松原市","number":"29-6"}, 
 {"id":"088beb9f-ecf1-4e5b-8ee9-ad424e01f0d0","lat":34.58354330,"long":135.63120510,"status":"done","name":"masked","address":"太平寺２丁目９番２６号","city":"柏原市","number":"10-1"}, 
 {"id":"088e35fb-d647-4996-b046-b9ba3e17a166","lat":34.44003260,"long":135.57818530,"status":"done","name":"関西スーパー横フェンス","address":"日東町１０−３１","city":"河内長野市","number":"28-8"}, 
 {"id":"0896d69a-c470-4c97-bde7-3ce379866e87","lat":34.75487520,"long":135.64102380,"status":"done","name":"市道高宮１丁目・打上南町１号線","address":"小路北町２５","city":"寝屋川市","number":"133"}, 
 {"id":"089b20a8-4b4d-4d51-a430-cbf832973ced","lat":34.49854730,"long":135.51989330,"status":"not_yet","name":"三原公園北側","address":"南区三原台1丁","city":"堺市","number":"5"}, 
 {"id":"089d6861-dd4d-49c7-b189-0556c56ef494","lat":34.61027500,"long":135.55470300,"status":"done","name":"喜連第２住宅１号棟南東角植込","address":"平野区喜連４－１０","city":"大阪市","number":"610"}, 
 {"id":"08a39730-1ccc-4efa-b7ae-796891e00790","lat":34.55687960,"long":135.61414470,"status":"not_yet","name":"碓井八坂神社南側","address":"碓井1丁目9番街区","city":"羽曳野市","number":"1"}, 
 {"id":"08a89cd8-8f2b-42b5-87d5-afebb9ef8993","lat":34.66817800,"long":135.48825700,"status":"done","name":"大阪メトロ桜川駅３号（東南）出入口横","address":"浪速区桜川2丁目3番25号の先","city":"大阪市","number":"1199"}, 
 {"id":"08b06393-e5be-430e-9795-06cc91a0b6e3","lat":34.70318601,"long":135.62429963,"status":"done","name":"総合文化センター 駐車場フェンス","address":"総合文化センター 駐車場フェンス","city":"大東市","number":"25-7"}, 
 {"id":"08bacf6f-d9d7-4abf-9aae-0af6b68d1dd1","lat":34.80699990,"long":135.66496200,"status":"done","name":"養護老人ホーム松風荘南側遊園","address":"星丘３丁目18","city":"枚方市","number":"24-7"}, 
 {"id":"08bca9f1-e4c0-4edb-97a8-fc3d87b16875","lat":34.65673400,"long":135.52078200,"status":"done","name":"真生幼稚園西面","address":"天王寺区真法院町１５番１５号","city":"大阪市","number":"539"}, 
 {"id":"08bde813-2d4f-4cbe-ac30-b24a2021ab3e","lat":34.65639900,"long":135.50900300,"status":"done","name":"愛染公園西側南寄り","address":"浪速区下寺3丁目5番15号","city":"大阪市","number":"1162"}, 
 {"id":"08c031dc-9514-4f1d-924d-ae18e4ac1dc9","lat":34.57392080,"long":135.48924510,"status":"done","name":"旧天王貯水池南側","address":"堺区中三国ヶ丘町3丁3-2","city":"堺市","number":"7"}, 
 {"id":"08c686d7-b49f-4e91-a2f4-cc4c4bb9f397","lat":34.47120190,"long":135.43619890,"status":"done","name":"寺門3号公園 鉄柵","address":"寺門町二丁目19","city":"和泉市","number":"51-9"}, 
 {"id":"08dab473-58dd-4081-8e4a-989c88499105","lat":34.81818800,"long":135.51310500,"status":"done","name":"藤白公園内ピアノ池南面鉄柵","address":"藤白台３丁目５","city":"吹田市","number":"169-4"}, 
 {"id":"08dc96ec-cfe3-4143-95b5-5e2f2186e81b","lat":34.66557740,"long":135.59590370,"status":"done","name":"市立東大阪医療センター 西側","address":"西岩田3丁目4番5号","city":"東大阪市","number":"330-1"}, 
 {"id":"08e7b562-a526-48e0-9153-7856182a28c4","lat":34.43623660,"long":135.35455750,"status":"not_yet","name":"長楽寺塀","address":"畠中２丁目２０－３","city":"貝塚市","number":"90"}, 
 {"id":"08f0e3bb-2f92-4d55-b30c-77b7f8e5faf0","lat":34.56634110,"long":135.62314140,"status":"done","name":"玉手浄水場東門横フェンス","address":"玉手町１７番１号","city":"柏原市","number":"23-1"}, 
 {"id":"08f3013c-b30b-4df7-b1d0-1fdf9a2163e5","lat":34.79849030,"long":135.60853750,"status":"done","name":"木村モータープール南西水路","address":"三島江4丁目11番","city":"高槻市","number":"28-5"}, 
 {"id":"08f76376-efa1-4922-8233-b4dec8e77585","lat":34.85578090,"long":135.59282370,"status":"done","name":"岡本町第一公園","address":"岡本町68番","city":"高槻市","number":"22-8"}, 
 {"id":"08f87c15-610c-48f6-b089-3cdf52f84011","lat":34.65564240,"long":135.63978190,"status":"done","name":"縄手中学校 南側","address":"南四条町3番26号","city":"東大阪市","number":"119-6"}, 
 {"id":"08fd4288-fc24-411e-a6e9-fba94631ac5d","lat":34.61272000,"long":135.49852000,"status":"done","name":"市立住吉保育所 南側鉄柵","address":"住吉区帝塚山東5丁目9番4号","city":"大阪市","number":"219"}, 
 {"id":"0902d168-9397-4399-a7e9-2b564768090e","lat":34.45248400,"long":135.57048690,"status":"done","name":"香川製作所向側防護柵","address":"本町８−８","city":"河内長野市","number":"41-5"}, 
 {"id":"09037769-e5c0-4bae-a2fb-6f561e1ab498","lat":34.83218090,"long":135.48940150,"status":"done","name":"Q’sモールEAST","address":"西宿１丁目１４番内","city":"箕面市","number":"185"}, 
 {"id":"09123c9d-1bb1-466a-b88a-ed9cd7c7dc6f","lat":34.48367260,"long":135.60964170,"status":"done","name":"山手町公園石垣","address":"山手町１０","city":"富田林市","number":"227"}, 
 {"id":"091a293f-cf86-46ac-b2d7-87a039f51829","lat":34.70396732,"long":135.60613296,"status":"done","name":"東諸福公園南側フェンス","address":"東諸福公園南側フェンス","city":"大東市","number":"4-1"}, 
 {"id":"091f63e0-962f-4f78-816f-07d028648f65","lat":34.94183280,"long":135.59881080,"status":"done","name":"バス停森林センター前","address":"大字田能","city":"高槻市","number":"33-4"}, 
 {"id":"0927a4d3-03a3-4c4c-a50b-058dd270b7b4","lat":34.81445490,"long":135.72267760,"status":"done","name":"杉山手南公園(松陽台自治会集会所近辺)","address":"杉山手３丁目15","city":"枚方市","number":"66-7"}, 
 {"id":"09287299-cfb6-417c-be3d-43a29fc23a9f","lat":34.41511190,"long":135.55798050,"status":"done","name":"加賀田派出所付近フェンス","address":"大矢船南町３６−５","city":"河内長野市","number":"31-1"}, 
 {"id":"0929db39-8aff-43e5-a449-47fc5d393a9c","lat":34.42341047,"long":135.48206818,"status":"done","name":"和泉市南部リージョンセンター 鉄柵","address":"仏並町398-1","city":"和泉市","number":"31-1"}, 
 {"id":"092cb6e8-f784-43f4-811d-ff03653855b9","lat":34.76055100,"long":135.49565600,"status":"done","name":"江坂駅前西自転車駐車場","address":"豊津町７","city":"吹田市","number":"143-2"}, 
 {"id":"0932aee9-616e-4970-9bb9-ed92dfb69c41","lat":34.70652800,"long":135.57856800,"status":"done","name":"市営諸口北住宅 児童遊園東側植え込み","address":"鶴見区諸口6丁目7番","city":"大阪市","number":"2024"}, 
 {"id":"0934d152-46f7-4e52-b6be-9e0f491be94f","lat":34.79377350,"long":135.57717390,"status":"done","name":"masked","address":"島一丁目5","city":"茨木市","number":"20"}, 
 {"id":"09372e5f-6bb4-423f-a8f5-4128d4b28096","lat":34.71606800,"long":135.53410300,"status":"done","name":"市営御幸住宅5号棟前側マンション","address":"都島区御幸町2-6-5","city":"大阪市","number":"1854"}, 
 {"id":"09391ca3-055e-4ce1-8413-538e6c457592","lat":34.79822250,"long":135.44524570,"status":"done","name":"蛍池北公園金網塀","address":"蛍池北町2丁目3番","city":"豊中市","number":"5_1"}, 
 {"id":"093a5365-a209-4745-93dd-adcc50d34ee8","lat":34.54264200,"long":135.55241380,"status":"done","name":"太井中交差点(阪和道下)歩道鉄柵","address":"美原区太井565-1先","city":"堺市","number":"5"}, 
 {"id":"09427a52-0862-47b2-974b-eb7d91b2eb3c","lat":34.63789000,"long":135.50958300,"status":"done","name":"望之門保育園西面","address":"阿倍野区阿倍野筋５－１３－１７","city":"大阪市","number":"1918"}, 
 {"id":"0944fe76-9f96-4209-b5bf-05cd1e777418","lat":34.73552720,"long":135.63710870,"status":"done","name":"四條畷高校東側、正門北の植込み","address":"四條畷市雁屋北町1番1号","city":"四條畷市","number":"7-3"}, 
 {"id":"0946dcfd-66ec-4707-b48b-61efec49a2f4","lat":34.47682610,"long":135.60344460,"status":"not_yet","name":"岡元電機製作所横フェンス","address":"佐備655-1","city":"富田林市","number":"120"}, 
 {"id":"094f66e3-4854-429c-9130-e5406bb5bb48","lat":34.31613570,"long":135.15594090,"status":"not_yet","name":"府道和歌山阪南線歩道フェンス（南海橋付近）","address":"深日1310番地先","city":"岬町","number":"3-8"}, 
 {"id":"095023f1-9f75-4fea-a3bf-314d05377ae8","lat":34.73985380,"long":135.55704040,"status":"done","name":"マックスバリュー太子橋北東側フェンス","address":"旭区太子橋３丁目９８４７号","city":"大阪市","number":"754"}, 
 {"id":"0951a5f1-9562-4f74-862b-49eb01a0aa8c","lat":34.89868100,"long":135.44898400,"status":"done","name":"東ときわ台9丁目バス停付近緑地","address":"東ときわ台","city":"豊能町","number":"11-7"}, 
 {"id":"095e932c-9503-4dc5-8c9d-98658a482d8c","lat":34.71546397,"long":135.62819580,"status":"done","name":"大東中央公園東側(設置は一番北側)ガードパイプ","address":"大東中央公園東側(設置は一番北側)ガードパイプ","city":"大東市","number":"22-8"}, 
 {"id":"095f5c8c-1f3d-4579-b740-a5175e3fae59","lat":34.48408480,"long":135.38548930,"status":"done","name":"春木中学校西側フェンス","address":"松風町10-65","city":"岸和田市","number":"144"}, 
 {"id":"09614ba1-10c1-49bb-be8a-98a5a1d00390","lat":34.56197140,"long":135.46435640,"status":"done","name":"老松町公園東側","address":"堺区老松町1丁5-1","city":"堺市","number":"6"}, 
 {"id":"096848cb-53c5-40c5-9f3b-b8c787917597","lat":34.36361730,"long":135.26776460,"status":"done","name":"民家　向かい","address":"馬場１丁目９−２０","city":"泉南市","number":"109"}, 
 {"id":"096a2630-9c05-43b2-ac9a-43f7a1a4b3bc","lat":34.81688610,"long":135.71620380,"status":"done","name":"大阪国際大学正門前バスロータリー","address":"長尾台３丁目16","city":"枚方市","number":"66-5"}, 
 {"id":"0971cc40-c561-46c7-8b00-18ae77269f9e","lat":34.35443060,"long":135.25034830,"status":"not_yet","name":"沢田児童遊園フェンス","address":"鳥取中452－34先","city":"阪南市","number":"5-1"}, 
 {"id":"097d704e-79bc-4320-940a-aa0684c11a96","lat":34.83086000,"long":135.48394880,"status":"done","name":"萱野中央人権文化センター 東側","address":"萱野１丁目１９番４号","city":"箕面市","number":"147"}, 
 {"id":"097f7c65-5619-4b8a-8e0a-c46466cd7734","lat":34.79519590,"long":135.66641450,"status":"not_yet","name":"松塚ふれあい館正門前庭","address":"松塚39-2","city":"交野市","number":"32"}, 
 {"id":"098283e8-6af0-44ec-b2f5-b7b86d82f289","lat":34.60756300,"long":135.50437900,"status":"done","name":"市営南住吉第５住宅 ２号館側北側植え込み","address":"住吉区南住吉２丁目１２番","city":"大阪市","number":"187"}, 
 {"id":"098a585b-ecc5-4f7f-8cc7-afade2a32ce2","lat":34.88088200,"long":135.67370600,"status":"done","name":"江川住宅集会所前","address":"江川一丁目16番","city":"島本町","number":"8-3"}, 
 {"id":"098b63a8-31fb-47a6-86c2-153eaba941ce","lat":34.50578010,"long":135.42833030,"status":"done","name":"畦田公園南角F","address":"千原町2-12","city":"泉大津市","number":"10-5"}, 
 {"id":"09934541-94f9-4571-93d2-33478f7b0076","lat":34.34633790,"long":135.25401290,"status":"done","name":"尾崎自然田線市道ガードパイプ","address":"自然田1660先","city":"阪南市","number":"4-6"}, 
 {"id":"0995f5c6-eebb-484c-bcaf-853f4e4363e4","lat":34.51698460,"long":135.42594850,"status":"done","name":"市管理地","address":"千代田５−１５−２０付近","city":"高石市","number":"6"}, 
 {"id":"09965fab-0461-4587-a7e8-3b148c61b288","lat":34.56572560,"long":135.59480710,"status":"done","name":"藤井寺西小学校東側","address":"藤井寺4丁目389-3","city":"藤井寺市","number":"16"}, 
 {"id":"09984ecc-aebc-49a6-9375-6c486cee9dd6","lat":34.56079310,"long":135.55659056,"status":"done","name":"masked","address":"松原市岡6丁目6番","city":"松原市","number":"3-7"}, 
 {"id":"09aab26d-0dc2-4858-bbbe-1ec03f428ce3","lat":34.61362100,"long":135.55166600,"status":"done","name":"喜連北第１公園南入口東側植込","address":"平野区喜連１－８","city":"大阪市","number":"604"}, 
 {"id":"09acf2e8-612e-416a-bea5-6ec815cd1e49","lat":34.39527820,"long":135.33884910,"status":"not_yet","name":null,"address":"青葉台二丁目","city":"熊取町","number":"8-5"}, 
 {"id":"09aff3b3-9711-413b-90e5-493cde6ed5c5","lat":34.53633860,"long":135.55842490,"status":"done","name":"masked","address":"美原区黒山422-2先","city":"堺市","number":"3"}, 
 {"id":"09b14a9d-d1da-4724-8bff-f1b7fe683b19","lat":34.57383090,"long":135.51164240,"status":"done","name":"ぞうさん公園北西側","address":"北区新金岡町2丁3","city":"堺市","number":"3"}, 
 {"id":"09b5d497-fb7f-4292-913f-c0698c3d6517","lat":34.46464200,"long":135.51161200,"status":"done","name":"masked","address":"南区鉢ヶ峯寺1545-1","city":"堺市","number":"5"}, 
 {"id":"09b81535-f37e-4649-b3b5-9db46ad6f62b","lat":34.77519650,"long":135.49705940,"status":"done","name":"寺内北公園南側植込み","address":"東寺内町13番","city":"豊中市","number":"29_3"}, 
 {"id":"09bd79d2-0dc1-4564-bce2-1603f9428358","lat":34.64735790,"long":135.58562310,"status":"done","name":"近江堂第1公園 東側","address":"近江堂3丁目2番付近","city":"東大阪市","number":"343-1"}, 
 {"id":"09c03f5d-1275-4c09-b292-574969e7971c","lat":34.56139300,"long":135.59340500,"status":"done","name":"野々上２丁目緑地北側植栽（水路敷）","address":"野々上２丁目２０番街区","city":"羽曳野市","number":"230"}, 
 {"id":"09c8c6e7-6dc1-4e17-af54-7f53356c6d49","lat":34.70585306,"long":135.61881045,"status":"done","name":"住道中学校北西角ガードパイプ","address":"住道中学校北西角ガードパイプ","city":"大東市","number":"21-2"}, 
 {"id":"09cab404-6a45-43cc-bed9-4bf8b02f6a5b","lat":34.56124510,"long":135.63985080,"status":"done","name":"masked","address":"田辺１丁目１１番１号","city":"柏原市","number":"20-1"}, 
 {"id":"09ccb876-384f-4efc-bb66-7e589d7ecc13","lat":34.55561300,"long":135.51132230,"status":"done","name":"金岡南小学校西側","address":"北区金岡町1182-1","city":"堺市","number":"8"}, 
 {"id":"09cce6f5-5453-4d88-ba7f-cc1216afa355","lat":34.72810400,"long":135.49401900,"status":"done","name":"市営木川東第２住宅１号館北側植込み","address":"淀川区木川東４丁目３番１号","city":"大阪市","number":"1274"}, 
 {"id":"09d18533-1938-4ddb-891a-8afaf72afdb3","lat":34.77730010,"long":135.63977110,"status":"done","name":"市立東北コミュニティセンター北側","address":"成田町３－３","city":"寝屋川市","number":"61"}, 
 {"id":"09d2bd6a-de64-47f3-93fc-063d676194da","lat":34.45751970,"long":135.55759370,"status":"done","name":"柳風台第三公園歩道沿い緑地","address":"小山田町６６４","city":"河内長野市","number":"42-3"}, 
 {"id":"09d4f211-3f3a-46d5-abbf-66a101b33fec","lat":34.58713940,"long":135.66349880,"status":"done","name":"masked","address":"雁多尾畑４７５６番地","city":"柏原市","number":"15-3"}, 
 {"id":"09d751c0-697b-4994-88e1-8ee57711ed09","lat":34.49240150,"long":135.56913420,"status":"not_yet","name":"３１５棟北側","address":"寺池台四丁目１","city":"富田林市","number":"172"}, 
 {"id":"09d8649d-3946-44eb-b0f8-43f18f1352ac","lat":34.68002900,"long":135.44777200,"status":"done","name":"北港運輸㈱駐車場南側バス停付近","address":"此花区春日出北３－１","city":"大阪市","number":"1131"}, 
 {"id":"09d8968c-51ab-4d4e-8405-d9968140aba7","lat":34.37679910,"long":135.29546100,"status":"done","name":"masked","address":"新家３６２５","city":"泉南市","number":"156"}, 
 {"id":"09dc780e-958c-4339-9632-4f641c623405","lat":34.80357690,"long":135.47791700,"status":"done","name":"東豊中1丁目第7公園東側鉄柵","address":"東豊中町1丁目27番","city":"豊中市","number":"64_1"}, 
 {"id":"09dc7c53-4c4b-49d5-bdf0-727a4779c8d6","lat":34.39745530,"long":135.28828430,"status":"done","name":"田尻漁業協同組合出入口（フェンス）","address":"りんくうポート北1番地","city":"田尻町","number":"8"}, 
 {"id":"09e66cf5-5bbf-419f-a14d-8432eb65246d","lat":34.70227400,"long":135.58554100,"status":"done","name":"市営茨田諸口東住宅　１号館西側フェンス","address":"鶴見区中茶屋１丁目１７番２０号","city":"大阪市","number":"2002"}, 
 {"id":"09eb76e3-1182-4f0d-bc60-eae200ef7077","lat":34.73166160,"long":135.60993700,"status":"done","name":"水路東側フェンス","address":"島頭３丁目１４番","city":"門真市","number":"193"}, 
 {"id":"09eb7bcc-e7f2-4d4b-89d3-b2ad937f7ba7","lat":34.67385900,"long":135.54240400,"status":"done","name":"南中本公園北側（東寄り）","address":"東成区大今里西１丁目１０番","city":"大阪市","number":"903"}, 
 {"id":"09eff458-ff3e-4ae8-9201-958558458bf9","lat":34.86092170,"long":135.57697230,"status":"done","name":"阿武山小学校正門","address":"阿武野2丁目1番","city":"高槻市","number":"59-1"}, 
 {"id":"09f34cc1-81d3-418f-a840-5cdedb07a7f3","lat":34.59642330,"long":135.53445697,"status":"done","name":"防災倉庫南向かい河川沿い道路防護柵","address":"松原市天美北5丁目3番","city":"松原市","number":"17-5"}, 
 {"id":"09f87b98-b32c-4f8b-bb95-e9140aa030e6","lat":34.80892270,"long":135.64427400,"status":"done","name":"府営枚方上之町住宅","address":"枚方上之町11","city":"枚方市","number":"3-5"}, 
 {"id":"09f90d8a-576f-49e1-a5bc-394f2091afcc","lat":34.36579900,"long":135.24446100,"status":"other","name":"五色園前ガードレール","address":"尾崎町4-229-1","city":"阪南市","number":"13-1"}, 
 {"id":"09fa1594-a179-4185-8b41-3f45bcc384dd","lat":34.72282560,"long":135.55111440,"status":"done","name":"古市小学校東側鉄柵","address":"旭区森小路 ２丁目１０番３５号","city":"大阪市","number":"715"}, 
 {"id":"09febf10-1d1b-4690-b258-ae2c74d343b5","lat":34.83179200,"long":135.54295940,"status":"done","name":"井口台東児童公園の向かい側の歩道(奥)の鉄柵","address":"井口台11先","city":"茨木市","number":"42"}, 
 {"id":"09ffe3ee-84cc-4c5f-ad85-1716c479aa21","lat":34.44504540,"long":135.37594150,"status":"not_yet","name":"久保府住７棟付近ガードレール","address":"久保２丁目１５－７","city":"貝塚市","number":"173"}, 
 {"id":"0a00869c-43fe-44b2-9a14-9e49b1d6e459","lat":34.37225400,"long":135.29837260,"status":"not_yet","name":"新家農協前駐車場","address":"新家３１２７−１","city":"泉南市","number":"2"}, 
 {"id":"0a11b05e-63f0-4a3c-a110-6d9766208b59","lat":34.67503000,"long":135.47769200,"status":"done","name":"茨住吉神社 東側","address":"西区九条１−１−１７","city":"大阪市","number":"1626"}, 
 {"id":"0a12e8ab-1cb4-4290-b4d9-c18dccf651bd","lat":34.65987400,"long":135.46344000,"status":"done","name":"市岡自転車保管所 東側","address":"港区市岡４丁目４番","city":"大阪市","number":"1364"}, 
 {"id":"0a233aec-1f59-4999-aef4-926b349d5a91","lat":34.52396970,"long":135.49681830,"status":"not_yet","name":"東八田自治会グラウンド北側","address":"中区東八田202-3","city":"堺市","number":"5"}, 
 {"id":"0a2f0910-3e0e-4a93-a868-b8ef1777e260","lat":34.46576600,"long":135.40576290,"status":"done","name":"久米田駅北側柵内","address":"大町373-2","city":"岸和田市","number":"176"}, 
 {"id":"0a38dfd2-7611-4441-96b7-9cb9273a59f3","lat":34.82939370,"long":135.58808320,"status":"done","name":"昭和台北公園","address":"昭和台町1丁目6番","city":"高槻市","number":"30-8"}, 
 {"id":"0a4334c5-61b5-4b92-8e1b-f9420ff53b6c","lat":34.50317540,"long":135.43597820,"status":"done","name":"東側線 道路柵(竹内第1ビル向かい)金網","address":"幸一丁目1","city":"和泉市","number":"37-2"}, 
 {"id":"0a4c0db0-f930-4b16-9258-7fd31f0b49cb","lat":34.46282010,"long":135.42426670,"status":"done","name":"JFE継手（株）フェンス","address":"田治米町153-1","city":"岸和田市","number":"197"}, 
 {"id":"0a4edfd9-e48b-421b-bdca-e1b17bd47fb2","lat":34.40671590,"long":135.30716760,"status":"not_yet","name":"第13投票区（大西町他）","address":"大西第2児童公園","city":"泉佐野市","number":"86"}, 
 {"id":"0a5aaed3-2058-470a-8f9d-2bf32e46317e","lat":34.76719180,"long":135.49221720,"status":"done","name":"江坂ふじ遊園南面","address":"江坂町３丁目２３−３１","city":"吹田市","number":"144-5"}, 
 {"id":"0a67a741-07f8-4dbd-a78c-bb3705b44594","lat":34.37300580,"long":135.47335340,"status":"error_wrong_place","name":"南横山小学校前歩道 防護柵 鉄柵","address":"父鬼町1593先","city":"和泉市","number":"33-1"}, 
 {"id":"0a6ae529-7f78-4777-bc6c-54c719f5dd60","lat":34.71007900,"long":135.58319100,"status":"done","name":"シティハス浜4丁目（南行き）東側フェンス","address":"鶴見区浜3丁目19番","city":"大阪市","number":"2012"}, 
 {"id":"0a6b595f-0c45-403c-aeab-e6fe6dc3a986","lat":34.66244100,"long":135.47729500,"status":"done","name":"大正東中学校南東金柵","address":"大正区三軒家東4丁目4番30号","city":"大阪市","number":"468"}, 
 {"id":"0a6bfe42-c48c-4d81-acc7-0f1da52a89b2","lat":34.47564330,"long":135.43193350,"status":"done","name":"和気4号公園 鉄柵","address":"和気町四丁目18","city":"和泉市","number":"51-12"}, 
 {"id":"0a6cf58a-95c9-44f3-af86-13274c50f48c","lat":34.63797830,"long":135.57775840,"status":"done","name":"(株)竹中庭園緑化 東側","address":"大蓮北3丁目1番28号","city":"東大阪市","number":"328-8"}, 
 {"id":"0a713d07-b46e-4e23-bf2b-f76e8e49e28e","lat":34.76040120,"long":135.47880030,"status":"done","name":"服部南町5丁目2番天竺川堤防鉄柵","address":"服部南町5丁目2番","city":"豊中市","number":"33_7"}, 
 {"id":"0a72dcf6-e8a8-489c-91cd-7bb140fd29ad","lat":34.68169110,"long":135.56733860,"status":"done","name":"阪口工作所(株) 南側","address":"森河内東1丁目23番4号","city":"東大阪市","number":"304-2"}, 
 {"id":"0a737182-5231-4415-82e7-38751d2df28e","lat":34.48519060,"long":135.59618080,"status":"done","name":"楠風台西側入口三差路フェンス","address":"彼方859-2","city":"富田林市","number":"109"}, 
 {"id":"0a7488eb-7b87-4bfe-ab72-c0be92818a78","lat":34.40615610,"long":135.32282810,"status":"not_yet","name":"第10投票区（市場東他）","address":"市場東市場琴橋線","city":"泉佐野市","number":"66"}, 
 {"id":"0a767a10-9353-4c9e-b0be-a54a5e9ecde0","lat":34.35372200,"long":135.23455800,"status":"done","name":"市道西鳥取27号線池詰町田橋ブロック","address":"鳥取119-4先","city":"阪南市","number":"15-9"}, 
 {"id":"0a77e214-013d-47e7-8a86-734dd30e2fcc","lat":34.64849020,"long":135.64212430,"status":"done","name":"masked","address":"横小路町3丁目4番","city":"東大阪市","number":"124-2"}, 
 {"id":"0a7d84ed-a523-4e14-bd68-31dcb24a7470","lat":34.63241891,"long":135.62055772,"status":"done","name":"市道山本第80号線（歩道フェンス）","address":"山本町５丁目６番地内","city":"八尾市","number":"17-03"}, 
 {"id":"0a850488-b6a6-444c-beb9-b2dab5ecec43","lat":34.55959750,"long":135.52002490,"status":"done","name":"金岡神社南東側","address":"北区金岡町2866","city":"堺市","number":"5"}, 
 {"id":"0a86bc18-a7ec-4fae-a9ae-416bc6208300","lat":34.82112290,"long":135.71664770,"status":"done","name":"長尾台北公園(長尾台1丁目16-1近辺)","address":"長尾台１丁目6","city":"枚方市","number":"59-1"}, 
 {"id":"0a872eaa-b54d-4ecc-a8b8-29cf1318c50b","lat":34.55896200,"long":135.62418560,"status":"done","name":"ファミリーマート東側道路沿い鉄柵","address":"円明町１７番","city":"柏原市","number":"25-6"}, 
 {"id":"0a9610ac-cf5c-46d3-a285-cb2f20e93d11","lat":34.70914500,"long":135.45312500,"status":"done","name":"大阪日野自動車（株）北側","address":"西淀川区千舟１丁目４番４５号","city":"大阪市","number":"1740"}, 
 {"id":"0a98ca2d-ff87-4e28-929c-b5da06df6175","lat":34.41755260,"long":135.33300400,"status":"done","name":"第３０投票区（上瓦屋町）","address":"上瓦屋町原口機工（株）","city":"泉佐野市","number":"200"}, 
 {"id":"0aa2eb7d-5b0c-45c4-bb3d-718f5a8f1700","lat":34.81138890,"long":135.49396670,"status":"done","name":"千里文化ｾﾝﾀｰｺﾗﾎﾞ東側ｽﾛｰﾌﾟ鉄柵","address":"新千里東町1丁目2番","city":"豊中市","number":"17_2"}, 
 {"id":"0aa35b7b-40cd-4bbf-b669-469c7dd03d2b","lat":34.71868720,"long":135.59392160,"status":"done","name":"下三ツ島公園入口植込み","address":"三ツ島2丁目11番","city":"門真市","number":"158"}, 
 {"id":"0ab2b5da-c26e-4ff6-b442-c6a1a103d6c2","lat":34.49558300,"long":135.39715600,"status":"done","name":"大津川河川敷通路 太平のゆ前","address":"忠岡北1丁目12番地先","city":"忠岡町","number":"4-7"}, 
 {"id":"0ab73d21-504a-45ce-aea5-ce88184b1dc2","lat":34.71564500,"long":135.58380100,"status":"done","name":"焼野南さくら公園 南側","address":"鶴見区焼野1丁目南10番","city":"大阪市","number":"2017"}, 
 {"id":"0ab92c9c-1890-476a-b840-1035e959a519","lat":34.77317550,"long":135.63998970,"status":"error_wrong_place","name":"Ａ１１２棟北側","address":"三井が丘５丁目７","city":"寝屋川市","number":"74"}, 
 {"id":"0abcaa74-11d1-4e6b-8ae2-a2fdcc34a858","lat":34.61082500,"long":135.56065400,"status":"done","name":"東喜連第２住宅１号棟集会所北側","address":"平野区喜連東３－６","city":"大阪市","number":"599"}, 
 {"id":"0ac40e1f-6783-4160-95bc-b6a4a20d795d","lat":34.37463290,"long":135.26852490,"status":"done","name":"バス停前畑団地　駐車場","address":"樽井８丁目１２","city":"泉南市","number":"79"}, 
 {"id":"0ac485bc-e767-4a23-9a70-8d169fb3fd4c","lat":34.80085690,"long":135.65579910,"status":"done","name":"京阪バス山之上バス停西側駐車場前","address":"山之上１丁目12","city":"枚方市","number":"13-3"}, 
 {"id":"0ac4fb87-49af-482a-be08-f4cc508c9fca","lat":34.83218090,"long":135.48940150,"status":"done","name":"イオン２階東側出入口前","address":"西宿１丁目１４番内","city":"箕面市","number":"183"}, 
 {"id":"0acd50f8-5d33-4d6c-b01b-b4eb8b1146b7","lat":34.62177700,"long":135.48794600,"status":"done","name":"住吉第一中学校南側","address":"住之江区粉浜西1丁目5番11号","city":"大阪市","number":"167"}, 
 {"id":"0ace7d06-1b4e-427b-a166-ba78b4bb14f0","lat":34.76292660,"long":135.64220570,"status":"done","name":"太秦東が丘第2ちびっこ老人憩いの広場","address":"太秦東が丘13","city":"寝屋川市","number":"93"}, 
 {"id":"0ad4bd63-74b5-4e76-9745-43abbf3524ec","lat":34.86035630,"long":135.63156800,"status":"done","name":"つばき児童遊園","address":"安満中の町7番","city":"高槻市","number":"11-3"}, 
 {"id":"0ad61676-48f8-489a-b799-8517a84d9189","lat":34.93681000,"long":135.50807600,"status":"done","name":"寺田集荷所フェンス","address":"牧・寺田","city":"豊能町","number":"6-4"}, 
 {"id":"0af6242c-6da9-4370-8b03-9e3bb0f2251b","lat":34.78274190,"long":135.46643530,"status":"done","name":"NTT東側大門公園金網塀","address":"北桜塚1丁目4番","city":"豊中市","number":"26_3"}, 
 {"id":"0afd10bf-f1b8-4ea8-9159-7604349264b5","lat":34.77551700,"long":135.53218600,"status":"done","name":"市立ことぶき保育園南フェンス","address":"岸部中２丁目２−１","city":"吹田市","number":"123-5"}, 
 {"id":"0afeba79-63a4-4439-a933-45c80258f2a0","lat":34.58040110,"long":135.55543184,"status":"done","name":"海泉池西側歩道防護柵","address":"松原市阿保4丁目","city":"松原市","number":"7-7"}, 
 {"id":"0b0ccffc-bcc5-4a4f-beea-8df206851c07","lat":34.63490300,"long":135.56298800,"status":"done","name":"加美北第２住宅２号棟北側植込","address":"平野区加美北 ８－１３","city":"大阪市","number":"674"}, 
 {"id":"0b0d7b20-8969-4c1f-9731-fb17e6dafe7b","lat":34.69783800,"long":135.47366300,"status":"done","name":"海老江上児童遊園地 南側 ブロック塀","address":"福島区海老江２丁目９番","city":"大阪市","number":"1555"}, 
 {"id":"0b10af12-0b14-4fbc-beac-db084efe2a7b","lat":34.68938200,"long":135.45841200,"status":"done","name":"市営高見住宅５１号棟南西側植込み","address":"此花区高見１－４","city":"大阪市","number":"1118"}, 
 {"id":"0b111e0a-cdce-47c3-a8f4-3208e4e05c15","lat":34.76668700,"long":135.50748000,"status":"done","name":"垂水上池公園東面","address":"円山町３","city":"吹田市","number":"151-4"}, 
 {"id":"0b1a5109-e140-4df7-ad61-537b732512ed","lat":34.50844920,"long":135.50837120,"status":"not_yet","name":"深阪小学校北角","address":"中区深阪5丁15-1","city":"堺市","number":"7"}, 
 {"id":"0b1beef1-d836-4318-a9f9-a5cd26209789","lat":34.40689260,"long":135.32730270,"status":"done","name":"第10投票区（市場東他）","address":"市場東泉の森唐池","city":"泉佐野市","number":"61"}, 
 {"id":"0b269052-f603-4ad3-8824-6407e9abca17","lat":34.57043530,"long":135.59600620,"status":"done","name":"藤井寺保健所東側(府道沿)","address":"藤井寺1丁目40-1","city":"藤井寺市","number":"17"}, 
 {"id":"0b2862cf-5e14-4d87-bcfa-c1dfbf236495","lat":34.60591900,"long":135.49391200,"status":"done","name":"市立墨江丘中学校 図書館寄り","address":"住吉区墨江４丁目１５番３４号","city":"大阪市","number":"177"}, 
 {"id":"0b2d6e62-63ce-4d22-aa37-8faf750b8f0f","lat":34.74771470,"long":135.56446780,"status":"done","name":"八雲中学校正門東側","address":"八雲西町3丁目5番21号","city":"守口市","number":"19-1"}, 
 {"id":"0b336856-113c-468a-a04b-0bb8be734610","lat":34.47245080,"long":135.48372290,"status":"done","name":"美木多中学校南門西側","address":"南区鴨谷台1丁47-1","city":"堺市","number":"4"}, 
 {"id":"0b3f5e5d-2cfe-4009-96fc-21f529f44ca1","lat":34.53757946,"long":135.60548920,"status":"done","name":"森田駐車場北側ブロック塀・フェンス","address":"西浦","city":"羽曳野市","number":"101"}, 
 {"id":"0b501dcd-9714-4f74-b4d3-cc11259b5553","lat":34.77387310,"long":135.61618640,"status":"done","name":"市立池田小学校東側","address":"池田2丁目1-7","city":"寝屋川市","number":"241"}, 
 {"id":"0b5023fa-da89-4cd5-bcd0-5c65abb6cfca","lat":34.82191700,"long":135.51418400,"status":"done","name":"藤白台保育園西フェンス","address":"藤白台４丁目８−１","city":"吹田市","number":"169-6"}, 
 {"id":"0b51b2c9-3f65-4487-a29a-a4504b4592ea","lat":34.50283161,"long":135.43702484,"status":"done","name":"旭公園（入り口）鉄柵","address":"幸一丁目8","city":"和泉市","number":"37-3"}, 
 {"id":"0b541aee-4049-4e62-b3ee-32053d45b048","lat":34.75544500,"long":135.48438270,"status":"done","name":"高川こども園東側金網塀","address":"小曽根4丁目7番1号","city":"豊中市","number":"35_2"}, 
 {"id":"0b58021a-85ec-48e9-bf53-6359fd4790bb","lat":34.49542740,"long":135.40612890,"status":"not_yet","name":"さつき児童公園北側F","address":"虫取町2-2","city":"泉大津市","number":"11-7"}, 
 {"id":"0b59631d-375f-4a44-a94d-358c19f8f55c","lat":34.48119770,"long":135.44083570,"status":"done","name":"芦部産業(株)コンクリート塀","address":"一条院町124","city":"和泉市","number":"8-4"}, 
 {"id":"0b5de3d1-575c-4815-a135-1ad85cd4bd40","lat":34.50624230,"long":135.42222750,"status":"done","name":"池園町児童公園西側","address":"池園町10","city":"泉大津市","number":"17-2"}, 
 {"id":"0b5efddd-ad11-4705-b286-0bf267434d35","lat":34.56601700,"long":135.52418500,"status":"done","name":"大泉緑地南西角","address":"北区金岡町128","city":"堺市","number":"2"}, 
 {"id":"0b60ea64-1577-4095-8576-af38774b9cf6","lat":34.45264740,"long":135.56446140,"status":"done","name":"文化会館駐車場フェンス","address":"西代町１６−５","city":"河内長野市","number":"3-2"}, 
 {"id":"0b60ff71-fafb-4897-baef-fbe8b56c6b8c","lat":34.85551670,"long":135.65214850,"status":"done","name":"バス停道鵜町","address":"道鵜町4丁目19番","city":"高槻市","number":"27-4"}, 
 {"id":"0b63e842-1981-4d5b-a433-cb70b04fcd4f","lat":34.74236130,"long":135.46209360,"status":"done","name":"阪急庄本踏切道横軌道金網塀","address":"庄本町2丁目1番","city":"豊中市","number":"44_1"}, 
 {"id":"0b6b1805-72ea-487f-be0d-cd00d3fa534d","lat":34.60673100,"long":135.52951000,"status":"done","name":"矢田部公園北側","address":"東住吉区矢田１－２２","city":"大阪市","number":"864"}, 
 {"id":"0b703e90-067d-4b46-b5e8-8dbc3397b36e","lat":34.66849860,"long":135.61259480,"status":"done","name":"玉川小学校 南側","address":"稲葉1丁目12番1号","city":"東大阪市","number":"216-3"}, 
 {"id":"0b7146c3-9d08-43ab-993b-34aa3d9d2835","lat":34.47829760,"long":135.40759890,"status":"not_yet","name":"中井公園","address":"中井町３丁目１７","city":"岸和田市","number":"164"}, 
 {"id":"0b724c1b-bb1e-4a24-96ad-5df3b7ebb63b","lat":34.68991100,"long":135.47320600,"status":"done","name":"吉野小学校 通用門右 鉄柵","address":"福島区吉野３丁目10番５号","city":"大阪市","number":"1533"}, 
 {"id":"0b7f714f-5b3e-40fe-83f7-2fb0450c2bd5","lat":34.49715090,"long":135.46754550,"status":"not_yet","name":"新日本工機駐車場南側","address":"南区高尾2丁500-1","city":"堺市","number":"4"}, 
 {"id":"0b8337fe-6fe0-4ace-9c5b-2b223ed5214f","lat":34.54341680,"long":135.45804380,"status":"done","name":"浜寺中学校南西側","address":"西区浜寺船尾町西5丁60","city":"堺市","number":"2"}, 
 {"id":"0b83bf2d-1c7f-49b1-8c48-9a70248d586a","lat":34.41432710,"long":135.36107640,"status":"not_yet","name":null,"address":"七山二丁目","city":"熊取町","number":"3-2"}, 
 {"id":"0b87fa6a-a29f-45a4-9f66-5ac1373d2448","lat":34.52272600,"long":135.43842290,"status":"done","name":"加茂中央公園","address":"加茂2-25-24付近","city":"高石市","number":"53"}, 
 {"id":"0b88d3eb-5af4-4218-85cd-29c7cd94f4c0","lat":34.72896500,"long":135.59768510,"status":"done","name":"市営北島住宅自治会館前植込み","address":"五月田町17番","city":"門真市","number":"179"}, 
 {"id":"0b9c29aa-4d72-499b-82d0-4026c16da356","lat":34.45415140,"long":135.55390990,"status":"not_yet","name":"府営千代田台住宅内グラウンド横フェンス","address":"小山田町４５１−１２１","city":"河内長野市","number":"23-4"}, 
 {"id":"0ba1a053-4145-40d2-a1b4-dc11660a9d2f","lat":34.75240480,"long":135.46084270,"status":"done","name":"福井橋南側水路鉄柵","address":"今在家町17番","city":"豊中市","number":"48_4"}, 
 {"id":"0bb1faaf-ece9-4736-a725-5144e7bd7d80","lat":34.85153780,"long":135.62692080,"status":"done","name":"八丁畷第一駐輪センター南側","address":"松原町1番","city":"高槻市","number":"2-7"}, 
 {"id":"0bb294c9-07a1-4688-bde7-7e99cee95521","lat":34.53112400,"long":135.48950200,"status":"not_yet","name":"清水こやま公園","address":"中区深井清水町3287","city":"堺市","number":"8"}, 
 {"id":"0bb34544-a32c-4fbc-a092-30755ea08519","lat":34.49263640,"long":135.50457130,"status":"done","name":"府営若松台第1住宅4-21棟南西側","address":"南区若松台1丁4","city":"堺市","number":"2"}, 
 {"id":"0bb7218c-7617-408f-9c7b-7066d196835f","lat":34.74676500,"long":135.53176900,"status":"done","name":"上新庄1丁目上新庄西北部区画整理事業下フェンス","address":"東淀川区上新庄2丁目8番23号付近","city":"大阪市","number":"994"}, 
 {"id":"0bcf51da-67d7-4560-87c0-653e7750457a","lat":34.84157650,"long":135.58939360,"status":"done","name":"㈱酉島製作所グラウンド北","address":"宮田町1丁目11番","city":"高槻市","number":"21-6"}, 
 {"id":"0bd4ebf5-dae4-4545-8a4f-8a509f6235f0","lat":34.83173580,"long":135.69956080,"status":"done","name":"長尾西町公園","address":"長尾西町１丁目4","city":"枚方市","number":"68-1"}, 
 {"id":"0bdc003e-c6b7-4bc4-b944-7a261a9a574c","lat":34.65169470,"long":135.59949170,"status":"done","name":"若江中学校 西側","address":"若江南町5丁目1番10号","city":"東大阪市","number":"225-5"}, 
 {"id":"0be17da2-4dc5-460d-8d77-8618bd61eb30","lat":34.44573580,"long":135.54389710,"status":"not_yet","name":"緑ケ丘北第一公園フェンス","address":"緑ケ丘中町１−３６","city":"河内長野市","number":"26-1"}, 
 {"id":"0be1e33b-c4c5-4f1e-82e7-3894024ecc51","lat":34.81581110,"long":135.58423940,"status":"done","name":"中津小学校正門横の塀","address":"中津町10-15","city":"茨木市","number":"41"}, 
 {"id":"0beb3934-dbd9-4947-bfa0-21644dfaf4cd","lat":34.71379100,"long":135.54357900,"status":"done","name":"新関目モータープール 北側フェンス","address":"城東区成育5丁目2番8号","city":"大阪市","number":"422"}, 
 {"id":"0bf09e03-349e-48e3-a39d-19f1ad11dde0","lat":34.37392910,"long":135.28567660,"status":"not_yet","name":"masked","address":"信達大苗代１００３","city":"泉南市","number":"123"}, 
 {"id":"0bf2fabb-927d-4e88-a192-e2edd17ec029","lat":34.43605870,"long":135.39151890,"status":"not_yet","name":"ＮＴＴ南大阪支店東岸和田別館前柵","address":"流木町１４７","city":"岸和田市","number":"107"}, 
 {"id":"0bf4f534-750b-47c4-95ed-a58b244d5367","lat":34.74815880,"long":135.61119190,"status":"done","name":"萱島駅前第二自転車駐車場向い河川","address":"萱島信和町２１","city":"寝屋川市","number":"17"}, 
 {"id":"0bf9d83f-d124-47e3-ae55-9d0131ad3a8c","lat":34.71539300,"long":135.56750500,"status":"done","name":"中村商事㈱　西側ブロック塀","address":"鶴見区緑３丁目７番９号","city":"大阪市","number":"1960"}, 
 {"id":"0bfae703-a0e0-4cb5-9efd-212fa91bb289","lat":34.81864580,"long":135.71457620,"status":"done","name":"藤阪東町南公園","address":"藤阪東町３丁目9","city":"枚方市","number":"59-2"}, 
 {"id":"0bfe97a8-cfb4-49a9-a3f3-4f4f2292f24d","lat":34.40091810,"long":135.36306280,"status":"done","name":null,"address":"希望が丘一丁目","city":"熊取町","number":"9-7"}, 
 {"id":"0c02d48a-cda1-46b9-abf8-1fdb04edc645","lat":34.50029420,"long":135.59480900,"status":"not_yet","name":"第一中学校北側","address":"寿町一丁目３－５","city":"富田林市","number":"4"}, 
 {"id":"0c0481c7-ca6c-4a49-b416-34dc639972b0","lat":34.42367188,"long":135.57422032,"status":"not_yet","name":"石仏小・加賀田中通学路入口付近","address":"加賀田１６０３−１","city":"河内長野市","number":"17-5"}, 
 {"id":"0c0af167-3cba-4c7f-8e1e-2bf71670f90b","lat":34.77965570,"long":135.69076080,"status":"done","name":"駐車場 進入口北側","address":"森南3-38","city":"交野市","number":"72"}, 
 {"id":"0c149d20-f29b-4130-a18d-a433444f7bd4","lat":34.84568020,"long":135.50574970,"status":"done","name":"粟生団地９棟　西側","address":"粟生間谷西４丁目２番内","city":"箕面市","number":"249"}, 
 {"id":"0c14f07d-3bea-4d37-aa0d-c743eeeffd4e","lat":34.79268400,"long":135.52899400,"status":"done","name":"山三保育園北面","address":"山田西１丁目２７−１５","city":"吹田市","number":"183-7"}, 
 {"id":"0c231328-93fa-47a0-b564-dabab9fd3b51","lat":34.65472000,"long":135.53259300,"status":"done","name":"大阪市立桃谷中学校西側鉄柵","address":"生野区勝山北3丁目13番44号","city":"大阪市","number":"1420"}, 
 {"id":"0c2d58ad-4249-4480-9833-9fab108e0d05","lat":34.64228400,"long":135.52261400,"status":"done","name":"市建設局道路予定地南面","address":"阿倍野区天王寺町南１－７","city":"大阪市","number":"1886"}, 
 {"id":"0c2f7797-d679-498d-a7e9-641777e31251","lat":34.48514180,"long":135.43186000,"status":"done","name":"みたち山2号公園鉄柵","address":"府中町五丁目5","city":"和泉市","number":"1-5"}, 
 {"id":"0c311e4e-dc95-40b8-b144-136a032e71fe","lat":34.65045200,"long":135.53099100,"status":"done","name":"市営生野東住宅1号館（南側植込み）","address":"生野区生野東1丁目1番30号","city":"大阪市","number":"1433"}, 
 {"id":"0c335178-3e00-42fb-9636-8e6950755c5e","lat":34.60158200,"long":135.49714700,"status":"done","name":"南海高野線我孫子前駅北側金網東側","address":"住吉区沢之町２丁目７番１６号","city":"大阪市","number":"190"}, 
 {"id":"0c3a68f7-9bdf-42ed-b123-6b3ca44f946c","lat":34.72392210,"long":135.56987180,"status":"done","name":"寺方元町4丁目第1児童公園","address":"寺方元町4丁目1番","city":"守口市","number":"7-2"}, 
 {"id":"0c3b99bf-5069-4dbb-983b-0f224886b204","lat":34.51621300,"long":135.43570240,"status":"done","name":"市管理地 東側","address":"綾園6-21-48付近","city":"高石市","number":"85"}, 
 {"id":"0c3c1fcb-c0dd-4c79-bd16-f9518b325398","lat":34.51764990,"long":135.42312720,"status":"done","name":"千代田ひつじ公園 北側","address":"千代田６−１５−８付近","city":"高石市","number":"14"}, 
 {"id":"0c3fcab7-bc22-4a6f-8b03-ed22b726ff0e","lat":34.35106150,"long":135.24468520,"status":"done","name":"府営石田団地 19棟前 市道側フェンス","address":"石田600-6","city":"阪南市","number":"11-8"}, 
 {"id":"0c41eaef-e9cf-44ac-b294-d5336555b9cc","lat":34.74122200,"long":135.54176300,"status":"done","name":"豊里中央公園北西側鉄柵","address":"東淀川区豊里5丁目14番14号","city":"大阪市","number":"1008"},