[{"id":"0006cd95-21a8-4ace-a4f4-5bea0442ca48","lat":35.52273250,"long":139.73068540,"status":"done","name":"masked","address":"川崎区池上新町2丁目17番21号","city":"川崎市","number":"160"}, 
 {"id":"000cdcd9-d6a3-44df-ad75-e949c8745018","lat":35.60761210,"long":139.47735030,"status":"done","name":"栗木台すげ沢公園 北側フェンス","address":"麻生区栗木台1丁目8番","city":"川崎市","number":"134"}, 
 {"id":"0010a051-fe79-4056-8d23-0b5b38262ea4","lat":35.54783173,"long":139.51533930,"status":"done","name":"青葉台中学校正門横","address":"青葉区青葉台二丁目25番地２","city":"横浜市","number":"13-033"}, 
 {"id":"0011fbe5-c491-46cc-8bc4-bfe5e773d03b","lat":35.35742470,"long":139.32724010,"status":"done","name":"ブロック塀","address":"豊田本郷1794","city":"平塚市","number":"30ー2"}, 
 {"id":"0012decb-9194-42fd-a1ce-3a094ecbd419","lat":35.34921300,"long":139.40461510,"status":"done","name":"鶴が台団地15-5棟 北側","address":"鶴が台15番5号","city":"茅ヶ崎市","number":"292"}, 
 {"id":"0015a300-e2f8-4b93-bc01-e8d7535a4805","lat":35.35359626,"long":139.56832170,"status":"done","name":"桂山公園内東側","address":"栄区桂台中16番","city":"横浜市","number":"16-129"}, 
 {"id":"00175331-c829-4c27-beed-0281e67084a4","lat":35.36191445,"long":139.58280660,"status":"done","name":"みどりが丘会館横方ガードレール","address":"栄区東上郷町26番","city":"横浜市","number":"16-166"}, 
 {"id":"001bbba8-a37b-4128-ad3e-65eb5dfb87f6","lat":35.42000900,"long":139.47379530,"status":"done","name":"県営滝ノ上ハイツ2号棟北側","address":"高倉2425","city":"藤沢市","number":"364"}, 
 {"id":"001d31a4-20eb-4571-b424-e520288288ea","lat":35.47275470,"long":139.44104120,"status":"done","name":"コミュニティセンター桜森会館北側","address":"桜森3－5－21","city":"大和市","number":"141"}, 
 {"id":"001d75bd-2afd-47c2-8040-a0e05b8c6694","lat":35.30465045,"long":139.12185120,"status":"done","name":"96","address":null,"city":"南足柄市","number":"96"}, 
 {"id":"001f1f07-db04-4976-b413-a44376390676","lat":35.59216920,"long":139.36745270,"status":"done","name":"206小山ふれあい広場","address":"中央区","city":"相模原市","number":"150"}, 
 {"id":"00219bf7-281c-48b3-8005-b57922adffcc","lat":35.57224980,"long":139.61406430,"status":"done","name":"野川中耕地公園東側フェンス","address":"宮前区南野川3丁目32番1号","city":"川崎市","number":"66"}, 
 {"id":"00223fca-8202-43d2-acfb-51f5841ea747","lat":35.40677690,"long":139.30926910,"status":"done","name":"下糟屋公会堂","address":"下糟屋 2289番地","city":"伊勢原市","number":"48"}, 
 {"id":"002d8831-eead-4c67-ac83-5c8a9f804332","lat":35.23827308,"long":139.65561160,"status":"done","name":"信号脇歩道石垣","address":"横須賀市山科台35番","city":"横須賀市","number":"79-3"}, 
 {"id":"002e1a0f-5d26-411d-8d67-d792eb9f162e","lat":35.36763274,"long":139.53411530,"status":"done","name":"飯島すずみどう公園向いガードレール","address":"栄区飯島町161番地","city":"横浜市","number":"16-049"}, 
 {"id":"0037b105-fa29-47c6-9333-a4b3ed86be71","lat":35.52094880,"long":139.68664460,"status":"done","name":"バードウッド前植え込み","address":"鶴見区市場上町10番","city":"横浜市","number":"01-044"}, 
 {"id":"0037bb4e-44b8-4716-8cd0-f195d2836d1d","lat":35.48775536,"long":139.51985200,"status":"done","name":"バス停「下宿」向い植栽","address":"旭区都岡町10番地","city":"横浜市","number":"08-200"}, 
 {"id":"0038c699-3003-4ab1-816d-c6b1d978d82b","lat":35.32895070,"long":139.43566420,"status":"done","name":"松浪中学校 正門 南側フェンス","address":"松浪二丁目6番47号","city":"茅ヶ崎市","number":"246"}, 
 {"id":"003a10e4-81a1-4792-be99-6baec29451a5","lat":35.35251360,"long":139.54903220,"status":"done","name":"岩瀬保育園フェンス","address":"岩瀬1526番地","city":"鎌倉市","number":"32-5"}, 
 {"id":"003a910b-dcc0-469f-90d3-6dc9ee2f1391","lat":35.51137680,"long":139.70229190,"status":"done","name":"小田小学校西側植込み (位置情報が見つかりませんでした)","address":"川崎区小田4丁目12番24号","city":"川崎市","number":"106"}, 
 {"id":"005632d7-50f4-44a4-bbc8-e2a0c9b17f29","lat":35.51447110,"long":139.42941620,"status":"done","name":"265さがみ南公園前","address":"南区","city":"相模原市","number":"475"}, 
 {"id":"0062b438-2b85-49fa-b33c-c00c1ee2304c","lat":35.59599530,"long":139.60848580,"status":"done","name":"社会復帰訓練所フェンス","address":"高津区末長1丁目3番8号","city":"川崎市","number":"117"}, 
 {"id":"00652b10-911c-41c5-9c28-371e1a69cdb0","lat":35.59154850,"long":139.35440010,"status":"done","name":"14東橋本公園","address":"緑区","city":"相模原市","number":"602"}, 
 {"id":"007acf53-3cd5-4d87-b5c0-ba6e5de7a6a9","lat":35.51177522,"long":139.58328410,"status":"done","name":"東本郷六丁目第二公園鉄柵","address":"緑区東本郷六丁目１７","city":"横浜市","number":"12-157"}, 
 {"id":"008ab9e7-8bd7-4091-bac5-c8820003acb3","lat":35.35866130,"long":139.10103500,"status":"done","name":"グリーンタウン園地前フェンス","address":"向原227番地の17","city":"山北町","number":"35"}, 
 {"id":"009170d5-38b3-4f2f-84af-984ad862693b","lat":35.45006600,"long":139.48698500,"status":"done","name":"南瀬谷一丁目公園西側植込","address":"瀬谷区南瀬谷一丁目79番地の2","city":"横浜市","number":"18-108"}, 
 {"id":"0091ef06-23c1-4e9f-a8ad-da2ddb125f9b","lat":35.32340830,"long":139.43238070,"status":"done","name":"緑が浜小学校 西側フェンス","address":"緑が浜1番1号","city":"茅ヶ崎市","number":"215"}, 
 {"id":"0094766b-ad45-4c27-ae60-9b2aebc961b2","lat":35.57633040,"long":139.58354940,"status":"done","name":"有馬つつじ公園西側フェンス","address":"宮前区有馬3丁目11番1号","city":"川崎市","number":"85"}, 
 {"id":"009a259b-0231-448b-bd58-a26fde51b347","lat":35.34335730,"long":139.45255770,"status":"done","name":"丸山公園南側","address":"羽鳥1丁目1001-6","city":"藤沢市","number":"232"}, 
 {"id":"009f0bdc-a9e8-4360-ad93-205d9659c0ca","lat":35.37760670,"long":139.27095540,"status":"done","name":"鶴巻小学校正門横フェンス","address":"鶴巻2240番地の1","city":"秦野市","number":"169"}, 
 {"id":"00b11ad7-16e8-4e04-ace4-b020efb796c5","lat":35.27549210,"long":139.57331090,"status":"done","name":"鎌摺児童遊園","address":"堀内 47番地","city":"葉山町","number":"50"}, 
 {"id":"00b87063-6423-4b86-b9b6-ac2d68589b43","lat":35.62943050,"long":139.52688590,"status":"done","name":"菅小谷公園入口階段左側ブロック塀","address":"多摩区菅仙谷2丁目17番","city":"川崎市","number":"174"}, 
 {"id":"00bab2ca-4a6e-409d-8d48-3eba9f3b5f50","lat":35.53047750,"long":139.37823290,"status":"done","name":"276中丸第２雨水調整池前","address":"南区","city":"相模原市","number":"484"}, 
 {"id":"00c99d36-2087-4232-9445-5c0d07e0718b","lat":35.32143260,"long":139.44891410,"status":"done","name":"辻堂海浜公園金網(プール北側)","address":"辻堂西海岸3丁目2","city":"藤沢市","number":"486"}, 
 {"id":"00ced959-8f31-4cee-8076-63b1aaf3fba6","lat":35.27570988,"long":139.65776070,"status":"done","name":"宮元駐車場フェンス","address":"横須賀市汐入町4丁目45番地","city":"横須賀市","number":"15-6"}, 
 {"id":"00d4bdc9-54ee-491d-8def-cf53c7d602dc","lat":35.35449730,"long":139.47472760,"status":"done","name":"小田急線脇土手(寿荘向かい)","address":"花の木18","city":"藤沢市","number":"20"}, 
 {"id":"00d4deba-ad18-452f-8f82-8405051d3f64","lat":35.35674705,"long":139.58039890,"status":"done","name":"庄戸郵便局前交差点緑地帯","address":"栄区上郷町1,036番地","city":"横浜市","number":"16-165"}, 
 {"id":"00d5f6c6-cda1-470a-a351-95e96617b99e","lat":35.36898080,"long":139.17846390,"status":"done","name":"渋沢小学校南側駐車場フェンス","address":"渋沢上1丁目12番1号","city":"秦野市","number":"255"}, 
 {"id":"00dab426-a5b4-4b79-90eb-b5eb5cafc4bb","lat":35.40954650,"long":139.46048330,"status":"done","name":"長後中学校入口右側","address":"下土棚586","city":"藤沢市","number":"328"}, 
 {"id":"00e741cd-1e6b-4923-8940-878120a9b1ca","lat":35.38619368,"long":139.56925030,"status":"done","name":"市営野庭住宅C-4号棟金網","address":"港南区野庭町629番地の４","city":"横浜市","number":"06-139"}, 
 {"id":"00e88030-5027-4a65-bc33-715d94ab979a","lat":35.22678078,"long":139.61277860,"status":"done","name":"佐島の丘公園鉄柵（なぎさの丘案内センター側）","address":"横須賀市佐島の丘2丁目16番","city":"横須賀市","number":"81-5"}, 
 {"id":"00faa485-51a7-4d6d-a87f-8c251b3fb30e","lat":35.23708776,"long":139.14383650,"status":"done","name":"354","address":null,"city":"小田原市","number":"354"}, 
 {"id":"00faaef4-52d7-4505-92aa-dd694d7ed879","lat":35.40114470,"long":139.46757530,"status":"done","name":"湘南台小学校正門南側","address":"湘南台5丁目23","city":"藤沢市","number":"395"}, 
 {"id":"01093888-43ee-4fa2-9c5f-f51eed8190ff","lat":35.36675360,"long":139.21706240,"status":"done","name":"南小学校南側フェンス","address":"今泉699番地","city":"秦野市","number":"63"}, 
 {"id":"012e36e1-d8d8-441f-82c8-d4885d9ad590","lat":35.61245340,"long":139.53539790,"status":"done","name":"錦ヶ丘南公園フェンス","address":"多摩区栗谷3丁目18番","city":"川崎市","number":"145"}, 
 {"id":"012fe5d2-d7c0-4681-87c3-d1857f37afd5","lat":35.53517340,"long":139.44805630,"status":"done","name":"163谷口小学校南側","address":"南区","city":"相模原市","number":"397"}, 
 {"id":"013ddbc1-ed9c-49ca-8bab-c1b556600a69","lat":35.44157563,"long":139.60668980,"status":"done","name":"ＵＲコンフォール清水ヶ丘１号棟斜向植込","address":"南区清水ケ丘238番地","city":"横浜市","number":"05-082"}, 
 {"id":"013f3bb1-2e2a-412e-9c08-bf138037a573","lat":35.25346006,"long":139.69459690,"status":"done","name":"よこすか四季の街パークヒルズ裏路上","address":"横須賀市池田町1丁目11番先","city":"横須賀市","number":"41-2"}, 
 {"id":"01440425-d1f2-49c0-9052-c23ad447ecfe","lat":35.35559876,"long":139.56014330,"status":"done","name":"桂台第二公園内","address":"栄区桂台西二丁目42番","city":"横浜市","number":"16-125"}, 
 {"id":"0145d79a-614b-4766-b13b-74f82e5d6cf2","lat":35.43594470,"long":139.35605410,"status":"done","name":"厚木市文化会館南側塀","address":"恩名1-9-20","city":"厚木市","number":"31"}, 
 {"id":"01491440-8b9f-4e53-acf9-8975769a0dfc","lat":35.37598260,"long":139.36328850,"status":"done","name":"市立神田小学校南側","address":"田村六丁目1－1","city":"平塚市","number":"42ー3"}, 
 {"id":"0149a1eb-1f59-494d-bca1-24c297c291e8","lat":35.42678754,"long":139.50638330,"status":"done","name":"弥生台南公園","address":"泉区弥生台53番地","city":"横浜市","number":"17-035"}, 
 {"id":"014a119e-8418-43d1-b06b-6ef58012311d","lat":35.23915539,"long":139.67591090,"status":"done","name":"商店前大矢部小学校擁壁","address":"横須賀市大矢部3丁目26番地","city":"横須賀市","number":"38-4"}, 
 {"id":"014c6bfe-c127-4938-8353-9d6d78f6335b","lat":35.56907650,"long":139.34632380,"status":"done","name":"374四ツ谷さくら橋横緑地帯","address":"中央区","city":"相模原市","number":"280"}, 
 {"id":"01502065-6d37-436b-8e2a-adc57355afb2","lat":35.24901476,"long":139.66959730,"status":"done","name":"調整池フェンス","address":"横須賀市小矢部3丁目16番","city":"横須賀市","number":"36-7"}, 
 {"id":"015243d9-5a06-42cb-b40c-330eb3943dca","lat":35.47071470,"long":139.31940260,"status":"done","name":"masked","address":"飯山4467","city":"厚木市","number":"45"}, 
 {"id":"01555079-5a20-4138-abe3-6edfc0b4cd0d","lat":35.45401210,"long":139.55842420,"status":"done","name":"バス停「左近山第５」脇植栽","address":"旭区左近山448番地","city":"横浜市","number":"08-044"}, 
 {"id":"0156f3f2-9c8d-453c-9b8b-251da5d13b5c","lat":35.53794043,"long":139.63519920,"status":"done","name":"パークサイドレジデンス石垣上フェンス","address":"港北区綱島西一丁目４番13号","city":"横浜市","number":"11-192"}, 
 {"id":"015a9299-5be5-4c9a-bed8-3e828b0d068e","lat":35.42962880,"long":139.35841400,"status":"done","name":"すみれ公園東側フェンス","address":"南町24","city":"厚木市","number":"22"}, 
 {"id":"0170682f-8f9b-4620-b0f7-faaa45989e9a","lat":35.54258169,"long":139.51637600,"status":"done","name":"青葉台東急スクエアSouth-1前ガードパイプ","address":"青葉区青葉台二丁目５番地１","city":"横浜市","number":"13-037"}, 
 {"id":"0179c44e-3504-4291-a097-751e60e69123","lat":35.58391570,"long":139.63516720,"status":"done","name":"ＪＲ・鎌倉車両センター中原支所事務所前フェンス","address":"中原区上小田中5丁目13番","city":"川崎市","number":"189"}, 
 {"id":"017f03d7-4f49-4672-95d6-fd729fcf86f8","lat":35.57744020,"long":139.56876210,"status":"done","name":"鷺沼小学校南側フェンス","address":"宮前区鷺沼2丁目1番地1","city":"川崎市","number":"92"}, 
 {"id":"018a45b9-5a67-4f67-a07b-a414e5c3c618","lat":35.49478400,"long":139.61834200,"status":"done","name":"放課後等デイサービスふくろうの杜向ガードレール","address":"港北区岸根町725番地","city":"横浜市","number":"11-047"}, 
 {"id":"01900b4e-9c2e-4eb4-8876-64efeb7f7e83","lat":35.41598604,"long":139.49176040,"status":"done","name":"和泉バス停横フェンス","address":"泉区和泉中央南四丁目９番１号","city":"横浜市","number":"17-105"}, 
 {"id":"01957367-0ce9-4532-bd91-8077ab045908","lat":35.40344324,"long":139.59856980,"status":"done","name":"ランドシティ上大岡Ｌｕｘｅ裏手ガードレール","address":"港南区上大岡東二丁目44番","city":"横浜市","number":"06-022"}, 
 {"id":"01ae7e8d-f5a4-47e8-9fe0-9a9872d5595e","lat":35.44176607,"long":139.48037510,"status":"done","name":"いずみ芙蓉苑前ガ−ドレール","address":"泉区上飯田町4,631番地","city":"横浜市","number":"17-008"}, 
 {"id":"01b5bf07-8910-40f7-9511-cb185f14d6bb","lat":35.53230530,"long":139.72313280,"status":"done","name":"伊勢町第二公園西側植込み (位置情報が見つかりませんでした)","address":"川崎区伊勢町21番","city":"川崎市","number":"174"}, 
 {"id":"01b5c5bb-ed1e-494f-a010-760712d1dbda","lat":35.38036260,"long":139.13966630,"status":"done","name":"masked","address":"寄 927 番地","city":"松田町","number":"48"}, 
 {"id":"01c3f8a2-6596-429a-8f89-b6b5a563e929","lat":35.40233522,"long":139.59157950,"status":"done","name":"港南中学校校門横金網","address":"港南区港南中央通６番１号","city":"横浜市","number":"06-024"}, 
 {"id":"01c66415-c8a8-42d6-950d-92a0e8375503","lat":35.33369280,"long":139.47902050,"status":"done","name":"鵠沼中学校東側","address":"鵠沼桜が岡4丁目3-37","city":"藤沢市","number":"111"}, 
 {"id":"01cbbe67-83d5-4e28-88c0-3c30e3f1708f","lat":35.38421109,"long":139.53032770,"status":"done","name":"戸塚町南第二公園（ﾌｪﾝｽ取付）","address":"戸塚区戸塚町2680番地の26","city":"横浜市","number":"15-240"}, 
 {"id":"01cc2f5b-d4a2-4ffd-91fd-78d423a5cb5a","lat":35.44349536,"long":139.48260460,"status":"done","name":"masked","address":"泉区上飯田町4,665番地の13","city":"横浜市","number":"17-016"}, 
 {"id":"01d48bf7-99c7-4497-a6a6-b07071eb5dc4","lat":35.59420290,"long":139.21049420,"status":"done","name":"masked","address":"緑区","city":"相模原市","number":"895"}, 
 {"id":"01d79eb1-de31-4637-bf93-ea0d1ef1ede1","lat":35.32288610,"long":139.15464020,"status":"done","name":"masked","address":"上大井５番地３","city":"大井町","number":"37"}, 
 {"id":"01e07b48-4ea1-4657-be2f-3755851e152d","lat":35.53002460,"long":139.33525050,"status":"done","name":"大塚中児童遊園地横空地","address":"中津 1968","city":"愛川町","number":"56"}, 
 {"id":"01e5346c-7379-455e-a71d-398ef737e050","lat":35.50044857,"long":139.53021940,"status":"done","name":"ひかりが丘第二公園西側柵","address":"旭区上白根町868番地25","city":"横浜市","number":"08-243"}, 
 {"id":"01ec13a1-d1cb-4ac7-8073-844d1d507752","lat":35.59966260,"long":139.60035210,"status":"done","name":"市営下作延中住宅フェンス","address":"高津区下作延5丁目8番","city":"川崎市","number":"55"}, 
 {"id":"01f0fbe5-0da3-4e75-bff3-fd0ad8bbe13b","lat":35.57879470,"long":139.36610470,"status":"done","name":"176相模原２丁目すみれ公園西側","address":"中央区","city":"相模原市","number":"128"}, 
 {"id":"01f6a91e-7ef0-4153-8efe-ca36d74187ba","lat":35.50474280,"long":139.36434490,"status":"done","name":"masked","address":"山際1256","city":"厚木市","number":"29"}, 
 {"id":"01f995d3-0272-44f2-85f8-b3b6602a8a6a","lat":35.50183631,"long":139.60661910,"status":"done","name":"鳥山町公園前ガードレール","address":"港北区鳥山町616番地","city":"横浜市","number":"11-084"}, 
 {"id":"01ffd104-86b4-476e-9861-2e75566b6de3","lat":35.46657150,"long":139.40302930,"status":"done","name":"上星小学校北側フェンス","address":"上今泉一丁目23番１号","city":"海老名市","number":"６ - ２"}, 
 {"id":"02048aa2-a71c-414b-b45d-180e5f5fd3a0","lat":35.27046519,"long":139.64321530,"status":"done","name":"池上7丁目公園西側植込","address":"横須賀市池上7丁目31番","city":"横須賀市","number":"86-5"}, 
 {"id":"0205974c-1147-4a9d-998d-06fe03a96f98","lat":35.36178740,"long":139.56258740,"status":"done","name":"中野町左近公園内ガードパイプ","address":"栄区中野町1,070番地","city":"横浜市","number":"16-112"}, 
 {"id":"020d5098-47ca-49bc-9900-45ee798f4fa1","lat":35.55276011,"long":139.64267350,"status":"done","name":"日吉台小学校校門横フェンス","address":"港北区日吉本町一丁目34番21号","city":"横浜市","number":"11-236"}, 
 {"id":"020f7b72-282c-4260-85e4-f4e132b5b6ae","lat":35.33107820,"long":139.15501100,"status":"done","name":"金手児童公園","address":"金子9番地4","city":"大井町","number":"28"}, 
 {"id":"0215cc3e-71ec-4773-bc2f-95a258e86b0f","lat":35.60388830,"long":139.57114760,"status":"done","name":"市営高山団地16号棟南側","address":"宮前区平2丁目23番16号","city":"川崎市","number":"127"}, 
 {"id":"021d0530-a315-4c67-893e-ebca64dcb0b9","lat":35.42925780,"long":139.58867190,"status":"done","name":"月極有料駐車場南側コンクリート塀","address":"南区永田山王台35番","city":"横浜市","number":"05-236"}, 
 {"id":"021d94bc-3eb8-4000-8c6d-bf4e753d6284","lat":35.51924730,"long":139.72425020,"status":"done","name":"桜川公園北側フェンス","address":"川崎区桜本1丁目16番","city":"川崎市","number":"144"}, 
 {"id":"0226bdd3-fe02-4de1-88e7-d50dba9c17bb","lat":35.24119450,"long":138.99171870,"status":"done","name":"桃源台公衆トイレ前(湖尻中継ポンプ場)","address":"元箱根164番地16","city":"箱根町","number":"71"}, 
 {"id":"0235f1f0-8dfe-4e93-a3ac-c85176e8d743","lat":35.50704990,"long":139.34399280,"status":"done","name":"中津 2760 番地駐車場(信号角)","address":"中津 2760-1","city":"愛川町","number":"58"}, 
 {"id":"023d829a-8d0a-4358-99c7-76552c071e1f","lat":35.46285800,"long":139.49924500,"status":"done","name":"三ツ境公園西側植込","address":"瀬谷区三ツ境179番地の23","city":"横浜市","number":"18-113"}, 
 {"id":"0248e08b-dacd-47a0-82a9-ac933072ea73","lat":35.34480150,"long":139.18726680,"status":"done","name":"高尾バスターミナル前梅畑 (位置情報が見つかりませんでした)","address":"高尾４１１番地１","city":"大井町","number":"53"}, 
 {"id":"025c62e6-42c9-45a8-9e06-97b8d3182fb6","lat":35.44327534,"long":139.60203520,"status":"done","name":"富士見台小学校北側正門横フェンス","address":"保土ケ谷区岩井町307番地","city":"横浜市","number":"07-060"}, 
 {"id":"025d37c6-91f0-4823-9024-eb04a0b4d897","lat":35.32074870,"long":139.35643610,"status":"done","name":"市立太洋中学校北側フェンス","address":"高浜台7－1","city":"平塚市","number":"8ー2"}, 
 {"id":"02623125-b227-4257-8463-4fae7e1384a0","lat":35.28801520,"long":139.59145150,"status":"done","name":"長柄御霊神社前","address":"長柄 774番地先","city":"葉山町","number":"59"}, 
 {"id":"0269b1c7-7f91-41fe-8d0c-7c8078674ae7","lat":35.54599840,"long":139.36950710,"status":"done","name":"354虹吹公園","address":"中央区","city":"相模原市","number":"264"}, 
 {"id":"026a9f39-5e8f-4bbd-9a9d-cb107c9e3b5f","lat":35.27945189,"long":139.18691300,"status":"done","name":"156","address":"中里１７２−６","city":"小田原市","number":"156"}, 
 {"id":"026ef4f4-f72e-422c-bda9-e66c3255f32e","lat":35.26442102,"long":139.16084760,"status":"done","name":"51","address":"扇町２丁目３−２","city":"小田原市","number":"51"}, 
 {"id":"027013df-9054-4fb0-90b7-75aa7b0d8fc8","lat":35.43476480,"long":139.32709280,"status":"done","name":"かつらぎ公園北側ガードパイプ","address":"毛利台3-26","city":"厚木市","number":"1"}, 
 {"id":"0283fa5d-3e0b-4cae-bcaa-ae61913ba5bf","lat":35.56364990,"long":139.20572120,"status":"done","name":"353梶野児童遊園地フェンス","address":"緑区","city":"相模原市","number":"845"}, 
 {"id":"0297f30f-4f0d-4502-9a8d-5b14129032f5","lat":35.37342911,"long":139.56837520,"status":"done","name":"港南台原公園入口横植込","address":"港南区港南台九丁目11番","city":"横浜市","number":"06-275"}, 
 {"id":"029851e1-45ef-44e7-82e9-54790439d0f3","lat":35.44529255,"long":139.62354900,"status":"done","name":"ガードレール","address":"西区東ケ丘47番地先","city":"横浜市","number":"03-119"}, 
 {"id":"0298b392-fdb5-4820-9993-b51ff52c9a5e","lat":35.54657130,"long":139.67511630,"status":"done","name":"東小倉小学校　西側グランド入口フェンス","address":"幸区東小倉1番1号","city":"川崎市","number":"98"}, 
 {"id":"02a012cd-7ce2-4053-9c8f-6fb6319aaff4","lat":35.58474820,"long":139.65597040,"status":"done","name":"小杉陣屋町中公園","address":"中原区小杉陣屋町2丁目9番","city":"川崎市","number":"39"}, 
 {"id":"02a36af7-8b36-45da-9596-ad0819c7d895","lat":35.35550160,"long":139.64182850,"status":"done","name":"並木第四小学校正門側フェンス","address":"金沢区並木三丁目10番","city":"横浜市","number":"10-206"}, 
 {"id":"02a8b815-bb24-4a09-8d90-fc40f4818d04","lat":35.54429808,"long":139.52044750,"status":"done","name":"青葉台第三公園前ガードレール","address":"青葉区青葉台一丁目11番地","city":"横浜市","number":"13-036"}, 
 {"id":"02a95490-8420-444d-910a-53dd9526e75d","lat":35.43567800,"long":139.44129100,"status":"done","name":"鶴ヶ台公園フェンス","address":"深谷中７丁目２２７２−２２","city":"綾瀬市","number":"19"}, 
 {"id":"02b41d91-8366-4dfe-b699-d1f32b7117ce","lat":35.55834467,"long":139.60050190,"status":"done","name":"東山田ゆうやけ公園入口脇植込","address":"都筑区東山田三丁目15番","city":"横浜市","number":"14-042"}, 
 {"id":"02d2d5a3-5d95-411e-96f1-e2655e79f9e7","lat":35.25148393,"long":139.72376800,"status":"done","name":"立野アパート汚水処理場金網","address":"横須賀市二葉1丁目31番","city":"横須賀市","number":"49-2"}, 
 {"id":"02d76038-909f-430f-9753-a90256ef06fc","lat":35.36185530,"long":139.08338980,"status":"done","name":"旧山北町役場庁舎跡地","address":"山北1356番地","city":"山北町","number":"8"}, 
 {"id":"02e1448f-6225-4824-920d-36ae0f99b51b","lat":35.46824000,"long":139.48058500,"status":"done","name":"横浜さがみ幼稚園西側植込","address":"瀬谷区瀬谷四丁目26番地の3","city":"横浜市","number":"18-065"}, 
 {"id":"02e16242-a237-45ca-a6e5-561669187912","lat":35.54459450,"long":139.29681860,"status":"done","name":"三増公園入口空地","address":"三増1880","city":"愛川町","number":"36"}, 
 {"id":"02e40784-2143-4507-8bac-2f6f9d6c34e7","lat":35.31642957,"long":139.61539290,"status":"done","name":"湘南鷹取6丁目公園","address":"横須賀市湘南鷹取6丁目10番","city":"横須賀市","number":"2-10"}, 
 {"id":"02e51c86-802b-4025-896a-2d0795d3d12b","lat":35.47881704,"long":139.61648550,"status":"done","name":"植込","address":"神奈川区三ツ沢下町21番先","city":"横浜市","number":"02-157"}, 
 {"id":"02e5caeb-1563-46df-8baa-433ac91f9ffa","lat":35.47890122,"long":139.63068680,"status":"done","name":"小児療育相談センター","address":"神奈川区西神奈川一丁目９番地１","city":"横浜市","number":"02-127"}, 
 {"id":"02e85a89-c124-4bf4-80f2-738ebec91000","lat":35.24689700,"long":139.14276100,"status":"done","name":"110","address":"板橋１８５","city":"小田原市","number":"110"}, 
 {"id":"02f3a705-bb43-4b6b-9ad0-ec160705be78","lat":35.53838460,"long":139.35818750,"status":"done","name":"327田名塩田１丁目８番８号先植栽帯","address":"中央区","city":"相模原市","number":"244"}, 
 {"id":"02f40d4b-1b94-46b0-a786-947adf55574e","lat":35.43085154,"long":139.51778370,"status":"done","name":"新橋宮古公園左側入口横","address":"泉区新橋町33番地の２","city":"横浜市","number":"17-042"}, 
 {"id":"02f5cddc-a18b-432d-8d07-0dd91717d571","lat":35.45642357,"long":139.63206600,"status":"done","name":"クイーンズイースト北側ガードレール、陸橋の下","address":"西区みなとみらい二丁目３番先","city":"横浜市","number":"03-160"}, 
 {"id":"02fbc8fb-05b7-44df-b486-7c257a8f8998","lat":35.40519082,"long":139.53436560,"status":"done","name":"矢部東公園","address":"戸塚区矢部町165番地の2","city":"横浜市","number":"15-129"}, 
 {"id":"0306f045-19f2-49ac-9504-367eb27d7323","lat":35.49495712,"long":139.60124660,"status":"done","name":"菅田町松葉公園","address":"神奈川区菅田町2,851番地","city":"横浜市","number":"02-069"}, 
 {"id":"030badc7-e02c-418f-a1cc-55288f4d6f1d","lat":35.49219040,"long":139.43802200,"status":"done","name":"緑の広場11号北側","address":"南林間7-14","city":"大和市","number":"91"}, 
 {"id":"030e36c5-ea95-4471-977f-c1c0f7b50879","lat":35.58730870,"long":139.57369900,"status":"done","name":"神奈川トヨタ㈱宮前平店北側水路沿いフェンス","address":"宮前区土橋1丁目15番地2","city":"川崎市","number":"106"}, 
 {"id":"031091e0-2686-4b3b-a733-ea03c9130520","lat":35.49318187,"long":139.52068430,"status":"done","name":"川井小学校正門前ガードレール","address":"旭区川井宿町29番地","city":"横浜市","number":"08-232"}, 
 {"id":"031de8de-4f7f-490f-88cd-adec4b1b5b9c","lat":35.52254050,"long":139.69895520,"status":"done","name":"渡田新町公園北側植込み左端","address":"川崎区渡田新町1丁目5番","city":"川崎市","number":"49"}, 
 {"id":"031f861e-870c-4476-8c58-304d95a45dc6","lat":35.45862322,"long":139.62269590,"status":"done","name":"西土木事務所管理地金網","address":"西区桜木町７丁目42番地","city":"横浜市","number":"03-096"}, 
 {"id":"0321cb8e-6c60-46a3-9279-dc1e2b1d072f","lat":35.42922543,"long":139.64539200,"status":"done","name":"竹之丸公園鉄柵","address":"中区竹之丸31−９","city":"横浜市","number":"04-075"}, 
 {"id":"0322a3bb-7024-4ba6-a410-1a479c6c00e7","lat":35.56638620,"long":139.37083030,"status":"done","name":"31千代田２丁目１番１８号前緑地帯","address":"中央区","city":"相模原市","number":"16"}, 
 {"id":"03242112-d435-432c-a1db-5d1753d40e12","lat":35.39394764,"long":139.49153850,"status":"done","name":"masked","address":"泉区下和泉二丁目14番","city":"横浜市","number":"17-198"}, 
 {"id":"032b0742-b22b-4847-b3b3-8204420df70c","lat":35.52568579,"long":139.63256620,"status":"done","name":"大曽根第二公園内植込","address":"港北区大曽根一丁目12番","city":"横浜市","number":"11-156"}, 
 {"id":"032b66d6-2258-4f53-bee0-0018dda75830","lat":35.54127112,"long":139.51802470,"status":"done","name":"バス停「つつじ橋」先ガードパイプ","address":"青葉区つつじが丘９番地１","city":"横浜市","number":"13-056"}, 
 {"id":"032cb91f-e5f6-450b-85b9-e2bb5fc8f040","lat":35.51598645,"long":139.68811990,"status":"done","name":"コインパーキング前三角緑地帯","address":"鶴見区市場富士見町６番","city":"横浜市","number":"01-054"}, 
 {"id":"0336a6a1-52df-4c9b-832e-926bd4bf5bf8","lat":35.55659710,"long":139.67379020,"status":"done","name":"県立川崎工科高校正門横フェンス","address":"中原区上平間1700番地7","city":"川崎市","number":"94"}, 
 {"id":"033a4abf-a1b1-429c-8d37-3bc78e04891e","lat":35.35158540,"long":139.53437310,"status":"done","name":"大船小学校南側フェンス","address":"大船二丁目8番1号","city":"鎌倉市","number":"34-7"}, 
 {"id":"033cc7ce-8b6b-41cb-b7ce-12b00097af23","lat":35.21363991,"long":139.69347300,"status":"done","name":"ﾁｭﾘｽｶﾞｰﾃﾞﾝ湘南野比ｲｰｽﾄ2番館下道路ｶﾞｰﾄﾞﾚｰﾙ","address":"横須賀市野比3丁目12番","city":"横須賀市","number":"69-7"}, 
 {"id":"033d3ae9-1fa1-4efc-a384-b07467f0de6c","lat":35.51677062,"long":139.65002570,"status":"done","name":"獅子ケ谷一丁目公園植え込み","address":"鶴見区獅子ケ谷一丁目13番","city":"横浜市","number":"01-205"}, 
 {"id":"0342875b-5c89-4e6b-86d9-8db36136218c","lat":35.51201860,"long":139.43548560,"status":"done","name":"247相模カンツリ－倶楽部北側","address":"南区","city":"相模原市","number":"463"}, 
 {"id":"034f32e7-a4dc-4f14-8c13-0885f4b895e9","lat":35.39905786,"long":139.53948170,"status":"done","name":"ザ・パークハウス戸塚ガーデン前(ｶﾞｰﾄﾞﾊﾟｲﾌﾟ）","address":"戸塚区上倉田町159番地の8","city":"横浜市","number":"15-149"}, 
 {"id":"0350163b-67dc-40af-9fe5-4eaee4a51853","lat":35.54520290,"long":139.33379950,"status":"done","name":"336水郷田名ひがし公園前","address":"中央区","city":"相模原市","number":"251"}, 
 {"id":"035fc81c-04d7-4dbf-b9af-d59b5caa514e","lat":35.56630770,"long":139.25388860,"status":"done","name":"321長竹自治会館南側フェンス","address":"緑区","city":"相模原市","number":"818"}, 
 {"id":"035fdb22-f351-4243-b664-064eb7bcc83f","lat":35.40939440,"long":139.30342360,"status":"done","name":"小山公園東側法面","address":"上粕屋 246番地 先","city":"伊勢原市","number":"130"}, 
 {"id":"036da55b-b96c-40ca-b772-461c6e26b323","lat":35.42012910,"long":139.53591460,"status":"done","name":"新！ガーデン戸塚前（ｶﾞｰﾄﾞﾊﾟｲﾌﾟ）","address":"戸塚区上矢部町306番地の1","city":"横浜市","number":"15-307"}, 
 {"id":"037b0866-a8d8-4ccf-a6bc-12e7049388f5","lat":35.63411680,"long":139.53706860,"status":"done","name":"上水5号さく井フェンス","address":"多摩区菅稲田堤1丁目4番","city":"川崎市","number":"85"}, 
 {"id":"037e566c-f6e7-4f51-bc90-1a2f3a2ec84c","lat":35.44069243,"long":139.63930070,"status":"done","name":"エスト・グランディール横濱関内前植込み","address":"中区扇町２−３−１","city":"横浜市","number":"04-180"}, 
 {"id":"03885488-30e1-4783-9bcb-728e9cec0abb","lat":35.41486623,"long":139.49041060,"status":"done","name":"中和田小学校南側入口横フェンス","address":"泉区和泉中央南四丁目９番１号","city":"横浜市","number":"17-108"}, 
 {"id":"0392af87-2d28-4b89-92a1-44503f50b8c6","lat":35.43946570,"long":139.62949440,"status":"done","name":"三井のリパーク横浜永楽町２丁目第３駐車場向","address":"南区永楽町2丁目22番地","city":"横浜市","number":"05-030"}, 
 {"id":"03940a05-382d-441d-b3c4-dba9c0780da7","lat":35.44896300,"long":139.26600600,"status":"done","name":"玉川公民館前バス停横道路フェンス","address":"七沢186","city":"厚木市","number":"1"}, 
 {"id":"039b4ce8-f937-4abe-bf72-0af760083330","lat":35.48447608,"long":139.53537860,"status":"done","name":"今宿東町第二公園フェンス","address":"旭区今宿東町829番地","city":"横浜市","number":"08-264"}, 
 {"id":"039cb6f0-94f8-4b63-b087-468056ca6129","lat":35.49947694,"long":139.62950010,"status":"done","name":"ＡＳＡ妙蓮寺向ガードレール","address":"港北区篠原東一丁目３番","city":"横浜市","number":"11-342"}, 
 {"id":"039e7b9f-acf2-4483-bf2c-ebbfc7847501","lat":35.14205030,"long":139.61571610,"status":"done","name":"みうら漁協本所前植え込み","address":"三崎5丁目12番5号","city":"三浦市","number":"14"}, 
 {"id":"03a64fc2-2d9f-4d9f-b691-e5e5afa0aa29","lat":35.45751280,"long":139.36317540,"status":"done","name":"妻田東ハイツ東側フェンス","address":"妻田東1-21-1","city":"厚木市","number":"6"}, 
 {"id":"03a9d3c1-4d30-4f23-ada0-7cdcfad549b7","lat":35.46866838,"long":139.54491550,"status":"done","name":"本宿小学校正門横フェンス","address":"旭区本宿町16番地","city":"横浜市","number":"08-053"}, 
 {"id":"03aeb1ad-aa2e-4d7d-9e2b-252cc96fd337","lat":35.33481950,"long":139.44604970,"status":"done","name":"辻堂市民図書館入口左側","address":"辻堂2丁目15-8","city":"藤沢市","number":"194"}, 
 {"id":"03bafcf4-463d-4ce7-973e-a10dfc9bde7e","lat":35.33891510,"long":139.48446870,"status":"done","name":"藤沢駅北口自転車等駐車場","address":"藤沢498-1","city":"藤沢市","number":"9"}, 
 {"id":"03c5de87-7c70-4f54-9e9e-9169fa4f1c32","lat":35.33483410,"long":139.62404310,"status":"done","name":"金沢地区センター運動場フェンス","address":"金沢区泥亀二丁目14番","city":"横浜市","number":"10-089"}, 
 {"id":"03d00827-faa2-4d65-a016-c4fe523fac76","lat":35.33110633,"long":139.21849683,"status":"done","name":"農村環境改善センター西側歩道","address":"比奈窪 73-1","city":"中井町","number":"2"}, 
 {"id":"03d20112-ce2a-4a61-bb05-6dc1037be0b6","lat":35.47332150,"long":139.43086540,"status":"done","name":"東柏ケ谷三丁目自治会館植栽","address":"東柏ケ谷三丁目17番38号","city":"海老名市","number":"14 - ３"}, 
 {"id":"03e27836-bb9a-4026-b814-c95a277c57b1","lat":35.30984986,"long":139.61728390,"status":"done","name":"三角公園道路フェンス","address":"横須賀市湘南鷹取1丁目2番1号","city":"横須賀市","number":"2-3"}, 
 {"id":"03ec3ab9-24c5-4cfd-a4cd-e9cf41a5cc19","lat":35.54117081,"long":139.58144490,"status":"done","name":"バス停「茅ケ崎中学校前」後フェンス","address":"都筑区茅ケ崎南一丁目10番１号","city":"横浜市","number":"14-014"}, 
 {"id":"03f87fc0-ac4e-4f7b-8f27-bce4a9b059cf","lat":35.60576800,"long":139.57389240,"status":"done","name":"五所塚第2公園東側フェンス","address":"宮前区五所塚2丁目23番地1","city":"川崎市","number":"125"}, 
 {"id":"03fc53fd-da7d-400e-938d-2a322eff0a37","lat":35.56661754,"long":139.56785050,"status":"done","name":"バス停「サントゥール中川」歩道植込","address":"都筑区中川二丁目９番","city":"横浜市","number":"14-056"}, 
 {"id":"03fe1021-c634-416c-b6e7-b3720118c698","lat":35.48981790,"long":139.44739480,"status":"done","name":"西鶴間二丁目公園南側","address":"西鶴間2-4","city":"大和市","number":"105"}, 
 {"id":"03ff8363-5501-466e-ac18-688af2145eee","lat":35.47435179,"long":139.58221010,"status":"done","name":"フェンス","address":"神奈川区羽沢南一丁目４番先","city":"横浜市","number":"02-296"}, 
 {"id":"03ff9f71-abe9-452b-bc57-12a708dca38c","lat":35.33828310,"long":139.48768010,"status":"done","name":"藤沢駅南口ロータリー植栽","address":"南藤沢1","city":"藤沢市","number":"46"}, 
 {"id":"0402987d-66fb-43d2-ac05-4e4c60290843","lat":35.50910702,"long":139.68090520,"status":"done","name":"ローソン前ガードレール","address":"鶴見区鶴見中央三丁目１番27号","city":"横浜市","number":"01-065"}, 
 {"id":"0406d30f-cd2c-4f40-a1e7-3f73a6ae899f","lat":35.34970936,"long":139.58395000,"status":"done","name":"庄戸第五西公園内","address":"栄区庄戸五丁目15番","city":"横浜市","number":"16-164"}, 
 {"id":"040716c8-5c51-44f7-9115-7769cb6bc075","lat":35.46824000,"long":139.50295000,"status":"done","name":"三ツ境駅北口北側歩道橋上鉄柵","address":"瀬谷区三ツ境4番地","city":"横浜市","number":"18-047"}, 
 {"id":"0407ced2-6805-409d-a244-0d90ab377da1","lat":35.52836740,"long":139.72778200,"status":"done","name":"masked","address":"川崎区観音1丁目16番15号","city":"川崎市","number":"154"}, 
 {"id":"040fc8c2-13e1-4c44-90e8-7ea54b99a39e","lat":35.43074396,"long":139.56546410,"status":"done","name":"平戸第二公園前(ｶﾞｰﾄﾞﾚｰﾙ)","address":"戸塚区平戸四丁目31番","city":"横浜市","number":"15-044"}, 
 {"id":"0412a2d6-2c1d-4ff9-ba04-6a470eed5d07","lat":35.47647612,"long":139.62263620,"status":"done","name":"植込","address":"神奈川区栗田谷15番11号先","city":"横浜市","number":"02-149"}, 
 {"id":"041b92fc-a442-480c-8e90-2b09b7916bb6","lat":35.60124290,"long":139.48614520,"status":"done","name":"白鳥中学校 正門脇植込み","address":"麻生区白鳥1丁目5番1号","city":"川崎市","number":"123"}, 
 {"id":"042f0efd-a7c3-4ebf-965c-b3b29bcf743a","lat":35.39058400,"long":139.59666750,"status":"done","name":"東福寺山門横鉄柵","address":"港南区笹下五丁目13番20号","city":"横浜市","number":"06-058"}, 
 {"id":"042f65fc-66f3-4d8d-97d4-18ee40b2b96b","lat":35.36960652,"long":139.53718570,"status":"done","name":"ノースバレー道路際ガードレール","address":"栄区飯島町1,628番地","city":"横浜市","number":"16-051"}, 
 {"id":"0432543d-c6be-41dd-a3eb-ba3a0b7cf2ed","lat":35.59915460,"long":139.62241780,"status":"done","name":"ナイスパークハイツ溝の口前ニヶ領用水フェンス","address":"高津区二子6丁目12番","city":"川崎市","number":"28"}, 
 {"id":"043905f4-aad8-4efc-bca0-fb2a34352c9d","lat":35.53007980,"long":139.41554660,"status":"done","name":"111御園公園南側","address":"南区","city":"相模原市","number":"363"}, 
 {"id":"043cc1cd-e1d4-4415-9422-2a1bee9a12e1","lat":35.61868450,"long":139.46773420,"status":"done","name":"黒川調整池　西側フェンス","address":"麻生区はるひ野1丁目16番","city":"川崎市","number":"150"}, 
 {"id":"043f1f71-6ed6-4bc4-815c-d0bce842eb70","lat":35.15213290,"long":139.13133260,"status":"done","name":"masked","address":"福浦122番地","city":"湯河原町","number":"3"}, 
 {"id":"044b92eb-1555-4053-a8dc-243836585876","lat":35.36682968,"long":139.55980580,"status":"done","name":"鍛冶ケ谷歩道橋下ガードレール","address":"栄区鍛冶ケ谷二丁目33番","city":"横浜市","number":"16-115"}, 
 {"id":"044bf137-8f38-47ed-ad29-977acd6d696e","lat":35.52285493,"long":139.51243120,"status":"done","name":"十日市場北公園鉄柵","address":"緑区十日市場町８４３−１","city":"横浜市","number":"12-079"}, 
 {"id":"0450f65d-a503-489d-8ffe-86e755460d26","lat":35.54642740,"long":139.68727980,"status":"done","name":"小向第5公園　南側","address":"幸区小向西町4丁目81番地","city":"川崎市","number":"58"}, 
 {"id":"04571b22-5938-444a-8d3b-d6aab9371684","lat":35.49678709,"long":139.53570290,"status":"done","name":"ハックドラッグ駐車場向いフェンス","address":"旭区上白根町833番地","city":"横浜市","number":"08-250"}, 
 {"id":"0459a3d7-25fb-4008-bb65-71af77aac35c","lat":35.51299673,"long":139.54254300,"status":"done","name":"ＪＲ横浜線フェンス前ガードレール","address":"緑区中山四丁目１","city":"横浜市","number":"12-046"}, 
 {"id":"045e1aac-9ee0-4287-a58c-7cbbd65503e7","lat":35.16513466,"long":139.64291534,"status":"done","name":"引橋バス停脇セーフティフェンス","address":"三崎町小網代2236番地","city":"三浦市","number":"128"}, 
 {"id":"04640199-f79e-44a1-ba94-bf8622ec59ee","lat":35.38071740,"long":139.46248980,"status":"done","name":"東山田公園東側入口左側","address":"天神町3丁目31","city":"藤沢市","number":"307"}, 
 {"id":"0466568c-1a86-4a93-b847-7eebab318365","lat":35.50824408,"long":139.69501710,"status":"done","name":"アイランドガーデン内植え込み","address":"鶴見区平安町２丁目28番地","city":"横浜市","number":"01-077"}, 
 {"id":"0471a899-1841-405d-accf-6d33d373ac98","lat":35.48411165,"long":139.64526500,"status":"done","name":"歩道植込","address":"神奈川区子安通１丁目５番地先","city":"横浜市","number":"02-049"}, 
 {"id":"04757848-6a8c-4879-8af1-edf65676187b","lat":35.33938640,"long":139.44243660,"status":"done","name":"赤松公園 西側金網フェンス","address":"赤松町12番24号地先","city":"茅ヶ崎市","number":"195"}, 
 {"id":"04792aa0-c15c-4ab7-80ec-70186a932515","lat":35.44304715,"long":139.58820830,"status":"done","name":"駐車場上歩道フェンス","address":"保土ケ谷区瀬戸ケ谷町223番地","city":"横浜市","number":"07-271"}, 
 {"id":"048d7bb9-6ab2-4c37-96fd-b213959101f8","lat":35.43682166,"long":139.62633840,"status":"done","name":"南吉田小学校北側","address":"南区高根町2丁目14番地","city":"横浜市","number":"05-035"}, 
 {"id":"049522e1-3d53-4ae1-8a8a-bfaa8de6ff49","lat":35.34609890,"long":139.13226890,"status":"done","name":"わかさ(株)入口左側フェンス","address":"松田惣領1731番地","city":"松田町","number":"24"}, 
 {"id":"04973ab3-4c87-4f76-a33c-219346d2e03c","lat":35.45567830,"long":139.34437690,"status":"done","name":"王子入口バス停横道路ガードパイプ","address":"王子1-1","city":"厚木市","number":"11"}, 
 {"id":"049aeefa-3c37-4ad2-8230-566e65429999","lat":35.29910930,"long":139.60087730,"status":"done","name":"JR東逗子駅裏（フェンス）","address":"逗子市沼間2－10－35先","city":"逗子市","number":"4-7"}, 
 {"id":"049d8397-ec2f-42f8-8664-9f5fc0710660","lat":35.26705660,"long":139.67309590,"status":"done","name":"坂口理容店向かい側防護フェンス","address":"横須賀市富士見町3丁目69番地","city":"横須賀市","number":"24-8"}, 
 {"id":"049dcfb1-59af-467a-947d-54ecbaa345e8","lat":35.61428260,"long":139.54754560,"status":"done","name":"三田福祉ホーム駐車場フェンス","address":"多摩区三田2丁目3256番地","city":"川崎市","number":"124"}, 
 {"id":"04a9118d-e67f-4e6d-a5f0-e10ec3bd3f33","lat":35.41979000,"long":139.44366200,"status":"done","name":"落合東公園フェンス","address":"落合南９丁目６０７−２","city":"綾瀬市","number":"5"}, 
 {"id":"04adc581-a43f-4a07-a3a4-5bc191dabd07","lat":35.47708700,"long":139.40792860,"status":"done","name":"立野台公園南西側入口北　フェンス","address":"立野台３丁目２１番立野台公園南西側入口北　フェンス","city":"座間市","number":"45"}, 
 {"id":"04af0b55-ba35-4a9d-8e1a-69b02cff9c7e","lat":35.43220217,"long":139.65861930,"status":"done","name":"masked","address":"中区北方町１−73","city":"横浜市","number":"04-126"}, 
 {"id":"04bd8aa2-b8bc-417a-a4b1-43205d062ad1","lat":35.39872928,"long":139.59275780,"status":"done","name":"横浜刑務所西側歩道鉄柵","address":"港南区港南四丁目２番","city":"横浜市","number":"06-043"}, 
 {"id":"04bda0c6-3504-45d6-b960-364e700d4855","lat":35.50670590,"long":139.40429650,"status":"done","name":"421緑台小学校北側","address":"南区","city":"相模原市","number":"591"}, 
 {"id":"04ca0894-9136-4315-b887-e4cb5cb0943a","lat":35.58977540,"long":139.63571550,"status":"done","name":"住宅ブロック塀","address":"中原区上小田中2丁目14番40号","city":"川崎市","number":"178"}, 
 {"id":"04cf9412-033d-48ae-a7bd-ac9a62fc843b","lat":35.52401129,"long":139.66510480,"status":"done","name":"末吉配水所前ガードパイプ","address":"鶴見区上末吉一丁目４番","city":"横浜市","number":"01-163"}, 
 {"id":"04d01f25-dfab-42c8-94c5-718b74f5bf53","lat":35.33029040,"long":139.51161520,"status":"done","name":"手広なのはな公園フェンス","address":"手広一丁目5番","city":"鎌倉市","number":"20-3"}, 
 {"id":"04d80013-250e-4144-86e0-15439cb3bd8f","lat":35.62291530,"long":139.20161900,"status":"done","name":"412小原の郷東側隣道路用地","address":"緑区","city":"相模原市","number":"877"}, 
 {"id":"04dbad30-c9be-45ac-a0a4-8202550c19b1","lat":35.42631105,"long":139.57880420,"status":"done","name":"バス停引越坂横フェンス取付","address":"南区六ツ川二丁目160番地6","city":"横浜市","number":"05-187"}, 
 {"id":"04dd3f18-060d-49d2-8fc7-dc243fe2ad3e","lat":35.37670670,"long":139.18055900,"status":"done","name":"消防署西分署西側フェンス","address":"柳町2丁目5番2号","city":"秦野市","number":"223"}, 
 {"id":"04e9e096-a379-40e1-bf7e-9fd2dc1b63fa","lat":35.61398820,"long":139.52624960,"status":"done","name":"生田南大作公園入口右側フェンス","address":"多摩区西生田4丁目3番","city":"川崎市","number":"151"}, 
 {"id":"04ec908f-bcbc-448c-872f-a0d76edae08f","lat":35.50807550,"long":139.30934970,"status":"done","name":"上荻野荒井中公園西側フェンス","address":"上荻野1601-48","city":"厚木市","number":"36"}, 
 {"id":"04ef28a9-1213-4b11-abed-3aee516cc78d","lat":35.26117164,"long":139.73420960,"status":"done","name":"防衛大学校走水海上訓練所フェンス","address":"横須賀市走水2丁目無番地","city":"横須賀市","number":"44-4"}, 
 {"id":"04fc2a24-a6a4-4a77-bee0-a9d980a49f7b","lat":35.40748044,"long":139.55178870,"status":"done","name":"舞岡かるがも橋横(ﾌｪﾝｽ取付)","address":"戸塚区舞岡町3443番地の1","city":"横浜市","number":"15-136"}, 
 {"id":"04ff7fb6-f521-4c18-a89e-dcae4e3f6ecc","lat":35.40254272,"long":139.51827260,"status":"done","name":"東明会子供の遊び場(ﾌｪﾝｽ取付)","address":"戸塚区汲沢二丁目17番","city":"横浜市","number":"15-202"}, 
 {"id":"050846a6-a9db-42e9-a3c6-f7fcd65bcffa","lat":35.34421160,"long":139.13695260,"status":"done","name":"masked","address":"松田惣領1826番地1","city":"松田町","number":"17"}, 
 {"id":"05091385-f9cd-4411-afdf-6265f410bcf2","lat":35.54446891,"long":139.54312520,"status":"done","name":"歩道ガードレール","address":"青葉区市ケ尾町649番地","city":"横浜市","number":"13-159"}, 
 {"id":"050ff442-b8b2-4f22-a091-b9a30e22f0e3","lat":35.32731460,"long":139.44580610,"status":"done","name":"辻堂高砂西公園","address":"辻堂6丁目12","city":"藤沢市","number":"222"}, 
 {"id":"0513d360-6c62-49a5-a1a3-928a0cb54870","lat":35.59039700,"long":139.62560490,"status":"done","name":"個人所有畑","address":"高津区末長4丁目13番","city":"川崎市","number":"129"}, 
 {"id":"0522af55-1bf9-4393-917b-7ba6a905896b","lat":35.24786824,"long":139.67544500,"status":"done","name":"資源回収集積所脇フェンス","address":"横須賀市森崎4丁目1番36号","city":"横須賀市","number":"37-4"}, 
 {"id":"052b1476-45fe-4849-aed6-5f23246dce31","lat":35.51528260,"long":139.71579070,"status":"done","name":"鋼管通第１公園北側植込み","address":"川崎区鋼管通2丁目17番1号","city":"川崎市","number":"127"}, 
 {"id":"052eacb9-3624-4cc1-bc2b-d84ef8e957b4","lat":35.43020400,"long":139.66396400,"status":"done","name":"グランティムス本牧前植込み","address":"中区小港町３−171","city":"横浜市","number":"04-137"}, 
 {"id":"052f9fe1-a988-43a5-8a39-52f4e1bd730c","lat":35.45092611,"long":139.62776800,"status":"done","name":"宮崎町公園の鉄柵","address":"西区宮崎町58番地先","city":"横浜市","number":"03-132"}, 
 {"id":"0545829f-ffb7-4dc4-b6c3-7e9d6f2e2a00","lat":35.45860594,"long":139.60802500,"status":"done","name":"浅間車庫前公園西側入口右植込み","address":"西区浅間町４丁目336番地１","city":"横浜市","number":"03-053"}, 
 {"id":"054c3490-9f9d-44bc-a954-d8c9807ac203","lat":35.52531190,"long":139.73831210,"status":"done","name":"四谷ゆめ公園東側植込み","address":"川崎区四谷下町15番","city":"川崎市","number":"214"}, 
 {"id":"054df04b-8f25-4e96-a384-0daacbcf5ef5","lat":35.37976300,"long":139.17464490,"status":"done","name":"masked","address":"堀西639番地","city":"秦野市","number":"208"}, 
 {"id":"055188d1-9b76-473f-a8f4-7386c20bfa58","lat":35.41229532,"long":139.57927470,"status":"done","name":"芹が谷第六公園鉄柵","address":"港南区東芹が谷７番","city":"横浜市","number":"06-213"}, 
 {"id":"055b2010-cf47-49f6-a4fc-0675922313cb","lat":35.57440610,"long":139.60102110,"status":"done","name":"野川第1公園東側","address":"宮前区野川台1丁目22番30号","city":"川崎市","number":"55"}, 
 {"id":"05631160-b29a-4714-ae55-ac1e1afd57c3","lat":35.27020983,"long":139.18804900,"status":"done","name":"235","address":"酒匂２丁目２１−３ 西第4宿舎","city":"小田原市","number":"235"}, 
 {"id":"0565bca1-e63e-4abf-b7a9-b0f7b314b951","lat":35.50847182,"long":139.65084860,"status":"done","name":"馬場二丁目公園内植え込み","address":"鶴見区馬場二丁目８番","city":"横浜市","number":"01-218"}, 
 {"id":"056b8cf8-f51b-4ac4-978a-805e030b37be","lat":35.17893984,"long":139.63530503,"status":"done","name":"飯森調整池公園下（北側）植込み","address":"初声町下宮田604番地","city":"三浦市","number":"131"}, 
 {"id":"056c617f-32c1-48ab-afdb-191b3317b80d","lat":35.36326740,"long":139.25846370,"status":"done","name":"県立秦野高校正門向いフェンス","address":"南矢名945番地の5","city":"秦野市","number":"161"}, 
 {"id":"056cdf78-5a97-4086-bb27-cf189d5fbbef","lat":35.36353250,"long":139.45084050,"status":"done","name":"大庭中学校南門右側","address":"大庭5416-6","city":"藤沢市","number":"285"}, 
 {"id":"056eb847-62ff-4e05-99a9-ef8d3b79e23b","lat":35.60166680,"long":139.60497170,"status":"done","name":"国道２４６号線高架下下作延中央公園","address":"高津区下作延7丁目1番","city":"川崎市","number":"63"}, 
 {"id":"0571f442-3ee6-4bd1-a1f7-376a6c62528e","lat":35.50126425,"long":139.63250770,"status":"done","name":"菊名池公園そばガードレール","address":"港北区富士塚一丁目６番23号","city":"横浜市","number":"11-021"}, 
 {"id":"0579623d-5c68-4cca-865d-9d13733382fb","lat":35.47143887,"long":139.61992850,"status":"done","name":"台町公園","address":"神奈川区高島台29番地","city":"横浜市","number":"02-135"}, 
 {"id":"057a56b9-9ac3-45b8-a33d-6a6cdfa7ea32","lat":35.26137658,"long":139.16658180,"status":"done","name":"29","address":"寿町２丁目６−２０","city":"小田原市","number":"29"}, 
 {"id":"057abe69-d50c-43cf-ad3b-f9fd1c112549","lat":35.60387960,"long":139.60138750,"status":"done","name":"路川石材工業所対面個人所有駐車場フェンス","address":"高津区下作延6丁目6番","city":"川崎市","number":"56"}, 
 {"id":"05832bd5-9cd4-4132-8a34-af4c65c2cfb4","lat":35.56655272,"long":139.54723160,"status":"done","name":"あざみ野東公園南側","address":"青葉区あざみ野二丁目25番地","city":"横浜市","number":"13-184"}, 
 {"id":"058505eb-bddf-4d07-b3d5-4a2bc65a6ff5","lat":35.57499830,"long":139.34503120,"status":"done","name":"214ビレッジハウス下九沢","address":"中央区","city":"相模原市","number":"156"}, 
 {"id":"058c31ab-d0a8-4c1f-bb4b-2dadd50c79e5","lat":35.25798086,"long":139.15758070,"status":"done","name":"6","address":"栄町３丁目３−３−３","city":"小田原市","number":"6"}, 
 {"id":"0598fb23-1e65-4751-8932-adf76904f0a3","lat":35.14204090,"long":139.08357610,"status":"done","name":"masked","address":"宮上288番地の2","city":"湯河原町","number":"63"}, 
 {"id":"05a2338e-8425-4f4b-b067-3f6ceddf2e69","lat":35.18820770,"long":139.02512180,"status":"done","name":"箱根集会所","address":"箱根221番地3","city":"箱根町","number":"79"}, 
 {"id":"05af4c0b-df81-4913-87bd-9b7aee50287a","lat":35.50966626,"long":139.56810830,"status":"done","name":"ユアーズ・パーキング鴨居駅前フェンス","address":"緑区鴨居四丁目１１","city":"横浜市","number":"12-011"}, 
 {"id":"05b8b5cb-85de-4cd3-8476-ca08d082c987","lat":35.42446810,"long":139.57844990,"status":"done","name":"六つ川西小学校正門横","address":"南区六ツ川二丁目156番地1","city":"横浜市","number":"05-186"}, 
 {"id":"05bee763-9dec-4ac0-84c0-565074ab8ffc","lat":35.50387920,"long":139.34063020,"status":"done","name":"坂本配水池","address":"中津 5650-4","city":"愛川町","number":"82"}, 
 {"id":"05c3ced0-50bb-41d4-8edc-adefce1523ea","lat":35.54238180,"long":139.26742740,"status":"done","name":"和平児童遊園地フェンス","address":"半原4617","city":"愛川町","number":"8"}, 
 {"id":"05c473a7-917e-437a-8e83-f401a0952367","lat":35.51660910,"long":139.45232010,"status":"done","name":"つきみ野2号公園西側","address":"つきみ野8-11","city":"大和市","number":"12"}, 
 {"id":"05d4d3fc-de96-49d0-9be5-929503b9e546","lat":35.37802003,"long":139.53462660,"status":"done","name":"マンション入口の公園内","address":"栄区長沼町262番地","city":"横浜市","number":"16-027"}, 
 {"id":"05d56325-5d0c-4076-9553-81c052adebf7","lat":35.52007070,"long":139.69814740,"status":"done","name":"新町児童公園北側鉄柵","address":"川崎区渡田新町3丁目4番","city":"川崎市","number":"51"}, 
 {"id":"05d69dc0-3e81-4f84-9c17-dedf70d0f21e","lat":35.39534750,"long":139.13849420,"status":"done","name":"masked","address":"寄 2336 番地","city":"松田町","number":"54"}, 
 {"id":"05d9b91f-3d8e-4489-a59f-d3733679a3ad","lat":35.51041508,"long":139.56741900,"status":"done","name":"バス停「鴨居駅前」横ガードパイプ","address":"緑区鴨居一丁目８−７","city":"横浜市","number":"12-013"}, 
 {"id":"05df89b0-5f16-41e4-89a6-b79f6849a777","lat":35.53850430,"long":139.41142110,"status":"done","name":"77オルガノ㈱開発センター南側","address":"南区","city":"相模原市","number":"338"}, 
 {"id":"05e010b7-c4eb-4a40-af94-ed6f78957d01","lat":35.50695660,"long":139.59756850,"status":"done","name":"小机町第一公園入口脇柵","address":"港北区小机町1,434番地の６","city":"横浜市","number":"11-091"}, 
 {"id":"05e0db96-898d-46d4-8410-721115a921c8","lat":35.39290373,"long":139.61465220,"status":"done","name":"森町公園南側","address":"磯子区森三丁目２番","city":"横浜市","number":"09-118"}, 
 {"id":"05e2fdb5-f8a6-4f85-a4d6-90af80c7d067","lat":35.26175497,"long":139.71277220,"status":"done","name":"馬堀海岸シーハイツ4号棟脇駐車場植込み","address":"横須賀市馬堀海岸4丁目1番12号","city":"横須賀市","number":"43-4"}, 
 {"id":"05e68a04-7d72-4186-8fa9-473f50bade04","lat":35.31308873,"long":139.11295970,"status":"done","name":"2","address":null,"city":"南足柄市","number":"2"}, 
 {"id":"05e72199-bef7-4afc-8973-d27461dd221c","lat":35.54236420,"long":139.68536260,"status":"done","name":"戸手小学校北側フェンス","address":"幸区戸手本町1丁目165番地","city":"川崎市","number":"52"}, 
 {"id":"05e7c8e1-2c74-4a24-af9d-472fcf1b3449","lat":35.46722400,"long":139.34803800,"status":"done","name":"及川青少年広場西水路フェンス","address":"及川636","city":"厚木市","number":"38"}, 
 {"id":"05ee5e8d-ee27-4dea-9bcd-ed388d1c0c74","lat":35.56553840,"long":139.35433140,"status":"done","name":"12横山小学校西側","address":"中央区","city":"相模原市","number":"2"}, 
 {"id":"05f33244-f9fa-4227-89bf-8bebf5cb5b4f","lat":35.38802768,"long":139.55751960,"status":"done","name":"西洗公園鉄柵","address":"港南区日限山四丁目34番","city":"横浜市","number":"06-264"}, 
 {"id":"06088a06-e65f-44f0-bdec-212eead9adf7","lat":35.45429977,"long":139.60414720,"status":"done","name":"マルエツ駐車場フェンス","address":"保土ケ谷区岩間町1丁目1番地","city":"横浜市","number":"07-073"}, 
 {"id":"06097129-b88d-41ec-adf4-8781dd250dce","lat":35.35767500,"long":139.23111000,"status":"done","name":"立野台南調整池北東側フェンス","address":"立野台3丁目23番地1","city":"秦野市","number":"80"}, 
 {"id":"0616c570-73ed-4a3a-b8f8-c988f97373f8","lat":35.53374460,"long":139.41512090,"status":"done","name":"85大沼ふれあい広場東側","address":"南区","city":"相模原市","number":"344"}, 
 {"id":"06283764-d963-4dd9-82ca-b0e6982e8e02","lat":35.39309114,"long":139.49477380,"status":"done","name":"masked","address":"戸塚区深谷町1901番地の1","city":"横浜市","number":"15-220"}, 
 {"id":"062c4f44-6096-420c-84e5-a16e909c8db4","lat":35.46569906,"long":139.61993830,"status":"done","name":"横浜高島屋（相鉄方面口）ガードレール","address":"西区南幸一丁目６番先","city":"横浜市","number":"03-026"}, 
 {"id":"062c786e-76f3-45db-9c9b-175a86210e65","lat":35.33855120,"long":139.37224850,"status":"done","name":"エア・ウォーター・パフォーマンスケミカル㈱北側","address":"須賀2700","city":"平塚市","number":"10ー8"}, 
 {"id":"062c9138-ddee-4bd7-88ab-cd8a8ae54ac3","lat":35.19673255,"long":139.13410800,"status":"done","name":"266","address":"根府川しおん前（バス）","city":"小田原市","number":"266"}, 
 {"id":"062d4275-b24b-426c-8d18-cd481eaf91f8","lat":35.53681520,"long":139.33284680,"status":"done","name":"小沢公民館入口アルミフェンス","address":"角田642-1","city":"愛川町","number":"46"}, 
 {"id":"0633da11-47d5-4a56-9ad8-1b023893c2ee","lat":35.58090110,"long":139.34024350,"status":"done","name":"141下九沢桑の実公園前","address":"緑区","city":"相模原市","number":"700"}, 
 {"id":"06345b61-355f-488b-897f-84ad8309d7cb","lat":35.52029240,"long":139.44559360,"status":"done","name":"201上鶴間小学校東側","address":"南区","city":"相模原市","number":"426"}, 
 {"id":"06405699-5532-4b10-88bf-116f8ba4a410","lat":35.54478668,"long":139.57555360,"status":"done","name":"地下鉄｢センター南」駅駅前広場植込","address":"都筑区茅ケ崎中央１番","city":"横浜市","number":"14-228"}, 
 {"id":"06416396-060c-4568-8eff-baee84da0c02","lat":35.44119648,"long":139.58323430,"status":"done","name":"狩場町東公園鉄柵","address":"保土ケ谷区狩場町422番地の66","city":"横浜市","number":"07-275"}, 
 {"id":"06492a20-d274-4583-affc-49a214ad2f61","lat":35.49557230,"long":139.43309670,"status":"done","name":"子供広場東側 フェンス","address":"小松原２丁目５１番子供広場東側 フェンス","city":"座間市","number":"106"}, 
 {"id":"065192dc-155c-4862-b2c3-be6537bd3e73","lat":35.59926000,"long":139.52792000,"status":"done","name":"塔ノ越南公園 北側フェンス (位置情報が見つかりませんでした)","address":"麻生区東百合丘2丁目14番","city":"川崎市","number":"2"}, 
 {"id":"065346e8-952c-4718-86ff-2960cf4efc22","lat":35.32186890,"long":139.33838410,"status":"done","name":"県立平塚工科高等学校東側フェンス","address":"黒部丘12－7","city":"平塚市","number":"2ー4"}, 
 {"id":"065460ab-e1b3-4918-b2b6-8b3757c5978e","lat":35.37362548,"long":139.63837100,"status":"done","name":"並木保育園","address":"金沢区並木一丁目４番","city":"横浜市","number":"10-044"}, 
 {"id":"0656f9a6-3b6e-4d47-a982-6d08b643ed02","lat":35.52877048,"long":139.62788780,"status":"done","name":"大曽根公園内植込","address":"港北区大曽根台17番","city":"横浜市","number":"11-158"}, 
 {"id":"065719db-a2a8-4094-821e-49e3812f1bb2","lat":35.54462410,"long":139.12826710,"status":"done","name":"386宮沢新橋東側欄干","address":"緑区","city":"相模原市","number":"864"}, 
 {"id":"065c8828-6fe1-4f04-a9ed-d1aa4be24f76","lat":35.40546775,"long":139.57754830,"status":"done","name":"マックホーム駐車場金網","address":"港南区上永谷一丁目39番","city":"横浜市","number":"06-190"}, 
 {"id":"065d1edc-45bc-40bb-a35d-632e394a4f5b","lat":35.29357706,"long":139.14084740,"status":"done","name":"81","address":"清水新田１５７","city":"小田原市","number":"81"}, 
 {"id":"065f88fc-2963-41c6-99cf-2b2580e443ea","lat":35.30131800,"long":139.48211240,"status":"done","name":"聖天島公園南側","address":"江の島1丁目6","city":"藤沢市","number":"184"}, 
 {"id":"06681e0e-1a12-4452-91fa-f6b69461986f","lat":35.23012962,"long":139.70625740,"status":"done","name":"久里浜5丁目第2公園フェンス","address":"横須賀市久里浜5丁目3番","city":"横須賀市","number":"63-9"}, 
 {"id":"067c63d8-10d4-4550-9aa3-468c757e9678","lat":35.44533601,"long":139.57853720,"status":"done","name":"バス停「元町橋交番前」脇フェンス","address":"保土ケ谷区狩場町146番地","city":"横浜市","number":"07-019"}, 
 {"id":"067faa0e-9870-45bc-ae4b-63e12703cd1b","lat":35.30700560,"long":139.26046290,"status":"done","name":"富士見が丘富士見公園南側フェンス","address":"富士見が丘1-1","city":"二宮町","number":"51"}, 
 {"id":"0688b05a-e221-4d77-a06f-9ff751836a59","lat":35.36096903,"long":139.52969030,"status":"done","name":"線路沿いガードレール","address":"栄区笠間三丁目32番","city":"横浜市","number":"16-062"}, 
 {"id":"068b90fc-c05c-436b-b036-e0cd1a03479a","lat":35.43975710,"long":139.40271870,"status":"done","name":"大谷小学校北側フェンス","address":"国分寺台２丁目13番１号","city":"海老名市","number":"12 - ６"}, 
 {"id":"06916e16-0fcc-4252-89cd-0c49dfc99f39","lat":35.42558000,"long":139.41252900,"status":"done","name":"吉岡自治会館前ガードフェンス","address":"吉岡２３１６－１０","city":"綾瀬市","number":"111"}, 
 {"id":"0692f968-4933-4856-b77b-39d6f2ae070e","lat":35.61032580,"long":139.61668150,"status":"done","name":"多摩沿線道路下植え込み","address":"高津区久地2丁目2番","city":"川崎市","number":"13"}, 
 {"id":"069c281f-869a-4313-ba40-b9e4324ee376","lat":35.42795545,"long":139.59654800,"status":"done","name":"「FiT24  横浜弘明寺店」向歩道植込み","address":"南区永田南一丁目4番20号","city":"横浜市","number":"05-122"}, 
 {"id":"069f6419-63f9-43a0-895b-c10e11c41956","lat":35.40319770,"long":139.29664030,"status":"done","name":"市光前 バス停 際","address":"板 戸 80番地 先","city":"伊勢原市","number":"126"}, 
 {"id":"06a031bf-4063-4613-9aa4-ca590502ffba","lat":35.44747407,"long":139.48394930,"status":"done","name":"サニーアイル東側ガードポール","address":"泉区上飯田町4,685番地の１","city":"横浜市","number":"17-017"}, 
 {"id":"06a1bbe0-4456-465d-8e26-93522d4ee8e2","lat":35.31334386,"long":139.14592670,"status":"done","name":"351","address":null,"city":"小田原市","number":"351"}, 
 {"id":"06a72521-5d81-47bd-a646-3567a6cca4dd","lat":35.23319281,"long":139.70532550,"status":"done","name":"若宮神社玉垣","address":"横須賀市久比里1丁目4番11号","city":"横須賀市","number":"85-3"}, 
 {"id":"06a896c0-2364-478d-bfcb-2d36b555a050","lat":35.30667870,"long":139.28667790,"status":"done","name":"城の下バス停留所横","address":"国府本郷1233-1番地先","city":"大磯町","number":"65"}, 
 {"id":"06b936b2-c852-4c0a-a301-c3b3cfa5a24c","lat":35.56868159,"long":139.47547730,"status":"done","name":"奈良町第八公園","address":"青葉区奈良町2423番地236","city":"横浜市","number":"13-308"}, 
 {"id":"06bc65e3-02b1-4425-9172-634bfc20f253","lat":35.47316997,"long":139.51968270,"status":"done","name":"今宿こぶし公園柵","address":"旭区今宿二丁目３番","city":"横浜市","number":"08-169"}, 
 {"id":"06bd686f-2838-4fec-ac59-044a091b290b","lat":35.55253400,"long":139.41267610,"status":"done","name":"23大野台６丁目公園","address":"南区","city":"相模原市","number":"296"}, 
 {"id":"06bda7e6-5ade-4922-a6a9-07dba64ba03a","lat":35.52219925,"long":139.67440800,"status":"done","name":"下末吉小砂場前フェンス","address":"鶴見区下末吉二丁目25番６号","city":"横浜市","number":"01-149"}, 
 {"id":"06cbb9c3-b65e-4f9b-aa32-c8861da1409f","lat":35.41344033,"long":139.61100600,"status":"done","name":"岡村公園鉄柵","address":"磯子区岡村六丁目９番","city":"横浜市","number":"09-038"}, 
 {"id":"06da7994-c35c-4c45-82b8-fe5e46fb07be","lat":35.60355520,"long":139.62337390,"status":"done","name":"果樹園フェンス","address":"高津区諏訪3丁目1番","city":"川崎市","number":"35"}, 
 {"id":"06df4fe9-8eb2-456f-81ec-b01511961dd0","lat":35.62860820,"long":139.53460230,"status":"done","name":"旧三沢川フェンス（子之神橋横）","address":"多摩区菅北浦2丁目12番","city":"川崎市","number":"83"}, 
 {"id":"06e11974-6a2f-4a35-b125-9fbd2886b3eb","lat":35.48190670,"long":139.44622310,"status":"done","name":"子安児童館東側","address":"上草柳9-11-20","city":"大和市","number":"113"}, 
 {"id":"06e66f37-3f36-46a6-89e9-092c1d16620d","lat":35.61297990,"long":139.57097050,"status":"done","name":"宿河原本村公園入口横フェンス","address":"多摩区宿河原2丁目44番","city":"川崎市","number":"37"}, 
 {"id":"06e71c8b-ed50-453d-8222-40f93829d7e3","lat":35.52945328,"long":139.67601410,"status":"done","name":"矢向中東門右側フェンス","address":"鶴見区矢向一丁目８番24号","city":"横浜市","number":"01-002"}, 
 {"id":"06e727c8-d9e7-4fad-b67c-5f6bf3e61567","lat":35.41914728,"long":139.52841370,"status":"done","name":"上矢部志ら坂公園(ﾌｪﾝｽ取付)","address":"戸塚区上矢部町1763番地の10","city":"横浜市","number":"15-100"}, 
 {"id":"06e87c3b-b6d3-4adb-88cb-9564415172fc","lat":35.35408810,"long":139.62734570,"status":"done","name":"堀口第二公園","address":"金沢区能見台東14番","city":"横浜市","number":"10-099"}, 
 {"id":"06ee21f5-2f0d-494c-a0b3-fb641a78a242","lat":35.55289260,"long":139.67609520,"status":"done","name":"下平間稲荷公園　西側フェンス","address":"幸区下平間68番地1","city":"川崎市","number":"74"}, 
 {"id":"06f17bb7-4bba-48da-84f0-d2bd43bfdadb","lat":35.36148590,"long":139.29081110,"status":"done","name":"市立金目公民館前","address":"南金目966","city":"平塚市","number":"38ー2"}, 
 {"id":"06f6776a-934a-439c-8a99-4faa70428395","lat":35.52887930,"long":139.64225950,"status":"done","name":"樽町中学校裏門右側フェンス","address":"港北区樽町四丁目15番１号","city":"横浜市","number":"11-167"}, 
 {"id":"0701fe92-a60f-4e2c-b1cc-b0949000f61b","lat":35.43588450,"long":139.46582710,"status":"done","name":"高座渋谷駅東口(ファミリーマート前のタクシー乗場)","address":"渋谷6-100-33","city":"大和市","number":"248"}, 
 {"id":"07041d10-090e-40a1-a056-040923357dea","lat":35.53117165,"long":139.65415890,"status":"done","name":"神社前歩道植え込み","address":"鶴見区駒岡三丁目19番","city":"横浜市","number":"01-194"}, 
 {"id":"0706e22c-540a-4b69-ae78-b8a333df9d2f","lat":35.58868264,"long":139.53844180,"status":"done","name":"美しが丘西保島公園","address":"青葉区美しが丘西一丁目５番地８","city":"横浜市","number":"13-263"}, 
 {"id":"070748ca-7667-4770-9c37-af2966b90246","lat":35.52982000,"long":139.67775230,"status":"done","name":"汐田総合病院向かい歩道内側鉄柵","address":"鶴見区矢向一丁目６番","city":"横浜市","number":"01-001"}, 
 {"id":"07084594-46f5-4bf9-9590-ff84ce93dfef","lat":35.37614090,"long":139.23359600,"status":"done","name":"末広小学校裏門脇フェンス","address":"末広町6番6号","city":"秦野市","number":"39"}, 
 {"id":"070856b8-96c6-4475-acc1-4c6a1e1923b9","lat":35.22388180,"long":139.62596390,"status":"done","name":"市民病院駐車場前道路フェンス（長坂グランド脇）","address":"横須賀市長坂2丁目1番","city":"横須賀市","number":"80-3"}, 
 {"id":"0709cae3-91cb-4070-8e2b-68b1dfcce3a7","lat":35.53699699,"long":139.64085860,"status":"done","name":"綱島東小学校フェンス","address":"港北区綱島東三丁目１番30号","city":"横浜市","number":"11-174"}, 
 {"id":"0725c167-1f75-4bda-9c56-d765632a6bbc","lat":35.32398484,"long":139.59885560,"status":"done","name":"六浦西第二公園（東側）","address":"金沢区東朝比奈二丁目19番","city":"横浜市","number":"10-146"}, 
 {"id":"072b4ba2-1f3f-4503-9399-0360ac0e900e","lat":35.42856065,"long":139.62856210,"status":"done","name":"平楽配水池前","address":"南区平楽126番地","city":"横浜市","number":"05-022"}, 
 {"id":"07319a49-b6d4-4e68-b563-e083212b336d","lat":35.43531727,"long":139.64784560,"status":"done","name":"山手公園脇ガードレール","address":"中区山手町230","city":"横浜市","number":"04-086"}, 
 {"id":"0731d8e2-302d-43b4-b2d1-201ee37296e1","lat":35.47909504,"long":139.53471570,"status":"done","name":"今宿東橋欄干","address":"旭区今宿東町1,530番地","city":"横浜市","number":"08-266"}, 
 {"id":"07340272-723d-40e5-a95e-b669c1f44c2a","lat":35.58251910,"long":139.35905280,"status":"done","name":"182清新４丁目公園北側","address":"中央区","city":"相模原市","number":"132"}, 
 {"id":"07348851-757b-4551-98df-4b4a86539c90","lat":35.42533775,"long":139.55873920,"status":"done","name":"天王山公園","address":"戸塚区品濃町507番地","city":"横浜市","number":"15-024"}, 
 {"id":"07457e07-b873-40c2-bdfa-70d34ab965a5","lat":35.37949280,"long":139.28097450,"status":"done","name":"ひかりのまち公園南側フェンス","address":"鶴巻南4丁目856番8(8番付近)","city":"秦野市","number":"188"}, 
 {"id":"0746a92a-71d8-46f1-8fc7-275a6f5e81b8","lat":35.35238430,"long":139.40657850,"status":"done","name":"市営香川住宅内公園 北側フェンス西端","address":"香川一丁目251番地15","city":"茅ヶ崎市","number":"146"}, 
 {"id":"074c2ee8-176e-496f-9d3d-5115c1464f61","lat":35.43954233,"long":139.63742270,"status":"done","name":"扇町三丁目交差点付近ガードレール","address":"中区扇町３−10−５","city":"横浜市","number":"04-178"}, 
 {"id":"074da4e0-eb53-45ac-9fc5-8fe48efd557b","lat":35.48585663,"long":139.64823670,"status":"done","name":"大安寺公園","address":"神奈川区入江一丁目２番18号","city":"横浜市","number":"02-045"}, 
 {"id":"0755b357-410c-4410-83f0-7e4a4e7b5d15","lat":35.47296190,"long":139.59519820,"status":"done","name":"ろう特別支援学校正門向いのり地","address":"保土ケ谷区常盤台79番","city":"横浜市","number":"07-102"}, 
 {"id":"0758f5bb-e93a-49cf-8a22-dc8b9accf348","lat":35.56811680,"long":139.59449100,"status":"done","name":"県営有馬団地20号棟東側フェンス (位置情報が見つかりませんでした)","address":"宮前区東有馬5丁目15番20号","city":"川崎市","number":"79"}, 
 {"id":"075e17bd-5e26-4ea2-a89d-884504663647","lat":35.31558686,"long":139.09824330,"status":"done","name":"31","address":null,"city":"南足柄市","number":"31"}, 
 {"id":"076de183-704c-40b3-8a24-ba35c31c2a9a","lat":35.56478047,"long":139.59068580,"status":"done","name":"稲荷坂橋下  トンネル歩道柵","address":"都筑区北山田五丁目６番","city":"横浜市","number":"14-141"}, 
 {"id":"076e6ecc-b8ea-44be-ba82-da31ba4e5536","lat":35.42076540,"long":139.52690010,"status":"done","name":"上矢部第一公園","address":"戸塚区上矢部町2501番地の50","city":"横浜市","number":"15-096"}, 
 {"id":"076ec715-27af-4271-95fe-9870fb6a3dfd","lat":35.54444631,"long":139.56766710,"status":"done","name":"バス停「荏田東」後植込","address":"都筑区荏田東一丁目21番","city":"横浜市","number":"14-202"}, 
 {"id":"07761798-6277-4097-a0f8-49e0242e8577","lat":35.30012630,"long":139.58844360,"status":"done","name":"北分署北側県道沿い（京急逗子線フェンス）","address":"逗子市池子1－2－23先","city":"逗子市","number":"6-4"}, 
 {"id":"077a2893-b5ca-4fe4-bce1-624e48c9e320","lat":35.43186759,"long":139.57365310,"status":"done","name":"平戸第五公園(ﾌｪﾝｽ取付)","address":"戸塚区平戸二丁目34番","city":"横浜市","number":"15-054"}, 
 {"id":"078212ac-2628-41df-895c-6dd127bf793a","lat":35.33474105,"long":139.62357030,"status":"done","name":"姫の島公園","address":"金沢区泥亀一丁目26番","city":"横浜市","number":"10-077"}, 
 {"id":"0785296a-19ee-4212-804e-823b7a7443c7","lat":35.33205770,"long":139.13003310,"status":"done","name":"中家村公園フェンス","address":"吉田島 781番地3","city":"開成町","number":"37"}, 
 {"id":"078ffb2e-2083-4bd3-b493-ece5eea07429","lat":35.18871380,"long":139.62515260,"status":"done","name":"初声設備脇駐車場","address":"初声町入江115番地","city":"三浦市","number":"120"}, 
 {"id":"079237c5-234d-493b-a85b-dbd5ed954bf0","lat":35.51568080,"long":139.71154150,"status":"done","name":"田島こども文化センター正面フェンス","address":"川崎区田島町20番23号","city":"川崎市","number":"120"}, 
 {"id":"079288b8-ad6a-4ea2-907e-b551a5afff4e","lat":35.55346550,"long":139.68475640,"status":"done","name":"古市場第6公園　西側植込み","address":"幸区古市場1丁目64番地","city":"川崎市","number":"71"}, 
 {"id":"0795ede7-6fea-4fd4-aa2e-bad97e7af4d0","lat":35.58144940,"long":139.64098500,"status":"done","name":"武蔵中原駅前道路鉄柵","address":"中原区上小田中4丁目2番","city":"川崎市","number":"185"}, 
 {"id":"0796e97d-959a-4c49-ba99-aad5b76844b9","lat":35.31729750,"long":139.49595100,"status":"done","name":"西鎌倉すずめ公園フェンス","address":"西鎌倉四丁目20番","city":"鎌倉市","number":"17-6"}, 
 {"id":"07986f81-eb73-4920-84c0-5048df662759","lat":35.33239430,"long":139.14759310,"status":"done","name":"masked","address":"金子1053番地","city":"大井町","number":"22"}, 
 {"id":"079ce4c2-b167-453c-9700-1121d10adff3","lat":35.25615127,"long":139.64929020,"status":"done","name":"籠遊水池フェンス","address":"横須賀市平作6丁目6番4号","city":"横須賀市","number":"35-6"}, 
 {"id":"079ea818-9e50-475a-bda3-c6b6e6516936","lat":35.43516840,"long":139.46549490,"status":"done","name":"masked","address":"渋谷6-5-3","city":"大和市","number":"247"}, 
 {"id":"079ee5b6-839d-40a7-8f4a-a2c863ef5722","lat":35.56007040,"long":139.66920540,"status":"done","name":"二ケ領用水東側フェンス","address":"幸区鹿島田3丁目10番","city":"川崎市","number":"110"}, 
 {"id":"07ab75d4-2f46-49c5-ad05-3bb66f6e45b4","lat":35.37270842,"long":139.61711350,"status":"done","name":"masked","address":"磯子区杉田八丁目38番１号","city":"横浜市","number":"09-179"}, 
 {"id":"07ac29ac-353c-4ab2-995f-ab8282e92483","lat":35.52093437,"long":139.62256180,"status":"done","name":"太尾保育園前フェンス","address":"港北区大倉山四丁目24番７号","city":"横浜市","number":"11-123"}, 
 {"id":"07ad341f-1144-415a-95e5-b2ddd9575166","lat":35.34664950,"long":139.26937560,"status":"done","name":"東海大学運動場広場西側","address":"土屋2201","city":"平塚市","number":"37ー7"}, 
 {"id":"07b23539-0a11-4e0b-90e1-c076f25332d9","lat":35.39739408,"long":139.59737390,"status":"done","name":"老人ホーム白神横金網","address":"港南区笹下一丁目４番43号","city":"横浜市","number":"06-035"}, 
 {"id":"07b405ec-ca66-4093-b68b-ccb7775e6a7b","lat":35.50408010,"long":139.62094060,"status":"done","name":"篠原中学校正門脇路肩","address":"港北区篠原町1,342番地","city":"横浜市","number":"11-055"}, 
 {"id":"07b5ed8b-02d5-4eda-8bc1-43ca6238b6d1","lat":35.47424375,"long":139.54435570,"status":"done","name":"下川橋欄干","address":"旭区四季美台２番地","city":"横浜市","number":"08-005"}, 
 {"id":"07b6b97f-648a-4b96-8b70-4a25a503fef2","lat":35.50613800,"long":139.34043190,"status":"done","name":"masked","address":"中津7453-1","city":"愛川町","number":"83"}, 
 {"id":"07b79696-888c-4880-bc20-fe81d1521ad6","lat":35.36330390,"long":139.22143980,"status":"done","name":"いまいずみ台南公園北側フェンス","address":"今泉台3丁目9番","city":"秦野市","number":"68"}, 
 {"id":"07bd6bc1-1dc5-4844-9312-be5bcb682fc2","lat":35.61880990,"long":139.46459550,"status":"done","name":"はるひ野駅　北口東側","address":"麻生区はるひ野5丁目8番1号","city":"川崎市","number":"153"}, 
 {"id":"07bdda70-ac5a-4f61-ae96-a9753ca8be8d","lat":35.36510030,"long":139.35749310,"status":"done","name":"田村長者公園南側","address":"田村一丁目19","city":"平塚市","number":"26ー8"}, 
 {"id":"07c22360-7597-4d15-b79e-c89cd9857f02","lat":35.36622377,"long":139.57058300,"status":"done","name":"テニスコート上フェンス","address":"栄区上郷町264番地","city":"横浜市","number":"16-151"}, 
 {"id":"07c5bdfc-3eca-4fcc-a106-3d4b257d14bd","lat":35.38915750,"long":139.19417700,"status":"done","name":"三屋台児童館東側フェンス (位置情報が見つかりませんでした)","address":"戸川156番1号","city":"秦野市","number":"129"}, 
 {"id":"07c643ae-82da-43b2-9dda-6b6f66d49d30","lat":35.53827210,"long":139.72959790,"status":"done","name":"中瀬公園南側植込み","address":"川崎区中瀬3丁目5番","city":"川崎市","number":"190"}, 
 {"id":"07c949d1-b9a1-4666-a56a-9b02c5bbd858","lat":35.35607190,"long":139.25309380,"status":"done","name":"masked","address":"下大槻1285番地","city":"秦野市","number":"134"}, 
 {"id":"07ce5b21-9198-40a6-a0a1-ad32d72ddfa4","lat":35.45786700,"long":139.48754900,"status":"done","name":"市営南台ハイツＢ２１号棟東側芝地植込","address":"瀬谷区南台二丁目4番地の1","city":"横浜市","number":"18-099"}, 
 {"id":"07d0898a-1039-4855-b62f-14b3b1d2c1e6","lat":35.54991532,"long":139.52231380,"status":"done","name":"上谷本第二公園","address":"青葉区もえぎ野21番地","city":"横浜市","number":"13-095"}, 
 {"id":"07d7e40b-c4d0-4633-aa58-278c2776b303","lat":35.61991140,"long":139.53388880,"status":"done","name":"寺尾台こぶし公園フェンス","address":"多摩区寺尾台1丁目18番41号","city":"川崎市","number":"165"}, 
 {"id":"07d9623b-2c18-448b-ab43-157a72cb8536","lat":35.41564556,"long":139.59410870,"status":"done","name":"「イトーヨーカ堂  横浜別所店」前南側","address":"南区別所一丁目14番","city":"横浜市","number":"05-181"}, 
 {"id":"07dbaef7-495d-46d3-a7f2-e76a59c1a299","lat":35.15219630,"long":139.63133930,"status":"done","name":"川島アパート前ブロック","address":"原町11番31号","city":"三浦市","number":"41"}, 
 {"id":"07ddc8a4-76f2-4f86-8747-aa99a361721e","lat":35.51956504,"long":139.54100330,"status":"done","name":"バス停「谷津田原第２住宅入口」横ガ−ドレ−ル","address":"緑区北八朔町１５０２","city":"横浜市","number":"12-142"}, 
 {"id":"07e24682-de73-4a19-b9c2-75702117b5e0","lat":35.38946579,"long":139.55518530,"status":"done","name":"南舞岡小学校正門横(ﾌｪﾝｽ取付)","address":"戸塚区南舞岡四丁目15番","city":"横浜市","number":"15-146"}, 
 {"id":"07e24bec-9cbe-4230-b05f-3091ed2eec83","lat":35.36410010,"long":139.39688430,"status":"done","name":"神奈川県立茅ヶ崎北陵高等学校 旧校地 南側フェンス東端","address":"下寺尾515番地","city":"茅ヶ崎市","number":"279"}, 
 {"id":"07e310cd-ec67-43fe-8f7a-49c73ef4c5b4","lat":35.20233920,"long":139.64182680,"status":"done","name":"川名農園（いちご狩り）先民家前ガードレール","address":"初声町高円坊1173番地","city":"三浦市","number":"116"}, 
 {"id":"07e73c58-4568-4231-8009-661d63f11d06","lat":35.38838920,"long":139.44329920,"status":"done","name":"秋葉台公園第1駐車場入口右側","address":"遠藤2000-1","city":"藤沢市","number":"460"}, 
 {"id":"07eab1d1-4a6a-41fe-9348-451ec0d0e1c4","lat":35.55140490,"long":139.32064440,"status":"done","name":"222葉山バス停前","address":"緑区","city":"相模原市","number":"756"}, 
 {"id":"07eb3b6c-dc5b-4953-818f-04ec04693fd9","lat":35.53134180,"long":139.72925140,"status":"done","name":"masked","address":"川崎区川中島1丁目27番13号","city":"川崎市","number":"177"}, 
 {"id":"07eb9306-37eb-4468-9056-cec587fd8e5b","lat":35.40465480,"long":139.37846170,"status":"done","name":"渋谷神社西側塀","address":"門沢橋四丁目11番14号","city":"海老名市","number":"11 - １"}, 
 {"id":"07f3e555-1c0c-46d2-8ad6-761f363642fe","lat":35.52319947,"long":139.63333560,"status":"done","name":"駐車場向斜面路肩","address":"港北区大曽根一丁目６番","city":"横浜市","number":"11-153"}, 
 {"id":"07f8fe3e-1c43-4f8c-8b74-36a7505d204d","lat":35.38162612,"long":139.61443670,"status":"done","name":"杉田三丁目第二公園南側鉄柵","address":"磯子区杉田三丁目12番","city":"横浜市","number":"09-149"}, 
 {"id":"07fb89c4-bf5d-4f9b-a120-cf81de23db1b","lat":35.47625650,"long":139.46089110,"status":"done","name":"ベテルギウス 駐車場フェンス","address":"深見西1-3-17","city":"大和市","number":"157"}, 
 {"id":"07fe6bd2-9151-40b0-94a8-b5203bad799c","lat":35.28329380,"long":139.58013120,"status":"done","name":"長柄交差点バス停（御用邸方面）植込","address":"長柄 458番地先","city":"葉山町","number":"57"}, 
 {"id":"080427a0-b9a6-431b-8951-7fa5c4b80ba4","lat":35.47057720,"long":139.43038290,"status":"done","name":"ルアンジュさがみ野北側植栽","address":"東柏ケ谷五丁目14番11号","city":"海老名市","number":"18 - ３"}, 
 {"id":"080dfe64-5c63-4b0e-b58c-18eb2689931e","lat":35.45913160,"long":139.35730360,"status":"done","name":"パークハイツコジマ北道路ガードパイプ","address":"妻田西1-25","city":"厚木市","number":"54"}, 
 {"id":"080f92ce-bd96-422c-89be-36a0dc348cbf","lat":35.35777170,"long":139.45287470,"status":"done","name":"台谷公園北側","address":"大庭5083","city":"藤沢市","number":"276"}, 
 {"id":"0818148a-7269-499c-be59-a753f3b80bd6","lat":35.14553080,"long":139.10269870,"status":"done","name":"駅前ポケットパーク柵","address":"土肥一丁目4番地の3","city":"湯河原町","number":"46"}, 
 {"id":"081f92f5-856d-4c6a-a988-109998fd4c0e","lat":35.51593220,"long":139.43415090,"status":"done","name":"244東林小学校南側","address":"南区","city":"相模原市","number":"460"}, 
 {"id":"0826fe8f-02aa-4cb8-a1aa-137d12511d94","lat":35.40662705,"long":139.58027600,"status":"done","name":"南高校グランド金網（二丁目11番付近）","address":"港南区東永谷二丁目１番","city":"横浜市","number":"06-193"}, 
 {"id":"08283022-9417-4a7c-a231-d6c7a0a05d0e","lat":35.48228690,"long":139.52784040,"status":"done","name":"ベルハイツ今宿Ｆ横フェンス","address":"旭区今宿南町1,966番地","city":"横浜市","number":"08-195"}, 
 {"id":"08287ea0-cac5-4e6b-ae1a-4aebddcf3f33","lat":35.45287844,"long":139.61833910,"status":"done","name":"伊勢町もくせい公園入口横植込み","address":"西区伊勢町３丁目133番地","city":"横浜市","number":"03-105"}, 
 {"id":"083615de-b5ca-4e36-b022-47f51832a20d","lat":35.39500550,"long":139.31284640,"status":"done","name":"駅南口 バスロータリー 内","address":"桜 台一丁目 1番","city":"伊勢原市","number":"8"}, 
 {"id":"0836a7c7-d2c1-439e-8062-93473a83ef05","lat":35.36997450,"long":139.35956370,"status":"done","name":"太陽公園南側","address":"田村二丁目10","city":"平塚市","number":"26ー6"}, 
 {"id":"0840d744-cc3f-4b37-9730-7f8106d412bb","lat":35.62426840,"long":139.56555760,"status":"done","name":"登戸第1公園フェンス","address":"多摩区登戸新町228番地","city":"川崎市","number":"47"}, 
 {"id":"0841380d-5d86-4c1e-b5f1-58e623fbf778","lat":35.25638642,"long":139.16346130,"status":"done","name":"10","address":"栄町４丁目９−３９","city":"小田原市","number":"10"}, 
 {"id":"0841c603-4c48-4119-bc1d-dfb9bb9a1655","lat":35.57306390,"long":139.37039150,"status":"done","name":"125消防指令センター北西側緑地帯","address":"中央区","city":"相模原市","number":"87"}, 
 {"id":"08423b78-4231-40b0-a66b-89f3949b77a3","lat":35.59394410,"long":139.29221890,"status":"done","name":"233若葉台カタクリ公園東側","address":"緑区","city":"相模原市","number":"763"}, 
 {"id":"08432bde-cb85-4d51-a108-b294d3250d4b","lat":35.38728070,"long":139.17763050,"status":"done","name":"masked","address":"堀川614番","city":"秦野市","number":"199"}, 
 {"id":"084662e8-4ac5-4294-9068-59b3a3bc25c4","lat":35.55209540,"long":139.42088060,"status":"done","name":"41大野小学校西側","address":"南区","city":"相模原市","number":"310"}, 
 {"id":"08558d10-282b-424b-b1e0-c18077bf9d96","lat":35.46393300,"long":139.48360100,"status":"done","name":"市営橋戸原ハイツ６号棟公園フェンス","address":"瀬谷区橋戸一丁目31番地の1","city":"横浜市","number":"18-170"}, 
 {"id":"085bf88f-cd63-4d66-b615-67f330f722ad","lat":35.36338340,"long":139.41252060,"status":"done","name":"博物館敷地南東端 河川管理用通路 駒寄川沿い 芝生エリア","address":"堤3786番地1","city":"茅ヶ崎市","number":"265"}, 
 {"id":"08666a2a-a0cb-426d-9928-35c0ff5a2242","lat":35.44917930,"long":139.61608760,"status":"done","name":"県営藤棚団地７号棟前ガードレール","address":"西区藤棚町２丁目７番地","city":"横浜市","number":"03-136"}, 
 {"id":"086a9673-3b42-4fb5-8512-97aeb2686899","lat":35.41897760,"long":139.47343840,"status":"done","name":"みどりの広場第367号北側","address":"高倉2259-5","city":"藤沢市","number":"375"}, 
 {"id":"086b682b-ac64-4461-83e7-6b03dbe609da","lat":35.54821896,"long":139.54796940,"status":"done","name":"泉公園","address":"青葉区荏田西三丁目10番地27","city":"横浜市","number":"13-269"}, 
 {"id":"0874f33b-0c1f-4569-81c9-10d0feae2b39","lat":35.33896570,"long":139.12308320,"status":"done","name":"松ノ木河原町有地","address":"延沢 2512番地8","city":"開成町","number":"7"}, 
 {"id":"0878820b-cf74-4943-901a-f9f841015ae6","lat":35.32173470,"long":139.16500630,"status":"done","name":"masked","address":"上大井６８３番地４","city":"大井町","number":"33"}, 
 {"id":"087adce4-595f-4be3-ace4-da45b82607ef","lat":35.59352400,"long":139.34869760,"status":"done","name":"21新町やすらぎ公園","address":"緑区","city":"相模原市","number":"607"}, 
 {"id":"08826ce9-ac3a-4f06-85a6-d58cefe95e15","lat":35.36239860,"long":139.62075880,"status":"done","name":"富岡西公園（南側）","address":"金沢区富岡西六丁目３番","city":"横浜市","number":"10-008"}, 
 {"id":"08869c45-f493-4a66-bcb0-2f42c5d85b3a","lat":35.55936910,"long":139.33510060,"status":"done","name":"305田名みどり野公園","address":"中央区","city":"相模原市","number":"226"}, 
 {"id":"088eb132-c563-4166-9907-2d5d1f2551ac","lat":35.32364860,"long":139.56123960,"status":"done","name":"清泉小学校ラファエラ広場フェンス","address":"雪ノ下三丁目10番3号","city":"鎌倉市","number":"3-7"}, 
 {"id":"0892c3af-b639-4cfb-917d-7f94802b6578","lat":35.31171580,"long":139.55855780,"status":"done","name":"安国論寺横転落防止柵","address":"大町四丁目4-18","city":"鎌倉市","number":"5-1"}, 
 {"id":"08abe290-d5df-4d4b-b3c4-237f4a4de0f0","lat":35.54988327,"long":139.63393620,"status":"done","name":"日吉本町駅前ガードレール","address":"港北区日吉本町五丁目３番","city":"横浜市","number":"11-247"}, 
 {"id":"08ad38a2-26ba-4454-a850-7e31994e2ff3","lat":35.25343870,"long":139.05211190,"status":"done","name":"宝珠院入口付近","address":"宮城野102番地","city":"箱根町","number":"37"}, 
 {"id":"08bbd7fb-44a8-4834-9fe3-c2ba4964b7e4","lat":35.30974940,"long":139.52957800,"status":"done","name":"極楽寺駅駐輪所脇歩道フェンス","address":"極楽寺三丁目7番","city":"鎌倉市","number":"11-4"}, 
 {"id":"08bd80ce-1368-42f7-adf7-f5f65ec3efc4","lat":35.54787200,"long":139.32971520,"status":"done","name":"333相模川ふれあい科学館北東側三差路","address":"中央区","city":"相模原市","number":"248"}, 
 {"id":"08be9773-cb88-4900-8a6e-3a79925b8551","lat":35.45084900,"long":139.48040700,"status":"done","name":"下瀬谷第四公園西側植込","address":"瀬谷区下瀬谷三丁目57番地","city":"横浜市","number":"18-085"}, 
 {"id":"08d0ea67-75f6-4957-806c-fc61720ce24f","lat":35.38961170,"long":139.38964040,"status":"done","name":"masked","address":"宮山2882番地","city":"寒川町","number":"68"}, 
 {"id":"08d611cf-4490-46e0-84dd-6693b16a61c0","lat":35.30789220,"long":139.30397400,"status":"done","name":"宇賀神社横","address":"西小磯10-6番地先","city":"大磯町","number":"29"}, 
 {"id":"08d96b8e-1e6a-4272-8736-0dff1dcf269d","lat":35.45816540,"long":139.06061100,"status":"done","name":"篠杉手前分岐点ガードパイプ","address":"中川728番地","city":"山北町","number":"91"}, 
 {"id":"08e76c45-bdc8-4651-b928-bce12c450a2b","lat":35.22611846,"long":139.69332470,"status":"done","name":"masked","address":"横須賀市ハイランド4丁目49番8号","city":"横須賀市","number":"68-4"}, 
 {"id":"08e8fad5-cb11-4566-ae73-76893dcf10dd","lat":35.26939308,"long":139.67077870,"status":"done","name":"上町3丁目公園フェンス","address":"横須賀市上町3丁目33番地","city":"横須賀市","number":"24-1"}, 
 {"id":"08ee47b9-53e8-4704-93ba-383c02e3b8d3","lat":35.27354649,"long":139.66457100,"status":"done","name":"はまゆう公園入口石垣","address":"横須賀市不入斗町4丁目25番地","city":"横須賀市","number":"13-4"}, 
 {"id":"08f24123-fd74-4131-9869-e7a29cacb16b","lat":35.37120985,"long":139.61344310,"status":"done","name":"杉田郷戸公園入口横ガードレール","address":"磯子区杉田八丁目28番","city":"横浜市","number":"09-178"}, 
 {"id":"08ff8e9f-c7e3-414f-8099-f468e9e01584","lat":35.32536554,"long":139.61142740,"status":"done","name":"南六浦保育園沿いフェンス","address":"金沢区六浦五丁目20番","city":"横浜市","number":"10-130"}, 
 {"id":"090fadab-8656-45df-9970-897b13df8606","lat":35.49995660,"long":139.72184640,"status":"done","name":"川崎荷役Ｎ－１倉庫前歩道ガードレール","address":"川崎区扇町10番5号","city":"川崎市","number":"140"}, 
 {"id":"0924d850-9d5a-4924-b91e-0af69afe511d","lat":35.45699485,"long":139.62378480,"status":"done","name":"シャリエ横浜ベイグランデ前ガードレール","address":"西区戸部町６丁目207番地先","city":"横浜市","number":"03-095"}, 
 {"id":"09262592-10d5-4a63-8b96-f6961e10a5cf","lat":35.39003868,"long":139.53239800,"status":"done","name":"戸塚土木事務所資材置場(ﾌｪﾝｽ取付)","address":"戸塚区戸塚町335番地の1","city":"横浜市","number":"15-182"}, 
 {"id":"0927a6fd-fe07-4833-abc9-1b1e2b3a9efd","lat":35.37260883,"long":139.51151170,"status":"done","name":"畑の脇","address":"戸塚区小雀町1113番地","city":"横浜市","number":"15-249"}, 
 {"id":"0928a483-3d47-4e26-9547-61007a1e6339","lat":35.41120465,"long":139.59140010,"status":"done","name":"最戸二丁目第二公園正面鉄柵","address":"港南区最戸二丁目13番９号","city":"横浜市","number":"06-008"}, 
 {"id":"092ddaeb-68c9-4aad-98e7-6a0de445c4da","lat":35.54543156,"long":139.56956960,"status":"done","name":"都筑区総合庁舎駐車場入口脇植込","address":"都筑区茅ケ崎中央32番１号","city":"横浜市","number":"14-230"}, 
 {"id":"092ed43c-6cee-4988-9d30-e676b19e7714","lat":35.61747250,"long":139.50374950,"status":"done","name":"千代ケ丘小学校　南側門脇フェンス","address":"麻生区千代ケ丘8丁目9番1号","city":"川崎市","number":"39"}, 
 {"id":"093142e5-6337-432f-a2fc-7d08fc272664","lat":35.53025704,"long":139.55047400,"status":"done","name":"川和町森会館跡地前フェンス","address":"都筑区川和町1618番地","city":"横浜市","number":"14-068"}, 
 {"id":"09315807-bd6f-4347-9812-3ce1ac68b758","lat":35.58028280,"long":139.63161530,"status":"done","name":"県立新城高等学校東側フェンス","address":"中原区下新城1丁目14番1号","city":"川崎市","number":"154"}, 
 {"id":"093c47a2-6bb6-4a4a-a0dd-0f5ee606c472","lat":35.51660910,"long":139.45232010,"status":"done","name":"つきみ野9号公園西側","address":"つきみ野8-3","city":"大和市","number":"13"}, 
 {"id":"093e5813-732d-40f3-94d2-803ca225e0d5","lat":35.34531520,"long":139.14036730,"status":"done","name":"松田中学校プール金網","address":"松田惣領 1432 番地","city":"松田町","number":"31"}, 
 {"id":"094048b7-c7bf-4c52-9e77-45142e48bfa4","lat":35.34813970,"long":139.40547370,"status":"done","name":"鶴が台小学校 プール 西側フェンス","address":"鶴が台12番1号","city":"茅ヶ崎市","number":"293"}, 
 {"id":"09411f0f-0703-4a3d-b47b-41a4506e6de4","lat":35.54450917,"long":139.63821840,"status":"done","name":"日吉南小学校さくら門左側フェンス端","address":"港北区日吉本町四丁目２番６号","city":"横浜市","number":"11-204"}, 
 {"id":"09417f56-e998-4a87-8c91-5fe6c9a3920c","lat":35.42207286,"long":139.54880820,"status":"done","name":"秋葉第四公園（ｶﾞｰﾄﾞﾊﾟｲﾌﾟ）","address":"戸塚区秋葉町57番地の8","city":"横浜市","number":"15-093"}, 
 {"id":"0944649d-df2a-4e0e-a676-e469747ae1f7","lat":35.37402798,"long":139.54441610,"status":"done","name":"本郷台三丁目緑地(バス停「市民の森」後方の土手)","address":"栄区本郷台三丁目8番","city":"横浜市","number":"16-038"}, 
 {"id":"0948515c-54be-428d-bf69-d9d53ca9727a","lat":35.56010700,"long":139.35133770,"status":"done","name":"362上溝北ふれあい広場西側","address":"中央区","city":"相模原市","number":"270"}, 
 {"id":"094db8a6-91cb-4975-9320-98129607f69c","lat":35.53744755,"long":139.56429350,"status":"done","name":"バス停「都筑ふれあいの丘」後歩道植込","address":"都筑区葛が谷１番","city":"横浜市","number":"14-110"}, 
 {"id":"0958423d-e6f0-4256-8329-9031a9f58dfe","lat":35.39476810,"long":139.46884680,"status":"done","name":"青葉公園西側","address":"湘南台1丁目36","city":"藤沢市","number":"402"}, 
 {"id":"095d4169-c513-416b-bd55-f9e3571d3a88","lat":35.30442700,"long":139.59858720,"status":"done","name":"池子ポンプ場塀","address":"逗子市池子3－2－2先","city":"逗子市","number":"6-6"}, 
 {"id":"096051b6-a3b5-4d4d-b8ab-1033956d4c7b","lat":35.44309197,"long":139.60762650,"status":"done","name":"タイムズ清水ヶ丘第４横","address":"南区清水ケ丘248番地","city":"横浜市","number":"05-081"}, 
 {"id":"096343fa-b0b0-4e20-89d2-132a1287052c","lat":35.39576677,"long":139.59481620,"status":"done","name":"ロイヤルシャトー港南中央前駐車場金網","address":"港南区港南四丁目９番","city":"横浜市","number":"06-032"}, 
 {"id":"09685f77-05b2-47e1-bb49-19fa4cdbce3a","lat":35.33816360,"long":139.31018460,"status":"done","name":"市立旭北公民館西側","address":"河内440","city":"平塚市","number":"45ー5"}, 
 {"id":"0975ff05-2ea3-4993-a286-92528aca60da","lat":35.24931114,"long":139.72192180,"status":"done","name":"早稲田ハイムB棟脇フェンス","address":"横須賀市二葉2丁目13番","city":"横須賀市","number":"51-6"}, 
 {"id":"097e187a-1090-4772-b180-cbcc79b5d686","lat":35.45763400,"long":139.42655200,"status":"done","name":"MEGAドン・キホーテ綾瀬店前フェンス","address":"大上２丁目１−１","city":"綾瀬市","number":"30"}, 
 {"id":"09907522-5842-49d1-bafd-358bd8d10e25","lat":35.48515380,"long":139.44020620,"status":"done","name":"若草保育園北側","address":"西鶴間8-4-20","city":"大和市","number":"99"}, 
 {"id":"09915369-ceb6-4218-9041-bda7708f3acc","lat":35.14313000,"long":139.62540570,"status":"done","name":"（株）美咲前ガードパイプ","address":"向ヶ崎町1番5号","city":"三浦市","number":"49"}, 
 {"id":"0992862a-adb0-440e-b898-a2de98c873b8","lat":35.48038802,"long":139.63979030,"status":"done","name":"歩道植込","address":"神奈川区新町11番地先","city":"横浜市","number":"02-096"}, 
 {"id":"09942fe7-0320-444b-8664-3b6d9f5ece24","lat":35.30452330,"long":139.28556330,"status":"done","name":"㈱エス・ケイ・ディ東側路地入口付近","address":"国府本郷351番地付近","city":"大磯町","number":"40"}, 
 {"id":"0994eee5-700d-4ad8-9163-6ec412161081","lat":35.25683907,"long":139.15369790,"status":"done","name":"48","address":"城山１丁目６−１","city":"小田原市","number":"48"}, 
 {"id":"099b82f3-e2cd-4621-be54-95a7b792e800","lat":35.33183150,"long":139.42541790,"status":"done","name":"住宅 東側生垣","address":"旭が丘8番52号","city":"茅ヶ崎市","number":"205"}, 
 {"id":"09a1d3a5-df40-464a-8a71-347f1ccc64a7","lat":35.43439760,"long":139.64257250,"status":"done","name":"地蔵坂上鉄柵","address":"中区山手町９","city":"横浜市","number":"04-085"}, 
 {"id":"09a7c828-67d3-496a-a8ae-f1cf16af0c1b","lat":35.27034026,"long":139.68286310,"status":"done","name":"平成緑道緑地横植込","address":"横須賀市平成町1丁目5番地","city":"横須賀市","number":"17-2"}, 
 {"id":"09ab1c21-c2f5-4d7d-8e1d-d696bad4c629","lat":35.23354320,"long":139.71452870,"status":"done","name":"久里浜台2丁目第2公園石垣","address":"横須賀市久里浜台2丁目17番","city":"横須賀市","number":"64-4"}, 
 {"id":"09b27608-73c9-44cf-8ed6-5894080f1dbc","lat":35.32763840,"long":139.13638650,"status":"done","name":"開成駅前第2公園","address":"吉田島 4307番地2","city":"開成町","number":"50"}, 
 {"id":"09b3309e-15db-4f23-8e63-bd6ac12522f8","lat":35.44994642,"long":139.59740460,"status":"done","name":"カサイハイツ筋向いがけ下","address":"保土ケ谷区月見台38番","city":"横浜市","number":"07-047"}, 
 {"id":"09ba59b1-d267-4cac-b7c8-9e82cf009970","lat":35.44100118,"long":139.61772550,"status":"done","name":"太田小学校校門横","address":"南区三春台42番地","city":"横浜市","number":"05-076"}, 
 {"id":"09baf4f0-becd-40e7-b59c-74afb2de9650","lat":35.45551207,"long":139.51821700,"status":"done","name":"ホープヒル前ガードレール","address":"旭区中希望が丘83番地","city":"横浜市","number":"08-116"}, 
 {"id":"09bceef8-cf84-4f26-b2ab-b1efa4a89ff2","lat":35.57588190,"long":139.61802870,"status":"done","name":"野川宮の前公園南側植栽","address":"宮前区野川本町3丁目11番21号","city":"川崎市","number":"67"}, 
 {"id":"09beba66-a9cd-4aa9-9a66-c611ff6be5df","lat":35.46514865,"long":139.57942100,"status":"done","name":"坂本小学校入口横フェンス","address":"保土ケ谷区坂本町6番地","city":"横浜市","number":"07-171"}, 
 {"id":"09bffda1-b041-46ac-af8f-20b831e9acfc","lat":35.33072080,"long":139.37980060,"status":"done","name":"線路沿い 消火器西側","address":"中島1360番地先","city":"茅ヶ崎市","number":"127"}, 
 {"id":"09c38e68-168b-411c-a5f1-ba34248a78d0","lat":35.57974429,"long":139.53053360,"status":"done","name":"旧すすき野小学校北側ガードレール","address":"青葉区すすき野三丁目４番地１","city":"横浜市","number":"13-238"}, 
 {"id":"09c81c48-f303-4cb3-891b-dc675b48d406","lat":35.50743520,"long":139.44771260,"status":"done","name":"柿の木通り公園北側","address":"中央林間4-26","city":"大和市","number":"21"}, 
 {"id":"09d03003-42e6-4274-88c8-32318fcaa5bc","lat":35.32154500,"long":139.61139070,"status":"done","name":"南川緑地","address":"金沢区六浦南二丁目10番","city":"横浜市","number":"10-143"}, 
 {"id":"09d66ad3-8ab7-4a4c-91ee-2ca9216cf577","lat":35.36574760,"long":139.55232950,"status":"done","name":"柏陽高校西側グラウンドフェンス","address":"栄区柏陽1番","city":"横浜市","number":"16-095"}, 
 {"id":"09d753bd-809d-4945-ac39-ecbdf84af5b1","lat":35.47873160,"long":139.34160080,"status":"done","name":"日吉神社西側フェンス","address":"下荻野1114","city":"厚木市","number":"20"}, 
 {"id":"09e0d497-e444-4885-a7b8-d87e9a8f8602","lat":35.55803134,"long":139.58025150,"status":"done","name":"牛久保西すずらん公園入口脇植込","address":"都筑区牛久保西一丁目５番","city":"横浜市","number":"14-233"}, 
 {"id":"09e2ce95-af24-4243-a1f2-310b2699abfd","lat":35.45490420,"long":139.34017430,"status":"done","name":"緑ヶ丘まろ公園東側フェンス","address":"緑ヶ丘4-4","city":"厚木市","number":"22"}, 
 {"id":"09e9d844-b759-40de-b0a8-23634f27f40b","lat":35.50240160,"long":139.45311230,"status":"done","name":"ニッセイロジスティクスセンター西南","address":"中央林間7-12-2","city":"大和市","number":"48"}, 
 {"id":"09f65763-12c9-4ac5-95c9-3b2754e8012c","lat":35.57182420,"long":139.59087510,"status":"done","name":"有馬東公園東側フェンス","address":"宮前区東有馬3丁目13番32号","city":"川崎市","number":"176"}, 
 {"id":"09f84ff6-4131-4bc4-a9f7-3848903ccf11","lat":35.30068557,"long":139.17957330,"status":"done","name":"184","address":"永塚４０８","city":"小田原市","number":"184"}, 
 {"id":"09f8c624-dffb-4bdf-9b02-8f28ed9b962b","lat":35.39561475,"long":139.53428340,"status":"done","name":"コンフォール上倉田集会所前","address":"戸塚区上倉田町360番地","city":"横浜市","number":"15-192"}, 
 {"id":"09ffbc46-24ef-4784-bf72-96f448378742","lat":35.47403510,"long":139.45375010,"status":"done","name":"大東公園北側","address":"上草柳2－14","city":"大和市","number":"150"}, 
 {"id":"0a08be2d-c751-4066-9dfc-5489200f7c3a","lat":35.41357460,"long":139.34190280,"status":"done","name":"外堀公園 内","address":"石田 741番地","city":"伊勢原市","number":"56"}, 
 {"id":"0a0daa3c-b87b-407c-a9b4-ad44b997713b","lat":35.43989200,"long":139.43470600,"status":"done","name":"綾瀬小学校横フェンス","address":"深谷中５丁目１−１","city":"綾瀬市","number":"18"}, 
 {"id":"0a191a9d-ee48-4bae-b61c-8e8c7f28e485","lat":35.56806660,"long":139.39418080,"status":"done","name":"283淵野辺駅南口緑地帯","address":"中央区","city":"相模原市","number":"208"}, 
 {"id":"0a200c1a-0b19-4aa4-996c-f29dfaa1dc64","lat":35.39245571,"long":139.59515780,"status":"done","name":"雑色町内会館前ガードレール","address":"港南区笹下五丁目21番","city":"横浜市","number":"06-055"}, 
 {"id":"0a2123d4-b353-4a78-bae0-42de708e5bce","lat":35.35167360,"long":139.41520370,"status":"done","name":"住宅 北側フェンス","address":"甘沼614番地","city":"茅ヶ崎市","number":"157"}, 
 {"id":"0a270ed5-a689-4a0d-bf3b-191e0023b3c3","lat":35.43506592,"long":139.52899790,"status":"done","name":"名瀬ふれあい広場(ﾌｪﾝｽ取付)","address":"戸塚区名瀬町2323番地","city":"横浜市","number":"15-014"}, 
 {"id":"0a28fd82-b9de-4e6e-9929-dce28c597611","lat":35.55654426,"long":139.55791150,"status":"done","name":"荏田第三公園","address":"青葉区荏田町449番地10","city":"横浜市","number":"13-166"}, 
 {"id":"0a30174f-50be-4103-9d79-edc3f5ac5b9a","lat":35.37509390,"long":139.48982960,"status":"done","name":"境川緑地立石西俣野線沿い横須賀水道橋北","address":"西俣野2033-1","city":"藤沢市","number":"352"}, 
 {"id":"0a351e0e-6d42-4ec6-9b88-5aedeaf4627a","lat":35.25320900,"long":139.15427290,"status":"done","name":"2","address":"栄町１丁目１−４７","city":"小田原市","number":"2"}, 
 {"id":"0a3d6f9f-f82a-4c78-9b0c-b102858a8ef3","lat":35.49804933,"long":139.57424170,"status":"done","name":"西菅田団地店舗前","address":"神奈川区菅田町488番地","city":"横浜市","number":"02-265"}, 
 {"id":"0a3e969f-daa3-4b82-8f76-1681f30d849b","lat":35.60025700,"long":139.34570750,"status":"done","name":"33橋本寿町公園","address":"緑区","city":"相模原市","number":"616"}, 
 {"id":"0a4228e1-f374-43ec-84f9-f61cfede0b3f","lat":35.48123700,"long":139.48886500,"status":"done","name":"県営細谷戸ハイツ細谷戸第２バス停植込","address":"瀬谷区瀬谷町5,812番地","city":"横浜市","number":"18-028"}, 
 {"id":"0a42f7ea-e3c9-48af-8a29-e28c9a937757","lat":35.50292552,"long":139.62759420,"status":"done","name":"篠原小学校キッズクラブ入口左側フェンス","address":"港北区篠原東三丁目27番１号","city":"横浜市","number":"11-024"}, 
 {"id":"0a47c3e9-2fdb-40c2-8135-4449ed1250d0","lat":35.36890970,"long":139.23662020,"status":"done","name":"河原町交差点公園フェンス","address":"河原町3番49号先","city":"秦野市","number":"28"}, 
 {"id":"0a49393c-ff5d-4f22-9212-4ff52beaf4fd","lat":35.54152309,"long":139.48341680,"status":"done","name":"あかね台西が谷公園","address":"青葉区あかね台二丁目20番地","city":"横浜市","number":"13-317"}, 
 {"id":"0a4a4258-ad2a-4c25-ae88-a084f071d842","lat":35.33470770,"long":139.34903030,"status":"done","name":"平塚市役所南西側","address":"浅間町9－1","city":"平塚市","number":"11ー5"}, 
 {"id":"0a4f544d-0c59-400b-a839-e52e55c7fe71","lat":35.32540210,"long":139.48741000,"status":"done","name":"セントケア鶴沼南側フェンス","address":"鶴沼藤が谷4丁目19?57","city":"藤沢市","number":"90"}, 
 {"id":"0a52e95b-986f-42e2-b37d-053113b0df0f","lat":35.54065570,"long":139.68292870,"status":"done","name":"塚越４丁目公園　西側フェンス","address":"幸区塚越4丁目314番地3","city":"川崎市","number":"81"}, 
 {"id":"0a5a947c-491f-4043-abd4-d58ba5509915","lat":35.38373555,"long":139.59532080,"status":"done","name":"洋光台第一小学校団地側ガードレール","address":"磯子区洋光台一丁目４番１号","city":"横浜市","number":"09-204"}, 
 {"id":"0a5d987b-6a55-46e3-935a-eea71819cff8","lat":35.54200034,"long":139.56834480,"status":"done","name":"中の瀬歩道橋脇植込","address":"都筑区荏田東一丁目９番","city":"横浜市","number":"14-204"}, 
 {"id":"0a633399-073d-4ec5-9239-55c4292c9af9","lat":35.38319525,"long":139.60384950,"status":"done","name":"左右手公園入口横鉄柵","address":"磯子区田中二丁目23番","city":"横浜市","number":"09-142"}, 
 {"id":"0a6368c1-008e-4224-9010-4841f1678a0c","lat":35.57105420,"long":139.60481240,"status":"done","name":"ガードレール","address":"宮前区西野川3丁目16番","city":"川崎市","number":"62"}, 
 {"id":"0a6a3798-553c-4b05-bc23-08788f831728","lat":35.46316213,"long":139.56994830,"status":"done","name":"masked","address":"保土ケ谷区仏向西14番","city":"横浜市","number":"07-192"}, 
 {"id":"0a73e4ac-5a81-4b83-b54b-08122a1a9a73","lat":35.30970640,"long":139.25141040,"status":"done","name":"東京大学二宮果樹園跡地西側","address":"中里518番地","city":"二宮町","number":"43"}, 
 {"id":"0a7481a5-0d7c-4705-a28b-b2df889cb348","lat":35.47908833,"long":139.52834770,"status":"done","name":"今宿南小学校正門フェンス","address":"旭区今宿南町1,879番地","city":"横浜市","number":"08-189"}, 
 {"id":"0a78d52a-1eae-41ce-83e3-10a50179422c","lat":35.44458100,"long":139.49624200,"status":"done","name":"ﾗｲｵﾝｽﾞﾏﾝｼｮﾝ三ツ境第２北側フェンス","address":"瀬谷区阿久和南四丁目5番地の1","city":"横浜市","number":"18-143"}, 
 {"id":"0a792544-9418-40de-9ff6-dc7bc451e4f9","lat":35.54628140,"long":139.32810230,"status":"done","name":"335田名八幡宮前","address":"中央区","city":"相模原市","number":"250"}, 
 {"id":"0a81b29d-8991-4db4-b6b4-80e72def4f5a","lat":35.23653693,"long":139.70971470,"status":"done","name":"トータスハイムⅡ向かい側道路フェンス","address":"横須賀市久比里2丁目19番","city":"横須賀市","number":"85-5"}, 
 {"id":"0a897a1b-d811-41f8-8962-e5f73be297e6","lat":35.57110520,"long":139.57757260,"status":"done","name":"有馬中学校南側ガードレール","address":"宮前区有馬7丁目7番1号","city":"川崎市","number":"88"}, 
 {"id":"0a8dab32-ed4e-46e6-8b6b-bd2cd89cf990","lat":35.45593220,"long":139.35365530,"status":"done","name":"向田公園北側フェンス","address":"林1-8","city":"厚木市","number":"10"}, 
 {"id":"0a966c77-4a39-4999-b386-ccb7a9340733","lat":35.31813850,"long":139.55194580,"status":"done","name":"鎌倉郵便局南側フェンス","address":"小町一丁目10番3号","city":"鎌倉市","number":"4-4"}, 
 {"id":"0a9ad8e9-8081-4d3c-bf79-5df48ac78e49","lat":35.54163740,"long":139.65780400,"status":"done","name":"南加瀬下町公園　南側フェンス","address":"幸区南加瀬4丁目37番","city":"川崎市","number":"138"}, 
 {"id":"0aa2b17a-c699-413a-b866-04596cd3c952","lat":35.40235352,"long":139.56397700,"status":"done","name":"上永谷中里第二公園土手","address":"港南区上永谷六丁目９番","city":"横浜市","number":"06-174"}, 
 {"id":"0aa4c62c-c21c-4b62-a3b6-85e8249a8f5b","lat":35.41488740,"long":139.31276610,"status":"done","name":"北三間 農村広場","address":"東富岡 370番地の6 先","city":"伊勢原市","number":"112"}, 
 {"id":"0aa6aabe-0cce-498d-9922-89c02e4614ac","lat":35.30757949,"long":139.12931650,"status":"done","name":"76","address":null,"city":"南足柄市","number":"76"}, 
 {"id":"0aac75e6-dae6-4155-9c7e-512ab30c171c","lat":35.48160345,"long":139.52885150,"status":"done","name":"今宿団地公園柵","address":"旭区今宿南町2,010番地","city":"横浜市","number":"08-192"}, 
 {"id":"0ab0997e-9ee1-4e17-aad3-2d3a3b19a693","lat":35.47048800,"long":139.48106200,"status":"done","name":"瀬谷駅北口自転車駐車場北側フェンス","address":"瀬谷区中央4番地","city":"横浜市","number":"18-008"}, 
 {"id":"0ac04063-2ff9-4510-b3d4-b1a25bf30ad5","lat":35.42678783,"long":139.64775510,"status":"done","name":"masked","address":"中区立野65","city":"横浜市","number":"04-099"}, 
 {"id":"0ac4206d-b70d-4299-b027-019b403c00f1","lat":35.38235320,"long":139.37997180,"status":"done","name":"宮山駅前コンビニ北側駐車場フェンス","address":"宮山3605番地1","city":"寒川町","number":"41"}, 
 {"id":"0ac6c1d9-c121-4dbe-b8d3-5610ca384eab","lat":35.56887880,"long":139.64605420,"status":"done","name":"住宅生け垣","address":"中原区井田三舞町13番6号","city":"川崎市","number":"220"}, 
 {"id":"0ad0746e-91f2-4b26-a57a-74971b5f7bd5","lat":35.32616200,"long":139.45293270,"status":"done","name":"湘南工科大学正門左側","address":"辻堂西海岸1丁目1-25","city":"藤沢市","number":"221"}, 
 {"id":"0ad23dae-9951-4fd1-b89c-326f6d043781","lat":35.49894935,"long":139.64728840,"status":"done","name":"西寺尾第二小学校","address":"神奈川区西寺尾二丁目15番","city":"横浜市","number":"02-006"}, 
 {"id":"0adb7200-ad15-4428-8268-31778c540e82","lat":35.50242698,"long":139.66640690,"status":"done","name":"masked","address":"鶴見区岸谷三丁目31番８号","city":"横浜市","number":"01-279"}, 
 {"id":"0adc126d-81ea-4adb-900b-226363dff4c7","lat":35.23257151,"long":139.67062130,"status":"done","name":"岩戸4丁目第2公園入口脇石積み","address":"横須賀市岩戸4丁目26番","city":"横須賀市","number":"59-4"}, 
 {"id":"0ae78e37-c295-46ba-821a-ab1f1d6f4b59","lat":35.48753150,"long":139.45800740,"status":"done","name":"大和市役所西側植栽","address":"下鶴間1－1－1","city":"大和市","number":"132"}, 
 {"id":"0aeada6e-52f4-406b-b891-55ef1f99944f","lat":35.26301920,"long":139.63623320,"status":"done","name":"大楠山登山口バス停横","address":"木古庭 １６０６番地の１先","city":"葉山町","number":"1"}, 
 {"id":"0aecaae0-a565-41a6-8dbd-bdd4aa141a24","lat":35.47375750,"long":139.51703130,"status":"done","name":"旭中学校校庭側フェンス","address":"旭区今宿二丁目40番１号","city":"横浜市","number":"08-168"}, 
 {"id":"0aed65bf-ab5b-4c90-b832-00147d06385d","lat":35.31416660,"long":139.32453160,"status":"done","name":"東町二丁目公園前","address":"東町2丁目6-28番地付近","city":"大磯町","number":"11"}, 
 {"id":"0aed758b-fbc2-4a78-8823-3af15c15b605","lat":35.34372640,"long":139.40185120,"status":"done","name":"住宅 入口北側塀","address":"円蔵332番地","city":"茅ヶ崎市","number":"91"}, 
 {"id":"0af140d2-c6ba-4471-bfba-b3dd99b4c174","lat":35.51589360,"long":139.69572420,"status":"done","name":"コスモ川崎京町前ガードレール","address":"川崎区京町2丁目9番2号","city":"川崎市","number":"87"}, 
 {"id":"0af58bc1-287a-4df5-b137-6b73ba15387d","lat":35.43266640,"long":139.34107850,"status":"done","name":"ぼうさいの丘公園西側第4駐車場北側フェンス","address":"長谷981-13","city":"厚木市","number":"32"}, 
 {"id":"0b062fb5-b5bd-456a-b225-29926c5a6bf8","lat":35.58156040,"long":139.27018840,"status":"done","name":"265金丸入り口付近道路フェンス（太井側）","address":"緑区","city":"相模原市","number":"780"}, 
 {"id":"0b0c021b-01c3-45da-b124-d5879c283068","lat":35.35928044,"long":139.55194210,"status":"done","name":"たいら台公園内ガードレール","address":"栄区公田町424番地","city":"横浜市","number":"16-085"}, 
 {"id":"0b12d26e-a0a3-4328-b66a-cb4f5d0180f2","lat":35.31024340,"long":139.26927250,"status":"done","name":"石神台中央公園前","address":"石神台2丁目9-1番地付近","city":"大磯町","number":"53"}, 
 {"id":"0b13a85a-8447-4dbf-9183-f01377903320","lat":35.41203250,"long":139.59695580,"status":"done","name":"ソウル食彩館斜め前ガードレール","address":"港南区上大岡西一丁目３番","city":"横浜市","number":"06-013"}, 
 {"id":"0b1475d5-0a5d-42e4-999a-50909bffc7ff","lat":35.40887100,"long":139.35038800,"status":"done","name":"上落合ふれあい公園西側高架下フェンス","address":"上落合590番1","city":"厚木市","number":"49"}, 
 {"id":"0b1dcdf0-723d-4dd5-90d3-5c330cead732","lat":35.60527860,"long":139.58151140,"status":"done","name":"長尾小学校体育館側入口フェンス","address":"多摩区長尾7丁目28番1号","city":"川崎市","number":"30"}, 
 {"id":"0b2040aa-608e-4bb4-8d73-8c6b5a990b87","lat":35.32390360,"long":139.35547970,"status":"done","name":"夕陽ヶ丘児童公園北側","address":"夕陽ヶ丘32","city":"平塚市","number":"7ー1"}, 
 {"id":"0b286583-b0ec-4720-8f03-306a5a47fde5","lat":35.34565650,"long":139.46598600,"status":"done","name":"引地川緑地引地橋西交差点南側","address":"羽鳥5丁目10","city":"藤沢市","number":"253"}, 
 {"id":"0b2b5fe7-6808-4afc-8ce8-fe31d71498be","lat":35.61138340,"long":139.58514190,"status":"done","name":"宿河原東公園入口右側フェンス","address":"多摩区宿河原6丁目20番","city":"川崎市","number":"25"}, 
 {"id":"0b39f92a-f4b9-4893-84f2-e85402ab0b03","lat":35.49283754,"long":139.55184840,"status":"done","name":"新井町第五公園フェンス柵","address":"保土ケ谷区新井町378番地","city":"横浜市","number":"07-252"}, 
 {"id":"0b3ad57a-6c5f-4c46-8bc3-d040951f7cf7","lat":35.32127970,"long":139.50881680,"status":"done","name":"西鎌倉山づくいす公園フェンス","address":"腰越1330番地付近","city":"鎌倉市","number":"18-6"}, 
 {"id":"0b3beda4-52d3-4ce4-b0ae-95ba89fa83a9","lat":35.45622654,"long":139.59113970,"status":"done","name":"明神台公園南側入口横フェンス","address":"保土ケ谷区明神台7番2号","city":"横浜市","number":"07-145"}, 
 {"id":"0b3c1d27-9732-47dd-a36c-dbf3481a6b01","lat":35.24573180,"long":139.04869880,"status":"done","name":"箱根中学校校門横","address":"二ノ平1154番地","city":"箱根町","number":"55"}, 
 {"id":"0b40c9d4-21e7-4644-8bad-df8bcad1b1ff","lat":35.29584645,"long":139.17143900,"status":"done","name":"181","address":"延清８３−２","city":"小田原市","number":"181"}, 
 {"id":"0b44a6ab-4a64-41bc-bdee-928df3cb909a","lat":35.34502390,"long":139.42992130,"status":"done","name":"南側畑 南側東端","address":"菱沼一丁目9番","city":"茅ヶ崎市","number":"177"}, 
 {"id":"0b488339-1f47-4710-995e-a14a08157939","lat":35.38453680,"long":139.20982170,"status":"done","name":"給食センター入口右側フェンス (位置情報が見つかりませんでした)","address":"曽屋830番地の1","city":"秦野市","number":"8"}, 
 {"id":"0b4b27d4-070b-4218-809a-e1564eb87f43","lat":35.35896705,"long":139.61725860,"status":"done","name":"能見台平原公園（北側）","address":"金沢区能見台三丁目12番地","city":"横浜市","number":"10-229"}, 
 {"id":"0b51fc3c-28c9-4f61-a4df-2620e3005571","lat":35.60534930,"long":139.21931450,"status":"done","name":"434東洋紙業㈱対面の道路敷","address":"緑区","city":"相模原市","number":"891"}, 
 {"id":"0b551530-8653-4646-966c-70656e148f7a","lat":35.33333620,"long":139.37852040,"status":"done","name":"信隆寺 西側道路 ガードレール","address":"今宿841番地","city":"茅ヶ崎市","number":"122"}, 
 {"id":"0b61b3cc-d36d-4f06-95e3-90038d0b18f9","lat":35.44667669,"long":139.62389070,"status":"done","name":"野毛山公園交番の交差点向側公園鉄柵","address":"西区老松町63番地","city":"横浜市","number":"03-116"}, 
 {"id":"0b61eee1-ad6e-4fb8-8eb8-29f364b49496","lat":35.60386510,"long":139.32209150,"status":"done","name":"71田通公園北側","address":"緑区","city":"相模原市","number":"646"}, 
 {"id":"0b6a4239-8475-4003-a010-ad0a79ec5ba6","lat":35.51696180,"long":139.41020140,"status":"done","name":"344相模台団地５－３号棟前","address":"南区","city":"相模原市","number":"536"}, 
 {"id":"0b6c6fc6-d935-4fd3-b74e-f08fc41d4fe9","lat":35.36262598,"long":139.53621260,"status":"done","name":"大船パークタウン前植込","address":"栄区笠間四丁目10番","city":"横浜市","number":"16-060"}, 
 {"id":"0b6e8946-7b1a-484f-9dc4-70da3873385c","lat":35.36207110,"long":139.36032460,"status":"done","name":"（株）トーリク平塚センター東側フェンス","address":"四之宮六丁目10－32","city":"平塚市","number":"25ー4"}, 
 {"id":"0b72ffa9-996f-4c6d-932f-8ddbaf988458","lat":35.37724563,"long":139.61997240,"status":"done","name":"梅林小学校裏門左側フェンス","address":"磯子区杉田五丁目13番１号","city":"横浜市","number":"09-157"}, 
 {"id":"0b77aeb7-4378-4eaf-9a26-2031cc0cb64e","lat":35.34304770,"long":139.39617160,"status":"done","name":"南西側畑 北側","address":"円蔵2596番地地先","city":"茅ヶ崎市","number":"94"}, 
 {"id":"0b7a8a05-e12f-40a0-9cab-3b349727fb5b","lat":35.52928580,"long":139.69889530,"status":"done","name":"新川通り連絡通路横ガードレール (位置情報が見つかりませんでした)","address":"川崎区駅前本町2番地14","city":"川崎市","number":"8"}, 
 {"id":"0b7ecfc0-7982-4a09-8ff8-c35905afeba8","lat":35.46646710,"long":139.34889690,"status":"done","name":"山ノ上剣公園南側ガードパイプ","address":"及川1-2","city":"厚木市","number":"39"}, 
 {"id":"0b808cb0-ecc8-4e0d-b84c-d4a7a1fb27d8","lat":35.29625230,"long":139.58024730,"status":"done","name":"亀岡八幡宮塀","address":"逗子市逗子5－2－13","city":"逗子市","number":"1-3"}, 
 {"id":"0b8b84e2-485e-41b0-8459-23cb9e7ca548","lat":35.37019580,"long":139.41229420,"status":"done","name":"宝蔵寺 南側駐車場前道路 南側ガードレール","address":"行谷424番地","city":"茅ヶ崎市","number":"273"}, 
 {"id":"0b8c1922-c05d-4a54-965e-bc92420fea48","lat":35.39644420,"long":139.41030870,"status":"done","name":"ガーデニアこしょみ入口左側植栽","address":"獺郷218","city":"藤沢市","number":"438"}, 
 {"id":"0b8c1c63-76c9-4ef7-bd4d-569c066b6213","lat":35.44453755,"long":139.64237040,"status":"done","name":"中区役所脇植込み","address":"中区日本大通35","city":"横浜市","number":"04-051"}, 
 {"id":"0b8f3c00-983b-4f5b-ad54-efcffecf49b1","lat":35.49591004,"long":139.66775850,"status":"done","name":"京急線沿い横山生麦マンション前ガードレール","address":"鶴見区生麦三丁目３番12号","city":"横浜市","number":"01-292"}, 
 {"id":"0b96d70a-f57a-474d-94fd-3fb9f3c2842b","lat":35.49022480,"long":139.64115570,"status":"done","name":"ガードパイプ","address":"神奈川区西大口４番地","city":"横浜市","number":"02-084"}, 
 {"id":"0ba112df-684f-45e4-9554-a7ed6add2b4a","lat":35.35454170,"long":139.37927770,"status":"done","name":"masked","address":"田端938番地","city":"寒川町","number":"7"}, 
 {"id":"0ba2fa2b-7589-4960-b3a7-166b3d9305dc","lat":35.61414930,"long":139.14105670,"status":"done","name":"522野崎鉄工所北側道路敷","address":"緑区","city":"相模原市","number":"951"}, 
 {"id":"0bab62fd-aeb9-4f30-ac49-cdaf082fbc13","lat":35.53670647,"long":139.60841040,"status":"done","name":"masked","address":"港北区新吉田町3,405番地","city":"横浜市","number":"11-282"}, 
 {"id":"0bac2733-bb59-4868-bb4f-d09f15b964ac","lat":35.23597649,"long":139.70820780,"status":"done","name":"ローソン横須賀久比里店横歩道フェンス","address":"横須賀市久比里2丁目17番","city":"横須賀市","number":"85-4"}, 
 {"id":"0baf1606-1ad0-4e6c-95fe-4cd58c913a82","lat":35.37704270,"long":139.17371790,"status":"done","name":"よねやま公園植込み","address":"堀西482番","city":"秦野市","number":"221"}, 
 {"id":"0bb4a9a9-a0c4-4268-b7df-68f4503c2240","lat":35.57157770,"long":139.38834150,"status":"done","name":"143相模白ゆり幼稚園正門横","address":"中央区","city":"相模原市","number":"102"}, 
 {"id":"0bb746fa-e645-4cec-9c74-5a31295f0618","lat":35.54827910,"long":139.66883600,"status":"done","name":"日吉小学校　東側フェンス (位置情報が見つかりませんでした)","address":"幸区北加瀬1丁目37番1号","city":"川崎市","number":"119"}, 
 {"id":"0bb80482-bab1-4b98-a2d0-f1b6b22bcfdc","lat":35.40505022,"long":139.56894540,"status":"done","name":"永野歩道橋下フェンス","address":"港南区上永谷五丁目６番","city":"横浜市","number":"06-173"}, 
 {"id":"0bb8e1ed-44aa-42a4-a53e-cd916c142708","lat":35.36296623,"long":139.55704290,"status":"done","name":"上耕地橋横川沿いフェンス","address":"栄区公田町1,607番地","city":"横浜市","number":"16-116"}, 
 {"id":"0bc2a657-6035-4b01-926d-77436d9810ae","lat":35.32392834,"long":139.11634530,"status":"done","name":"110","address":null,"city":"南足柄市","number":"110"}, 
 {"id":"0bcb27a4-e171-4383-902e-10891c1a14f2","lat":35.28324748,"long":139.15503430,"status":"done","name":"363","address":null,"city":"小田原市","number":"363"}, 
 {"id":"0bd2bf97-7438-4785-863f-3f28f87089d5","lat":35.35937426,"long":139.64041940,"status":"done","name":"並木中学校植栽（正門側）","address":"金沢区並木三丁目４番","city":"横浜市","number":"10-202"}, 
 {"id":"0bd2dfa1-4165-46dd-bd90-095510a0fde5","lat":35.59440970,"long":139.63771740,"status":"done","name":"日本通運㈱神奈川東支店駐車場フェンス","address":"高津区下野毛3丁目6番","city":"川崎市","number":"46"}, 
 {"id":"0bd35494-31bd-4f4f-9b41-ee0cfef20d2c","lat":35.27260395,"long":139.68484870,"status":"done","name":"エイビイ平成町店前港湾施設フェンス","address":"横須賀市平成町3丁目11番地","city":"横須賀市","number":"17-7"},