[{"id":"5fdd17cb-e729-466b-a65c-5d859f6d7591","lat":35.11993930,"long":134.75141600,"status":"not_yet","name":"栗集会所前　ガードレール","address":"栗","city":"神河町","number":"89"}, 
 {"id":"5fdfee25-e77b-4a00-af14-bad67422d378","lat":34.86370400,"long":134.35387550,"status":"not_yet","name":"県道5号線沿い（スポーツセンター前）","address":"竹万29","city":"上郡町","number":"21"}, 
 {"id":"5fe1a9e7-147e-43aa-9f05-e930528211de","lat":34.74704400,"long":134.84515400,"status":"not_yet","name":"市道ガードレール","address":"野口町長砂355-1地先(0055 長砂口里線)","city":"加古川市","number":"152"}, 
 {"id":"5fe8081c-4a09-4cde-b96c-a47915f3522a","lat":34.75298360,"long":135.34012920,"status":"done","name":"ロイヤルホームセンター西向い緑地（広田山公園）","address":"大社町7番","city":"西宮市","number":"144"}, 
 {"id":"5fe9254b-5d07-4e50-8568-e049a22fdb0b","lat":34.85842510,"long":134.93386740,"status":"done","name":"神姫バス停「イオン小野店前（下り）」県道加古川小野線（18号）防護柵","address":"敷地町1501の8地先","city":"小野市","number":"21-137"}, 
 {"id":"5fe9d88b-7109-4270-a707-9f77237c539d","lat":34.74275310,"long":135.38092460,"status":"done","name":"下沢公園 南東","address":"南武庫之荘10丁目8下沢公園 南東","city":"尼崎市","number":"428"}, 
 {"id":"5fed9100-b01e-4783-8364-b8a324a42bb1","lat":34.97121740,"long":134.68592350,"status":"not_yet","name":"新鹿谷橋西詰 ガードフェンス","address":"夢前町前之庄3151番地1 地先","city":"姫路市","number":"713"}, 
 {"id":"5ff7b54b-ea17-49d4-9c22-8eb2ec28e4ac","lat":34.72512620,"long":134.95101510,"status":"not_yet","name":"大道星市民公園前付近","address":"西区岩岡町岩岡485番地","city":"神戸市","number":"344"}, 
 {"id":"5ffb760e-0a29-4f2d-ad77-959021c3c8e7","lat":34.81976870,"long":135.40703120,"status":"done","name":"旧川西市立加茂幼稚園","address":"加茂1丁目4番5号旧川西市立加茂幼稚園","city":"川西市","number":"103"}, 
 {"id":"5ffd04fd-287c-4233-bbf7-cd378cc948ad","lat":34.92102630,"long":134.54656840,"status":"not_yet","name":"松本歯科東側ガードレール","address":"新宮町浦町","city":"たつの市","number":"37"}, 
 {"id":"6002840e-104b-4bee-8ec0-8e277928f53d","lat":34.90023130,"long":134.71985870,"status":"not_yet","name":"青葉台保育園入口　ガードレール","address":"香寺町須加院344番地1　地先","city":"姫路市","number":"785"}, 
 {"id":"6011320d-99b2-42f7-9352-63abfb0aa11a","lat":34.96363870,"long":134.74098230,"status":"not_yet","name":"masked","address":"高岡916-2","city":"福崎町","number":"81"}, 
 {"id":"601ca376-3ff2-4a54-a816-7ad68acb2292","lat":34.67206640,"long":135.02361120,"status":"done","name":"JAアクト駐車場北角付近","address":"西区池上3丁目3番地","city":"神戸市","number":"96"}, 
 {"id":"602c8cf3-16d7-475e-8451-0fa046ba91a8","lat":34.90912910,"long":135.29070200,"status":"not_yet","name":"清瀬橋バス停横ガードレール","address":"宝塚市波豆字八坂掛8","city":"宝塚市","number":"22-07"}, 
 {"id":"60395b42-fb20-434d-8d97-7e4299e21b69","lat":34.77886180,"long":135.38962480,"status":"done","name":"平町児童遊園地 西側植込み","address":"寺本5丁目114番地","city":"伊丹市","number":"226"}, 
 {"id":"603b83b4-0afc-4333-9630-59b478083685","lat":35.05021590,"long":134.92342480,"status":"done","name":"masked","address":"大和1847-6","city":"多可町","number":"92"}, 
 {"id":"603be35a-8841-4d56-bdd8-d1ed5bb6ddca","lat":34.75053260,"long":135.38396090,"status":"done","name":"二本松公園 南側","address":"武庫町1丁目4二本松公園 南側","city":"尼崎市","number":"448"}, 
 {"id":"603fa1fa-edc6-4838-ad53-584ca7548766","lat":34.68114740,"long":135.13870720,"status":"done","name":"「堀切西」バス停の北側「緑橋」の柵","address":"長田区長者町8番","city":"神戸市","number":"28"}, 
 {"id":"60411f68-1738-44f6-bb47-36a7ab17256c","lat":34.82990570,"long":134.64367560,"status":"done","name":"東蒲田第三公園南側のJRのフェンス","address":"広畑区蒲田五丁目242","city":"姫路市","number":"499"}, 
 {"id":"60435ada-da0e-49db-8c77-3c4446fa0a1e","lat":35.08734770,"long":134.74184310,"status":"not_yet","name":"福井橋入口（自立式）","address":"大河","city":"神河町","number":"68"}, 
 {"id":"604c49ce-4818-4bb2-97e8-1eb1bda6342c","lat":34.66164500,"long":135.03458900,"status":"done","name":"コープ神陵台店駐車場北側鉄柵","address":"垂水区神陵台3丁目2番","city":"神戸市","number":"178"}, 
 {"id":"60545a07-ee50-4c7b-b332-d5b3743aab20","lat":34.81045640,"long":134.60783350,"status":"not_yet","name":"熊見老人憩いの家北側","address":"勝原区熊見","city":"姫路市","number":"614"}, 
 {"id":"605c042c-c71e-4248-ac35-b11e24c6b359","lat":34.72633360,"long":135.26229650,"status":"done","name":"本山親子遊園西側金網　バス停前","address":"東灘区西岡本4丁目17番","city":"神戸市","number":"125"}, 
 {"id":"6061d159-3f6b-45d0-9ae5-36b7da40cb7a","lat":34.76546350,"long":135.36824820,"status":"done","name":"上大市公園東側入口左側フェンス","address":"上大市5丁目 10番","city":"西宮市","number":"439"}, 
 {"id":"606cab04-44c2-43dc-9268-f24ff5d7bdff","lat":34.97933680,"long":134.78167080,"status":"not_yet","name":"山添集会所フェンス","address":"下瀬加84の1","city":"市川町","number":"31"}, 
 {"id":"6074616d-57ed-4095-9993-830d042312b9","lat":34.78547264,"long":134.78307610,"status":"not_yet","name":"鹿島川東岸（ｶﾞｰﾄﾞﾚｰﾙ）","address":"高砂市中筋5丁目18－30地先","city":"高砂市","number":"12-2"}, 
 {"id":"607b3720-7f50-4bea-b215-813e2f65d229","lat":34.66678020,"long":134.99208350,"status":"error_wrong_place","name":"地蔵院付近","address":"西区樫谷町松本494番地の2","city":"神戸市","number":"150"}, 
 {"id":"607c0720-ec9f-428d-8f4a-009bfc02b73f","lat":34.82680770,"long":134.70915170,"status":"done","name":"東小学校北側公園フェンス","address":"市之郷町二丁目34","city":"姫路市","number":"48"}, 
 {"id":"607e01b5-2d2b-4a61-a08e-42cc20965343","lat":34.72101650,"long":135.31096290,"status":"done","name":"芦屋中央公園駐車場入口付近","address":"若葉町1番","city":"芦屋市","number":"132"}, 
 {"id":"60898325-b9c8-41ae-b074-6c4f9b73ff9f","lat":35.03368970,"long":135.19859470,"status":"not_yet","name":"真南条中公民館前市道路肩","address":"真南条中","city":"丹波篠山市","number":"45-4"}, 
 {"id":"608cfef0-769d-4b1c-a504-b83075e86e29","lat":34.25662750,"long":134.71424160,"status":"done","name":"旧浦瀬医院塀","address":"福良乙280","city":"南あわじ市","number":"4-26"}, 
 {"id":"608eeeaf-7599-48cc-93ac-ac3c5e3a7706","lat":35.07847950,"long":135.00956940,"status":"done","name":"日吉神社　玉垣","address":"山南町井原","city":"丹波市","number":"管理番号251山南33"}, 
 {"id":"609139e0-8d8a-44e1-b579-0a481a3f88ea","lat":34.66810340,"long":135.13819570,"status":"done","name":"クリーンステーション北側のガードレール","address":"長田区上池田2丁目6番","city":"神戸市","number":"143"}, 
 {"id":"609471c1-9cad-44c0-9a7b-083f21767946","lat":35.33978320,"long":134.85234830,"status":"not_yet","name":"小田和サンファースト前","address":"小田和","city":"朝来市","number":"29"}, 
 {"id":"6094c81e-32f3-4248-bc54-f3aebeb7de46","lat":34.93018310,"long":135.13775720,"status":"not_yet","name":"野呂谷公会堂敷地","address":"吉川町新田","city":"三木市","number":"309"}, 
 {"id":"609a3e83-18fa-4100-98c7-e0eed29c318f","lat":34.69941050,"long":135.19969230,"status":"done","name":"マスダビル前歩道鉄柵","address":"中央区二宮町1丁目2番","city":"神戸市","number":"106"}, 
 {"id":"609e1baf-8299-4213-b315-fc0794297eef","lat":34.89525580,"long":135.37600480,"status":"done","name":"猪名川町役場庁舎前","address":"上野字北畑","city":"猪名川町","number":"3_17"}, 
 {"id":"60aa0b15-69e4-4b36-8c37-99370a89d385","lat":34.74274670,"long":135.33180900,"status":"done","name":"夙川老人いこいの家南側","address":"若松町5番","city":"西宮市","number":"150"}, 
 {"id":"60bbcbe3-3bac-40d5-950c-058e78859296","lat":34.85663560,"long":134.66874590,"status":"not_yet","name":"田寺南公園東側フェンス","address":"田寺二丁目5-549-1","city":"姫路市","number":"103"}, 
 {"id":"60bc4314-5421-4543-90c3-646eac052d07","lat":34.89189460,"long":135.40799210,"status":"done","name":"市立東谷小学校(東側)金網","address":"見野2丁目30番1号市立東谷小学校(東側)金網","city":"川西市","number":"263"}, 
 {"id":"60c29b03-ec96-4cde-86fc-ed303ea2f032","lat":35.08287020,"long":134.74587710,"status":"not_yet","name":"大河グラウンド　フェンス","address":"大河","city":"神河町","number":"67"}, 
 {"id":"60c8ad77-4be0-4c41-b93e-3248761236ca","lat":34.69958760,"long":135.19931350,"status":"done","name":"新神戸合同宿舎東側鉄柵","address":"中央区二宮町1丁目3番1号","city":"神戸市","number":"101"}, 
 {"id":"60caaf86-dc01-4ac6-ad81-280ae5f36b47","lat":34.64413820,"long":134.99889570,"status":"done","name":"中崎遊園地(北側緑地)","address":"相生町1丁目9","city":"明石市","number":"79"}, 
 {"id":"60cd6e34-5587-4d7d-8d58-4d9d725eea27","lat":35.56662980,"long":134.70184070,"status":"not_yet","name":"倉橋孝氏所有地（空地）","address":"竹野町須野谷174-1倉橋孝氏所有地(空地)","city":"豊岡市","number":"196"}, 
 {"id":"60ce537c-d129-47f5-a212-83564046d8ea","lat":34.71422690,"long":135.32734870,"status":"done","name":"市営西宮浜4丁目住宅　阪神バスマリナパーク西停留所向い","address":"西宮浜４丁目 5番3号","city":"西宮市","number":"42"}, 
 {"id":"60d46c0f-1a87-411c-b6e4-c2b781b68efc","lat":35.00296970,"long":134.54158550,"status":"not_yet","name":"山崎小学校　屋内運動場フェンス（南側）","address":"山崎町鹿沢76-13","city":"宍粟市","number":"6"}, 
 {"id":"60d5c1c9-d93f-4d57-a6fa-61a2b46c8ba6","lat":34.68700210,"long":135.14667310,"status":"done","name":"「市営丸山東住宅2号棟」南側柵","address":"長田区滝谷町2丁目8番","city":"神戸市","number":"40"}, 
 {"id":"60d5ff74-89a3-4fda-8592-f27d31526aa6","lat":34.79771880,"long":135.33671710,"status":"done","name":"宝梅中学校北側ガードレール","address":"宝塚市宝梅3-4-20","city":"宝塚市","number":"36-04"}, 
 {"id":"60d91661-4f64-4223-bb91-d810ee5433ea","lat":34.79386610,"long":134.64250090,"status":"done","name":"浜手緑地(広畑東地区)公園北側","address":"広畑区夢前町四丁目","city":"姫路市","number":"514"}, 
 {"id":"60dc1be6-62ce-499a-afff-12c2575c245c","lat":34.67476470,"long":135.14908510,"status":"done","name":"「片山町公園（片山児童館）」東側柵","address":"長田区片山町3丁目2番","city":"神戸市","number":"66"}, 
 {"id":"60e65f1c-df83-43d0-ab09-4781d83948bf","lat":34.73161080,"long":135.37534380,"status":"done","name":"東甲子園公園北側","address":"甲子園一番町 6番","city":"西宮市","number":"272"}, 
 {"id":"60ef58c4-9690-4e15-af7a-6924687c68b3","lat":34.66364820,"long":134.95889120,"status":"done","name":"JR西明石南和坂アパート(北3棟北側フェンス)","address":"西明石南町3丁目2","city":"明石市","number":"187"}, 
 {"id":"60fa2246-3897-4ce0-815d-fe4ff6cb9f7e","lat":34.62929790,"long":135.04694290,"status":"done","name":"五色塚古墳西側柵","address":"垂水区五色山3丁目1番","city":"神戸市","number":"107"}, 
 {"id":"61060655-8cde-4bcf-8f67-76fd069d65b8","lat":34.74704780,"long":135.15115270,"status":"done","name":"兵庫信用金庫山の街支店向い神鉄金網","address":"北区緑町6丁目1番1号","city":"神戸市","number":"26"}, 
 {"id":"6108c618-4f68-4b81-9fd7-bcfe66ec8acd","lat":35.39154000,"long":134.63486450,"status":"not_yet","name":"片岡会館横（下千側）","address":"関宮38-3","city":"養父市","number":"171"}, 
 {"id":"61107a3e-343d-42d7-8287-99b68fc9f79b","lat":34.77893310,"long":134.72457840,"status":"not_yet","name":"正福寺西部饅堂 垣根","address":"木場1441-24","city":"姫路市","number":"636"}, 
 {"id":"6111c43e-958d-4775-889c-ba09c9cb6c10","lat":34.99421830,"long":134.54984400,"status":"not_yet","name":"野自治会館南側フェンス","address":"山崎町野210-1","city":"宍粟市","number":"49"}, 
 {"id":"6114ea5e-edd7-4b56-8790-ec64fd892978","lat":null,"long":null,"status":"not_yet","name":"市立川西小学校校庭(南側)フェンス","address":"栄根1丁目1番1号","city":"加西市","number":"85"}, 
 {"id":"6116d4f9-1eec-45e5-97e9-ea6e89da82a8","lat":35.50702800,"long":134.81097590,"status":"done","name":"納屋公民館横","address":"上佐野1385付近納屋公民館横","city":"豊岡市","number":"32"}, 
 {"id":"611ed799-71d9-4c9a-9fad-ae99f96e187b","lat":34.81320400,"long":135.36080320,"status":"done","name":"売布西公園向かい市道666号線ガードレール","address":"宝塚市売布1-4","city":"宝塚市","number":"33-04"}, 
 {"id":"6126518e-9064-4752-ad74-13ac39da1fee","lat":35.40780550,"long":134.77290780,"status":"done","name":"masked","address":"八鹿町八鹿712","city":"養父市","number":"22"}, 
 {"id":"61325a7a-8128-45f3-a98f-a0612fca4dcc","lat":34.81641190,"long":134.73789310,"status":"not_yet","name":"天川なかよし公園南側","address":"御国野町御着246","city":"姫路市","number":"216"}, 
 {"id":"61358fce-5af9-4064-957e-86d9d75004e2","lat":34.79191716,"long":134.77355590,"status":"done","name":"県営高砂時光寺鉄筋9号棟の西側（ｶﾞｰﾄﾞﾚｰﾙ）","address":"高砂市時光寺町34地先","city":"高砂市","number":"25-6"}, 
 {"id":"613703c5-c2b9-422a-aebf-9466972c8692","lat":34.66271350,"long":135.13271540,"status":"done","name":"板宿小学校西金網","address":"須磨区菊池町1丁目2番","city":"神戸市","number":"130"}, 
 {"id":"613911db-1971-467c-a527-58f836627cba","lat":34.80242030,"long":134.87112040,"status":"done","name":"(旧) 両荘幼稚園南側フェンス","address":"平荘町山角43-1","city":"加古川市","number":"337"}, 
 {"id":"613b8eca-3416-4863-aaee-ab9fa80cf23f","lat":34.32279360,"long":134.83418470,"status":"not_yet","name":"広田中学校連絡沿いフェンス","address":"広田中筋107","city":"南あわじ市","number":"1-6"}, 
 {"id":"6140f3b5-c425-4119-825b-d7c2f87f2a7f","lat":34.82818410,"long":134.70237360,"status":"done","name":"播但線高架下西側フェンス(ラヴィーナ姫路北)","address":"神屋町三丁目137","city":"姫路市","number":"30"}, 
 {"id":"6147f7c6-be70-4ac0-a4f0-810259f21f82","lat":34.31996390,"long":134.82930550,"status":"not_yet","name":"Joshin淡路店横 市道沿いガードパイプ","address":"広田広田117-1","city":"南あわじ市","number":"1-10"}, 
 {"id":"614ccb08-b1b1-49bd-8746-1c09db0b6edc","lat":34.80730690,"long":134.75591140,"status":"not_yet","name":"別所公民館西側フェンス","address":"別所町別所1717－4","city":"姫路市","number":"223"}, 
 {"id":"6151de3e-0b1f-4e68-bc1f-c27fc1b8c23f","lat":34.65286420,"long":134.98418770,"status":"done","name":"西新町1丁目公園（南入口西側）","address":"西新町1丁目7","city":"明石市","number":"136"}, 
 {"id":"61542508-2352-4341-a161-1ae498336ef2","lat":35.62332510,"long":134.44645480,"status":"not_yet","name":"フジコン食品（株）塀","address":"旭町","city":"新温泉町","number":"11"}, 
 {"id":"6159e5d3-5cee-4b3b-bd8d-690a260dd897","lat":34.93597400,"long":135.34309400,"status":"not_yet","name":"東山公園前","address":"木津字東山","city":"猪名川町","number":"6_38"}, 
 {"id":"615fb2de-a6c4-4f3e-b172-d3900a551f09","lat":34.88946930,"long":135.42644410,"status":"done","name":"大和第4公園(西側)金網","address":"大和東2丁目28番地の7大和第4公園(西側)金網","city":"川西市","number":"282"}, 
 {"id":"61613a02-350f-4d65-bd83-5d36edc6ddbc","lat":34.68454960,"long":135.16735700,"status":"done","name":"みなと幼稚園東側ガードレール","address":"兵庫区荒田町3丁目20番4号","city":"神戸市","number":"71"}, 
 {"id":"6163a059-0e7e-4921-962a-004c5a7f0582","lat":34.91792700,"long":134.75614900,"status":"not_yet","name":"東洋精機(有)北側屋台倉庫","address":"船津町(八幡)","city":"姫路市","number":"356"}, 
 {"id":"6165388f-025b-4d97-b836-713c34ff3a62","lat":35.06723510,"long":134.76731180,"status":"not_yet","name":"masked","address":"東柏尾","city":"神河町","number":"35"}, 
 {"id":"61825fee-4b7e-4168-97a1-75a7962b2605","lat":34.76343900,"long":134.82815600,"status":"error_wrong_place","name":"金剛寺浦公園北側生垣","address":"加古川町木村232-1","city":"加古川市","number":"2"}, 
 {"id":"61832ee3-f26a-4d48-98e3-936427266f22","lat":34.70859170,"long":135.26288260,"status":"done","name":"御旅公園東側鉄柵","address":"東灘区住吉南町1丁目2番","city":"神戸市","number":"163"}, 
 {"id":"6183eac9-311c-49e2-882b-38c8352d8aec","lat":34.79395860,"long":135.41456350,"status":"done","name":"masked","address":"北園1丁目41番地1地先","city":"伊丹市","number":"255"}, 
 {"id":"618d2721-7390-4259-a80d-58fbd81e51d8","lat":34.68659600,"long":135.06240660,"status":"done","name":"貝谷公園付近","address":"西区学園東町3丁目12番地","city":"神戸市","number":"69"}, 
 {"id":"618dbaaa-bdd4-4e43-9ba8-e5ef013a6edc","lat":34.86937580,"long":135.41086510,"status":"done","name":"西池公園金網","address":"緑台1丁目1番地の107西池公園金網","city":"川西市","number":"190"}, 
 {"id":"618e67b1-bb48-48bb-8e10-db96808dc386","lat":34.83863540,"long":135.36410750,"status":"done","name":"ジャルダン宝塚中山台壱番館北側ガ－ドレ－ル","address":"宝塚市中山桜台5-23","city":"宝塚市","number":"08-06"}, 
 {"id":"6195e626-7c90-4e2f-a593-52794773b84c","lat":34.76403180,"long":135.39965230,"status":"done","name":"笹原公園南側 水路鉄柵","address":"車塚1丁目32番地1地先","city":"伊丹市","number":"333"}, 
 {"id":"619b40a3-b634-40d1-bbac-643f5039a744","lat":null,"long":null,"status":"not_yet","name":"masked","address":"加茂1丁目9番14号","city":"加西市","number":"110"}, 
 {"id":"619e572c-845d-433c-b116-d0605d5e88dd","lat":34.99933930,"long":135.10386340,"status":"done","name":"masked","address":"今田町今田新田","city":"丹波篠山市","number":"51-4"}, 
 {"id":"619fe75c-dce3-4953-bf91-1569ad97aed1","lat":34.91540900,"long":135.39251700,"status":"not_yet","name":"町道内馬場線 \n内馬場橋付近","address":"内馬場字西ノテ","city":"猪名川町","number":"12_80"}, 
 {"id":"619fe840-ef3a-4986-a492-8924cc237504","lat":34.97950910,"long":134.78969660,"status":"not_yet","name":"保育所待合場所横ガードレール","address":"下瀬加加茂地","city":"市川町","number":"32"}, 
 {"id":"61a4b651-362b-4c85-8254-6f08e34655f7","lat":34.83750840,"long":134.57689950,"status":"done","name":"斑鳩小学校南東角フェンス","address":"鵤713","city":"太子町","number":"5"}, 
 {"id":"61a5ea44-9cc2-4e1a-9bd0-20e64cb59322","lat":35.49362010,"long":134.80451590,"status":"done","name":"池上 熊野神社","address":"日高町池上323 (295-1東側市道対側地)池上 熊野神社","city":"豊岡市","number":"251"}, 
 {"id":"61a7e6ff-47b7-4b89-a2a7-eedf4ebd9057","lat":34.81343540,"long":134.48953620,"status":"done","name":"古池口バス停付近（手すり）","address":"向陽台","city":"相生市","number":"26"}, 
 {"id":"61ac2053-01f5-4ba7-a613-9613e3b45c8b","lat":34.75876410,"long":134.81164750,"status":"not_yet","name":"向河原ノ上公園西側防護柵","address":"加古川町稲屋1049-11","city":"加古川市","number":"46"}, 
 {"id":"61b6b6dd-edbf-4f54-8728-1419bb67d792","lat":34.73181360,"long":135.36542920,"status":"done","name":"瓦林公園南グラウンド南側","address":"上甲子園3丁目 7番","city":"西宮市","number":"311"}, 
 {"id":"61bfedec-87c2-41dd-be37-1533ff64b33b","lat":34.76876600,"long":135.38772510,"status":"done","name":"時友長ノ手住宅１棟 北側","address":"武庫之荘9-24-1時友長ノ手住宅1棟 北側","city":"尼崎市","number":"403"}, 
 {"id":"61c7b4a1-951a-4fe0-9f78-18daed6394df","lat":34.71101460,"long":134.98348660,"status":"not_yet","name":"川崎タクシー付近（バス停平野橋付近）","address":"西区平野町西戸田282番地の3","city":"神戸市","number":"172"}, 
 {"id":"61cb0c5b-ecf0-4058-b0cd-5e568351dfd8","lat":34.75403680,"long":135.36554740,"status":"done","name":"瓦木中学校南側西端テニスコート沿いフェンス","address":"薬師町 4番15号","city":"西宮市","number":"392"}, 
 {"id":"61d25d74-8a77-4c0d-a477-d4029caf6e5a","lat":34.80091440,"long":134.63232910,"status":"not_yet","name":"本町公園東側","address":"広畑区本町二丁目28","city":"姫路市","number":"516"}, 
 {"id":"61df986d-e257-4a0e-b1ab-a30c0fe1de68","lat":35.27951640,"long":134.77095650,"status":"not_yet","name":"内山公会堂","address":"長野1373","city":"養父市","number":"67"}, 
 {"id":"61e0ef53-89e1-447f-bee0-5b0a0f75849a","lat":34.75786250,"long":134.37737100,"status":"done","name":"主婦の店塩屋店南面柵","address":"主婦の店塩屋店南面柵","city":"赤穂市","number":"36"}, 
 {"id":"61e74a4c-6a41-465c-9179-579b0554d30b","lat":34.82872420,"long":135.29073420,"status":"done","name":"名塩山荘口公園植え込み","address":"名塩山荘24番","city":"西宮市","number":"516"}, 
 {"id":"61e77fd1-04df-4161-8802-fb287bafea52","lat":34.73176830,"long":135.33675320,"status":"done","name":"浜脇小学校東門北側","address":"浜脇町 5番48号","city":"西宮市","number":"27"}, 
 {"id":"61eae940-aa19-4fa5-b467-22efebe1fa66","lat":34.67087790,"long":135.11016140,"status":"done","name":"市バス横尾小学校前ガードレール","address":"須磨区横尾5丁目1番地の16","city":"神戸市","number":"152"}, 
 {"id":"6201266b-a916-4924-9598-63f95b967aed","lat":34.74447870,"long":134.84792230,"status":"not_yet","name":"前池公園南側フェンス","address":"野口町長砂243-28","city":"加古川市","number":"144"}, 
 {"id":"620caec2-200b-46c5-bd83-d77fd7b72fb5","lat":35.06901480,"long":135.19859470,"status":"done","name":"masked","address":"東吹下","city":"丹波篠山市","number":"40-5"}, 
 {"id":"6219bf2d-6d13-4518-b03b-3c158d6d63e4","lat":35.16044720,"long":135.04796870,"status":"done","name":"氷上インター正面　転落防止柵","address":"北近畿豊岡自動車道","city":"丹波市","number":"管理番号106氷上71"}, 
 {"id":"6222385f-92e1-4af9-8041-bed2cc3a0d4b","lat":34.82082390,"long":135.32102330,"status":"done","name":"青葉台集会所階段下り口東側ガードレール","address":"青葉台１丁目15番","city":"西宮市","number":"495"}, 
 {"id":"622263b8-93bf-4344-9f1e-cec1824e5223","lat":34.70569250,"long":134.89428970,"status":"done","name":"東二見ケヤキ公園（東側金網）","address":"二見町東二見2025-8","city":"明石市","number":"498"}, 
 {"id":"62248e4a-013d-4ded-825d-405f59d82b2c","lat":34.90621200,"long":134.78248600,"status":"not_yet","name":"masked","address":"山田町南山田765","city":"姫路市","number":"349"}, 
 {"id":"62385ce5-0542-4633-b8e0-cfccfae027d2","lat":34.77287870,"long":135.37806140,"status":"done","name":"株式会社ケーエスケー 北側水路鉄柵","address":"西昆陽2-19-1 地先株式会社ケ-エスケ- 北側水路鉄柵","city":"尼崎市","number":"397"}, 
 {"id":"6239de28-981d-4472-933a-6d1927d56df4","lat":35.09510610,"long":135.15763760,"status":"done","name":"長安寺交差点歩道フェンス","address":"長安寺","city":"丹波篠山市","number":"38-5"}, 
 {"id":"6246e361-4e12-42dd-8196-6672b8c519d0","lat":35.45628460,"long":134.73095100,"status":"not_yet","name":"伊府区ゴミステーション横倉庫前","address":"日高町伊府723-1伊府区ゴミステ-ション横倉庫前","city":"豊岡市","number":"301"}, 
 {"id":"6248ba04-4617-483b-afa7-bf8c7ae68d3b","lat":34.93600130,"long":134.51369070,"status":"not_yet","name":"旧東栗栖幼稚園西側ガードレール","address":"新宮町能地","city":"たつの市","number":"18"}, 
 {"id":"6249bf6b-2475-4628-af42-64972878cb96","lat":null,"long":null,"status":"not_yet","name":"マンサク公園","address":"けやき坂4丁目4番地","city":"加西市","number":"236"}, 
 {"id":"624b663a-4ae0-4115-a5ca-0757345d9b8e","lat":35.44208110,"long":134.60208770,"status":"done","name":"masked","address":"村岡区市原310-6","city":"香美町","number":"173"}, 
 {"id":"624dcc5f-2ad4-45d8-a8cf-f6704a172e10","lat":34.84949100,"long":134.69999700,"status":"not_yet","name":"師範前町公民館窓枠","address":"伊伝居(師範前町)560","city":"姫路市","number":"129"}, 
 {"id":"6251e2a0-2546-4959-89bc-8f81c8f2af24","lat":35.39658080,"long":134.99532300,"status":"not_yet","name":"小坂集会所敷地","address":"但東町小坂297-1小坂集会所敷地","city":"豊岡市","number":"474"}, 
 {"id":"6255788b-81bc-4a6a-bf10-f75711a3e61a","lat":35.45327840,"long":134.53226110,"status":"not_yet","name":"石町住宅前","address":"小代区大谷525番地先","city":"香美町","number":"207"}, 
 {"id":"626ace2e-97df-4c1a-b2e5-eff93c6897bc","lat":34.87694200,"long":134.71664400,"status":"not_yet","name":"砥堀自治会ごみ集積場","address":"砥堀125－4","city":"姫路市","number":"181"}, 
 {"id":"627286d8-61dd-4288-8b41-b39f155b5d64","lat":34.64637310,"long":134.98047060,"status":"done","name":"衣川中学校（西北入口フェンス）","address":"南王子町7","city":"明石市","number":"149"}, 
 {"id":"627a727f-d329-4e3f-94ba-428de539884b","lat":34.72812800,"long":135.27632900,"status":"done","name":"市立岡本駅前駐輪場ガードレール","address":"東灘区岡本1丁目7番","city":"神戸市","number":"91"}, 
 {"id":"6284ae3a-1e56-4500-8fcc-241f42cd30c6","lat":34.70798300,"long":135.21152600,"status":"done","name":"兵庫県福祉センター西側ガードレール","address":"中央区坂口通2丁目1番1号","city":"神戸市","number":"16"}, 
 {"id":"62893660-b0e1-4f10-9611-c6051f98fd7c","lat":34.70990390,"long":134.88635650,"status":"done","name":"市営上西二見団地(東側)","address":"二見町西二見267","city":"明石市","number":"517"}, 
 {"id":"628a87d2-701d-488d-841b-8eb41f900e29","lat":34.71337060,"long":135.27079660,"status":"done","name":"魚崎中町公園南西鉄柵","address":"東灘区魚崎中町4丁目4番","city":"神戸市","number":"153"}, 
 {"id":"6296b88a-ba56-4862-9c6f-8575f12ffd31","lat":34.69235330,"long":135.19324300,"status":"done","name":"パチンコACCESS 北側ガードレール","address":"中央区三宮町1丁目8番","city":"神戸市","number":"115"}, 
 {"id":"6297f9c7-6ae2-4246-9c6c-d7dd14f187d7","lat":34.81038000,"long":135.40945850,"status":"done","name":"市立共同利用施設北久代会館北側空地金網","address":"久代2丁目5番市立共同利用施設北久代会館北側空地金網","city":"川西市","number":"132"}, 
 {"id":"629eca75-a11e-40f6-ba53-7a4425c0dd77","lat":35.36858280,"long":134.63119490,"status":"not_yet","name":"masked","address":"吉井658-2","city":"養父市","number":"180"}, 
 {"id":"62a4b22e-3c2b-48c0-bbb8-d4ba87e43332","lat":34.63971720,"long":135.08247350,"status":"done","name":"市営塩屋住宅跡地南側フェンス","address":"垂水区塩屋町9丁目4番","city":"神戸市","number":"16"}, 
 {"id":"62ae65c2-56e7-4111-bb04-542c22f746ba","lat":34.82425750,"long":134.89029460,"status":"not_yet","name":"㈱高橋組東側市道ガードレール","address":"平荘町磐(08-3007 磐7号線)","city":"加古川市","number":"360"}, 
 {"id":"62b03eac-c4b3-4cb5-b065-5eb42f99accf","lat":34.77258080,"long":135.19493640,"status":"done","name":"西大池公園南西角向側鉄柵（下野大橋鉄柵）","address":"北区西大池2丁目5番","city":"神戸市","number":"222"}, 
 {"id":"62b0a76a-7a59-4a84-9587-4897f71206b8","lat":34.85449350,"long":135.41695010,"status":"done","name":"下滝公園","address":"多田桜木1丁目4番下滝公園","city":"川西市","number":"156"}, 
 {"id":"62bf919d-7505-4c80-b084-693ea759c369","lat":34.87429600,"long":135.10444760,"status":"not_yet","name":"吉川町公民館貸潮分館安全柵","address":"吉川町貸潮","city":"三木市","number":"287"}, 
 {"id":"62c4b1e1-e7d4-43d6-9c23-957160a35dcc","lat":34.83023100,"long":134.63320900,"status":"not_yet","name":"西蒲田天満神社","address":"広畑区西蒲田89","city":"姫路市","number":"483"}, 
 {"id":"62c6f96b-b28c-4ced-b452-fbacd8cf24fc","lat":34.87716350,"long":135.01319580,"status":"not_yet","name":"151の1番地の北 自治会管理の用水路敷地","address":"中谷町1477（屋口）","city":"小野市","number":"25-163"}, 
 {"id":"62c9e67e-e720-4d86-b094-d49f93907514","lat":34.32137660,"long":134.83385740,"status":"not_yet","name":"広田蛭子神社（県道広田洲本線沿）","address":"広田中筋77","city":"南あわじ市","number":"1-5"}, 
 {"id":"62ca80f0-8268-4a7a-bcc9-22b05f92be57","lat":34.76898890,"long":135.39304830,"status":"done","name":"県営伊丹野間住宅1号棟 東側柵","address":"野間北4丁目1番街区","city":"伊丹市","number":"113"}, 
 {"id":"62d6be3d-3a5f-42e1-997e-d5dc1ce596bb","lat":34.25812510,"long":134.71238420,"status":"done","name":"福良小学校南側入口フェンス","address":"福良乙1205","city":"南あわじ市","number":"4-27"}, 
 {"id":"62d99876-edca-43aa-848a-d48ef905ed44","lat":34.55074950,"long":134.99714520,"status":"done","name":"大磯バスターミナル付近フェンス","address":"国道28号","city":"淡路市","number":"240"}, 
 {"id":"62f07aa2-7950-4bd2-8fab-02eb65274476","lat":35.62332510,"long":134.44645480,"status":"not_yet","name":"masked","address":"高見一丁目","city":"新温泉町","number":"7"}, 
 {"id":"62f21370-b66f-45b2-9a74-8daa085a2761","lat":34.65653520,"long":135.15157030,"status":"done","name":"「市営真陽第三住宅」西側の柵","address":"長田区西尻池町4丁目2番","city":"神戸市","number":"183"}, 
 {"id":"62f34b49-385c-4b0d-92a3-e90fb81fda3e","lat":34.79744280,"long":134.65082990,"status":"not_yet","name":"姫路合同貨物自動車(株)北側フェンス","address":"飾磨区今在家1057－9","city":"姫路市","number":"451"}, 
 {"id":"62fae77c-78bb-4ff7-8f22-66871b8f860f","lat":34.99570860,"long":134.56431590,"status":"not_yet","name":"中国道南側マンホールポンプユニット制御盤 ガードフェンス","address":"山崎町須賀沢275-1","city":"宍粟市","number":"27"}, 
 {"id":"6303c722-4ddf-49e8-8bb7-a25c4c2b812e","lat":34.75918500,"long":135.34545970,"status":"done","name":"上ケ原七番町住宅西側鉄柵","address":"上ケ原七番町 1番","city":"西宮市","number":"468"}, 
 {"id":"63048c63-fb8d-4270-8cd5-7147b36d8c43","lat":34.89206350,"long":135.42020790,"status":"done","name":"大和第7公園(東側)金網","address":"大和西5丁目6番地の1大和第7公園(東側)金網","city":"川西市","number":"298"}, 
 {"id":"6307ebda-365f-4a32-a93f-321b08e3529b","lat":34.20327400,"long":134.73420700,"status":"done","name":"汐後橋東側市道石積","address":"阿万西町744付近","city":"南あわじ市","number":"4-63"}, 
 {"id":"63089ada-a60a-40a7-bb18-cfb91feda91b","lat":34.83649330,"long":135.39457950,"status":"done","name":"満願寺ふれあい会館西隣エリュールハイツ川西前","address":"満願寺町5番19号満願寺ふれあい会館西隣エリュ-ルハイツ川西前","city":"川西市","number":"78"}, 
 {"id":"631e6084-7538-4362-aaad-f920d0b533e9","lat":34.65973800,"long":135.13256930,"status":"done","name":"板宿駐輪場鉄柵（平田南橋東側）","address":"須磨区平田町4丁目2番","city":"神戸市","number":"126"}, 
 {"id":"63211778-4717-4a18-9940-a02daeb5d41e","lat":34.67893660,"long":134.96997380,"status":"not_yet","name":"出合中野公園西側付近","address":"西区中野2丁目18番地","city":"神戸市","number":"39"}, 
 {"id":"6322b19f-efa2-49f8-933f-6a4e066e9806","lat":34.75797360,"long":135.36352000,"status":"done","name":"門前公園東側","address":"門前町 9番","city":"西宮市","number":"405"}, 
 {"id":"63242fe7-1781-41c0-afbf-cde136fc780c","lat":35.17771100,"long":135.11497390,"status":"done","name":"多田地内広場前","address":"春日町多田","city":"丹波市","number":"管理番号184春日25"}, 
 {"id":"6325c061-d6c9-400e-8ec4-e8ab1e6488c7","lat":34.21612900,"long":134.81193500,"status":"not_yet","name":"県道灘三原線入口　長田橋横ガードレール","address":"灘山本326付近","city":"南あわじ市","number":"4-76"}, 
 {"id":"63276008-1804-430e-9a98-f786a4d63c3b","lat":34.65397920,"long":135.00947220,"status":"done","name":"市道(ライオンズマンション北側鉄柵)","address":"中朝霧丘4","city":"明石市","number":"49"}, 
 {"id":"6327cb7b-73c9-4c60-b67a-cef632f14c71","lat":34.86577370,"long":134.38668580,"status":"not_yet","name":"神明寺公民館 町道沿いフェンス","address":"神明寺730-1","city":"上郡町","number":"28"}, 
 {"id":"632a2191-7d92-4fa8-92ff-71c217682558","lat":34.85946070,"long":135.42171290,"status":"done","name":"藪内第二駐車場西側ガードレール","address":"東多田2丁目26番藪内第二駐車場西側ガ-ドレ-ル","city":"川西市","number":"166"}, 
 {"id":"632a7f29-bb7d-4a22-b7ba-2634b05100a9","lat":34.64056880,"long":135.04767220,"status":"done","name":"山陽バス星陵台3丁目バス停ガードレール","address":"垂水区星が丘2丁目6","city":"神戸市","number":"89"}, 
 {"id":"632c52ef-4c18-46f6-8b3e-645d013f653b","lat":35.36779700,"long":134.85377700,"status":"done","name":"masked","address":"高生田","city":"朝来市","number":"45"}, 
 {"id":"632f0220-9506-4f06-b6c0-e8acd91b7eaf","lat":35.01193120,"long":134.35607290,"status":"done","name":"下長尾集会所広場","address":"長尾６７４","city":"佐用町","number":"8"}, 
 {"id":"632fb8b1-ed59-4ed1-8d5e-4c8b8942d3a0","lat":34.69776080,"long":135.20612770,"status":"done","name":"市営北本町住宅1号棟西側鉄柵","address":"中央区北本町通3丁目2番17号","city":"神戸市","number":"79"}, 
 {"id":"6332f8a3-7064-4049-99cc-af64e1c0c677","lat":34.87990110,"long":134.92687700,"status":"not_yet","name":"旭町児童公園の南端西側フェンス ゴミステーションの隣","address":"新部町274の162","city":"小野市","number":"11-73"}, 
 {"id":"63338611-1fc4-48ff-a711-aeaa107c59fc","lat":34.30397000,"long":134.84367400,"status":"not_yet","name":"久保商店横","address":"鮎屋８３５番地１","city":"洲本市","number":"129"}, 
 {"id":"633cb60e-0191-49fc-82dc-85f99ea01c3f","lat":34.72345830,"long":135.41453190,"status":"done","name":"中難波公園　東側","address":"東難波町5-13-17中難波公園 東側","city":"尼崎市","number":"72"}, 
 {"id":"633cda4e-e164-4810-bb9d-ffc0c0380a68","lat":35.25766640,"long":134.85522720,"status":"not_yet","name":"源八橋付近","address":"川上","city":"朝来市","number":"295"}, 
 {"id":"6348370d-d275-4579-84e6-69d4ca3d7e9e","lat":35.04592230,"long":134.56499620,"status":"not_yet","name":"神野小学校 体育館フェンス","address":"山崎町田井645-9","city":"宍粟市","number":"105"}, 
 {"id":"634e6e7c-6a62-47bd-b924-98942070d71e","lat":34.97897760,"long":134.54850620,"status":"not_yet","name":"masked","address":"山崎町川戸867付近","city":"宍粟市","number":"61"}, 
 {"id":"634e74c3-7588-4a6d-82ee-6069041c6edc","lat":34.73566750,"long":135.31051470,"status":"done","name":"上宮川橋交差点付近歩道防護柵","address":"親王塚町8-28地先","city":"芦屋市","number":"43"}, 
 {"id":"6353eaaa-7a80-4d98-8f6d-16ee51f087f0","lat":34.69431670,"long":135.14068030,"status":"done","name":"シーガルパレス神戸山手 金網","address":"兵庫区里山町","city":"神戸市","number":"56"}, 
 {"id":"63558705-4707-4ddf-af31-44d02c21fd87","lat":34.27797540,"long":134.77071490,"status":"not_yet","name":"神代保育所フェンス","address":"神代地頭方1496-1","city":"南あわじ市","number":"3-48"}, 
 {"id":"635ae2c8-8e4f-4731-9be5-2b18d0f6ec7e","lat":34.76343500,"long":134.86230500,"status":"not_yet","name":"県住13号棟北側駐車場西側フェンス","address":"野口町水足221-1","city":"加古川市","number":"168"}, 
 {"id":"635c97b6-a257-4b33-b43a-fe1b0b05c4db","lat":34.43668120,"long":134.89522170,"status":"not_yet","name":"大歳遊園地（前）フェンス","address":"志筑","city":"淡路市","number":"32"}, 
 {"id":"635fe498-a687-43be-9934-1872d5138203","lat":34.91792700,"long":134.75614900,"status":"not_yet","name":"仁色老人憩いの家南ガードフェンス","address":"船津町4990−1(仁色)","city":"姫路市","number":"359"}, 
 {"id":"636d07ea-1e02-4c5a-8885-ea334147b531","lat":34.73700200,"long":135.33452410,"status":"done","name":"産所公園北側","address":"産所町 5番","city":"西宮市","number":"47"}, 
 {"id":"637769c5-d704-42e6-8380-c878b4843d72","lat":34.42057100,"long":134.79789300,"status":"not_yet","name":"市道上利立線入口付近ガードレール","address":"五色町都志米山７０６番地１","city":"洲本市","number":"153"}, 
 {"id":"637d29a9-800f-46ce-a8ca-14be32f87f4d","lat":34.78337900,"long":134.70190400,"status":"not_yet","name":"今道公園東側","address":"白浜町字佐崎北三丁目62","city":"姫路市","number":"653"}, 
 {"id":"637f2773-fb2e-4119-85d8-47cd932f0de2","lat":35.09662680,"long":134.42779300,"status":"not_yet","name":"masked","address":"船越594-2","city":"佐用町","number":"121"}, 
 {"id":"6382f51d-f387-4444-a097-36b2a960d024","lat":35.51321610,"long":134.42526030,"status":"not_yet","name":"越坂公民館　前","address":"越坂","city":"新温泉町","number":"160"}, 
 {"id":"63842bec-eb1b-48fd-a1e8-7e4f4b690e16","lat":34.65347220,"long":135.04849490,"status":"done","name":"コープ新多聞南側陸橋下電話ボックス横金網","address":"垂水区本多聞5丁目1番","city":"神戸市","number":"213"}, 
 {"id":"6385f696-930c-42dd-a665-245c2a600691","lat":34.64834280,"long":134.97536830,"status":"done","name":"船上西公園（東側）","address":"新明町9","city":"明石市","number":"153"}, 
 {"id":"638a45ce-50dc-4532-bae6-a97df97ca8e1","lat":34.79573910,"long":134.97609720,"status":"done","name":"三木鉄道記念公園フェンス","address":"福井２丁目","city":"三木市","number":"186"}, 
 {"id":"638c3f9f-31ae-4eb5-b430-1811952e5f97","lat":34.68050190,"long":134.93642610,"status":"done","name":"ゆりのき通南公園(西側)","address":"大久保町ゆりのき通2-3","city":"明石市","number":"291"}, 
 {"id":"638d3893-4ce9-4cb1-b393-aca945cb602a","lat":34.46950450,"long":134.84933700,"status":"not_yet","name":"ミツ精機前市道ガードレール","address":"郡家","city":"淡路市","number":"202"}, 
 {"id":"63920a96-f9b2-4431-9fef-1f0e5688c2f7","lat":34.94369800,"long":135.13222220,"status":"done","name":"masked","address":"masked","city":"三田市","number":"212"}, 
 {"id":"6395c770-748d-43dc-9409-9cba3d9f7cfd","lat":34.59465440,"long":135.01284960,"status":"done","name":"旧岩屋保育所前県道フェンス","address":"松帆福良江井岩屋線","city":"淡路市","number":"95"}, 
 {"id":"6395fe4e-120d-48ec-9eb3-f1ff28f8d4f0","lat":34.95391140,"long":134.75742420,"status":"not_yet","name":"西野公民館敷地内　フェンス東側","address":"南田原3199","city":"福崎町","number":"15"}, 
 {"id":"639b071a-0199-413c-b838-1477d39472b8","lat":34.68506930,"long":135.10123470,"status":"done","name":"東落合小学校東門ネットフェンス","address":"須磨区東落合2丁目18番2号","city":"神戸市","number":"231"}, 
 {"id":"63a16e1e-19e8-427c-ba4b-8bd3baf4f217","lat":34.85236260,"long":134.65648800,"status":"done","name":"上手野総合センター入口フェンス","address":"上手野65番地3","city":"姫路市","number":"82"}, 
 {"id":"63a9729a-a885-45ef-9ab0-94b6298bec96","lat":34.78535730,"long":134.94751410,"status":"not_yet","name":"生田忠美氏所有空地","address":"別所町花尻","city":"三木市","number":"129"}, 
 {"id":"63a97bc7-5a2f-4ca8-8e20-aa74f5f1670b","lat":34.80468100,"long":134.45062730,"status":"done","name":"滝井自転車店の東","address":"佐方一丁目","city":"相生市","number":"72"}, 
 {"id":"63b231e8-18a5-4bf5-8e61-4e5d44d89714","lat":35.17929920,"long":135.04314490,"status":"done","name":"県道青垣柏原線　植栽地（氷上北交差点ローソン前）","address":"青垣柏原線","city":"丹波市","number":"管理番号84氷上49"}, 
 {"id":"63b609ef-cc6e-4ac6-9d8b-79517cc27005","lat":34.79895400,"long":135.36190460,"status":"done","name":"市役所北東側ガードパイプ","address":"宝塚市東洋町2","city":"宝塚市","number":"46-10"}, 
 {"id":"63bba54a-edd9-412b-b773-2476029007a0","lat":35.20910010,"long":134.80842910,"status":"not_yet","name":"masked","address":"上岩津","city":"朝来市","number":"136"}, 
 {"id":"63bc6a60-5f9c-4285-86be-2a4e438d6d30","lat":34.46777130,"long":134.93773440,"status":"not_yet","name":"国道新佐野川橋（下）県道交叉地点","address":"佐野仁井岩屋線","city":"淡路市","number":"62"}, 
 {"id":"63bf5012-f7f9-4284-bf82-30205c071975","lat":34.84754240,"long":134.54195340,"status":"not_yet","name":"尾西自動車西側ガードパイプ","address":"龍野町大道","city":"たつの市","number":"101"}, 
 {"id":"63c74e91-8755-4ef4-bdff-197a18286e59","lat":34.74385210,"long":135.36649400,"status":"done","name":"瓦木小学校東側","address":"大屋町10番20号","city":"西宮市","number":"335"}, 
 {"id":"63cbfb9e-0094-424d-9554-225f08cee955","lat":34.64353270,"long":135.03002620,"status":"done","name":"舞子小学校北側金網","address":"垂水区西舞子4丁目7番","city":"神戸市","number":"139"}, 
 {"id":"63cf0350-2d99-4002-b9b2-e3322cb27084","lat":34.73962770,"long":135.15036650,"status":"done","name":"新桜の宮市営住宅1号棟前駐車場側鉄柵","address":"北区甲栄台4丁目6番46号","city":"神戸市","number":"64"}, 
 {"id":"63d201c5-800d-4426-92ae-3a06ea9a8290","lat":34.66675170,"long":135.15584880,"status":"done","name":"「市営一番町住宅1号棟」南側金網","address":"長田区一番町3丁目1番","city":"神戸市","number":"104"}, 
 {"id":"63d2d79d-4d35-493d-9f18-4f73dbcc912a","lat":35.51607640,"long":135.03282970,"status":"not_yet","name":"松本健治郎氏所有畑（奥藤公民館付近）","address":"但東町奥藤241松本健治郎氏所有畑(奥藤公民館付近)","city":"豊岡市","number":"414"}, 
 {"id":"63d79149-d0b2-44ed-b037-a4986c1e2874","lat":35.23973100,"long":134.79502150,"status":"not_yet","name":"朝日集会所前フェンス","address":"朝日","city":"朝来市","number":"85"}, 
 {"id":"63d79489-0b58-4031-9e42-88bdb104babb","lat":34.79440510,"long":135.01515640,"status":"done","name":"吉田バス停（淡河方面行き）金柵","address":"志染町吉田","city":"三木市","number":"68"}, 
 {"id":"63da1317-5b2c-4292-b9da-fcfd9e2455ed","lat":34.70459450,"long":134.94051150,"status":"not_yet","name":"高丘ツツジ公園(北側金網)","address":"大久保町高丘7丁目20","city":"明石市","number":"325"}, 
 {"id":"63dca8a2-3b82-47e1-93cf-513742f76ebf","lat":34.98753670,"long":134.98717570,"status":"not_yet","name":"上戸田集落センター北東フェンス","address":"上戸田","city":"西脇市","number":"22"}, 
 {"id":"63e36293-908c-4655-96c3-3de45dd6a518","lat":35.27630050,"long":134.81077010,"status":"not_yet","name":"masked","address":"物部","city":"朝来市","number":"264"}, 
 {"id":"63e8438a-10a3-4e56-9373-25266443bce5","lat":34.78226620,"long":134.82002780,"status":"done","name":"南条公園北側フェンス","address":"米田町平津227-20","city":"加古川市","number":"438"}, 
 {"id":"63ee94ec-abb2-4a86-b4c0-6c72657ea7b1","lat":null,"long":null,"status":"not_yet","name":"市営加茂桃源団地2号棟東側","address":"加茂4丁目8番3号","city":"加西市","number":"108"}, 
 {"id":"63efcfc2-c7b9-406d-a80b-19991516a29d","lat":34.75247330,"long":135.36946820,"status":"done","name":"上之町東児童遊園北側 西寄り","address":"上之町 15番","city":"西宮市","number":"393"}, 
 {"id":"63f787cd-cc28-4bb9-80d2-c7bf4424515d","lat":35.24250400,"long":134.82033560,"status":"not_yet","name":"牧野公民館前","address":"多々良木","city":"朝来市","number":"113"}, 
 {"id":"63ff1192-ca7c-4929-ab98-f11c854fa045","lat":35.07253190,"long":135.21440220,"status":"done","name":"西新町浄水場前植栽","address":"西新町","city":"丹波篠山市","number":"1-5"}, 
 {"id":"64074316-7c7f-46c8-a676-51ddd61768c7","lat":34.85181080,"long":135.40501990,"status":"done","name":"藤ヶ丘第1公園鉄柵","address":"湯山台2丁目1番地の68藤ヶ丘第1公園鉄柵","city":"川西市","number":"179"}, 
 {"id":"640b543c-ef08-4da4-8108-4ee693cad751","lat":34.70786370,"long":135.23563360,"status":"done","name":"大石東小公園西側柵","address":"灘区大石東町4丁目3番","city":"神戸市","number":"68"}, 
 {"id":"640c2b19-fe57-4b98-baf6-5e2ab5fe953a","lat":34.84730150,"long":135.03848380,"status":"not_yet","name":"masked","address":"口吉川町西中","city":"三木市","number":"16"}, 
 {"id":"640df562-b95e-4345-9d5c-9544028adef4","lat":34.82676420,"long":134.60816410,"status":"not_yet","name":"県住入口前","address":"天満山91-2","city":"太子町","number":"52"}, 
 {"id":"6410252c-1640-47bc-ac1c-ea0369ccac3f","lat":34.79721790,"long":134.67794190,"status":"done","name":"中島自治会館南側","address":"飾磨区中島1088-4","city":"姫路市","number":"440"}, 
 {"id":"64127ca0-a928-46a6-8fa1-119dc76241cd","lat":34.84892140,"long":135.41089800,"status":"done","name":"錦ヶ丘公園","address":"錦松台18番錦ヶ丘公園","city":"川西市","number":"186"}, 
 {"id":"6414fd34-8548-433d-8c78-b170be97d26f","lat":34.68316740,"long":135.15866110,"status":"done","name":"夢野地区地域福祉センター正門前 鉄柵","address":"兵庫区湊川町7丁目6番","city":"神戸市","number":"58"}, 
 {"id":"6417a894-18ab-4214-89a2-2c0bd60c109e","lat":34.78614280,"long":134.69227180,"status":"not_yet","name":"masked","address":"飾磨区妻鹿1397-3","city":"姫路市","number":"402"}, 
 {"id":"641c0124-86d6-43ce-9e90-ff4028e8ef63","lat":35.12812250,"long":134.38537880,"status":"not_yet","name":"奥海作業場","address":"奥海１０５３−１","city":"佐用町","number":"38"}, 
 {"id":"6427aa8f-47b4-410b-9e6e-4a166c5e121f","lat":34.76294110,"long":135.36241860,"status":"done","name":"上大市２丁目１５番南西角水路フェンス","address":"上大市２丁目 15番","city":"西宮市","number":"399"}, 
 {"id":"64282e03-9163-4c4b-b7c9-1cbadadcbc0d","lat":34.73914160,"long":135.15164330,"status":"reserved","name":"「北鈴蘭台駅」バス停横ガードレール歩道側に向ける","address":"北区甲栄台4丁目1番","city":"神戸市","number":"65"}, 
 {"id":"642ad45b-2d1c-44d9-9a44-4c57178f3528","lat":34.77543620,"long":134.95770430,"status":"not_yet","name":"隆工業所前水路北側","address":"別所町相野","city":"三木市","number":"135"}, 
 {"id":"642cc5e0-0f44-4bad-a8f8-b39f8211d65b","lat":34.85579150,"long":134.89613660,"status":"not_yet","name":"らんらんバス停「西脇北」の交差点向 県道小野香寺線（81号）防護柵","address":"西脇町685の3","city":"小野市","number":"15-103"}, 
 {"id":"643c1ada-b55d-46c8-b250-b46e61cede26","lat":34.77926440,"long":134.58001000,"status":"done","name":"masked","address":"網干区浜田731","city":"姫路市","number":"581"}, 
 {"id":"644267fc-867e-4bc6-bb34-031aef7f8f24","lat":34.74489950,"long":135.44877660,"status":"done","name":"額田公園 東側","address":"額田町11額田公園 東側","city":"尼崎市","number":"83"}, 
 {"id":"64456e62-3a8a-4ba8-9979-21538fd888d4","lat":34.64308800,"long":135.06556700,"status":"done","name":"流田橋欄干西側","address":"垂水区福田3丁目1番","city":"神戸市","number":"232"}, 
 {"id":"644a7770-0377-4870-9099-77d8696ab402","lat":34.34033250,"long":134.89045330,"status":"done","name":"masked","address":"本町八丁目２番３号","city":"洲本市","number":"2"}, 
 {"id":"644c87eb-a660-4436-9716-82ef1bd91f01","lat":34.83019860,"long":135.41739550,"status":"done","name":"鳶の森第2公園(西側)金網 (位置情報が見つかりませんでした)","address":"鳶台1丁目202鳶の森第2公園(西側)金網 (位置情報が見つかりませんでした)","city":"川西市","number":"60"}, 
 {"id":"645c6b26-d48f-4d5c-bb80-eddb2f35eb7d","lat":34.86805690,"long":135.40557330,"status":"done","name":"汽車公園（北側）鉄柵","address":"緑台4丁目3番地の80汽車公園(北側)鉄柵","city":"川西市","number":"194"}, 
 {"id":"646f6041-bc95-4bec-845b-e29cf1f5bee0","lat":34.73465300,"long":135.40971400,"status":"done","name":"日新中学校西門　北西側","address":"東七松町2-1日新中学校西門 北西側","city":"尼崎市","number":"310"}, 
 {"id":"647c7fe8-ce22-44fb-9895-d709ea692217","lat":35.16482374,"long":134.76392555,"status":"not_yet","name":"masked","address":"栃原","city":"朝来市","number":"53"}, 
 {"id":"64862815-7edb-4a29-b193-1dcdd81f7649","lat":34.77563660,"long":134.98717570,"status":"not_yet","name":"新広陽公民館前空地","address":"別所町小林","city":"三木市","number":"97"}, 
 {"id":"648cfb29-230b-4cfe-818f-2ba87d3959d0","lat":34.85291410,"long":135.12372920,"status":"not_yet","name":"四辻バス停横金柵","address":"吉川町奥谷","city":"三木市","number":"294"}, 
 {"id":"649010b0-c3e6-4c56-b40a-0ca9c6ad0819","lat":34.88814630,"long":135.22964290,"status":"done","name":"駅前町　三田駅前ペデストリアンデッキ案内A階段看板左側フェンス","address":"駅前町 三田駅前ペデストリアンデッキ案内A階段看板左側フェンス","city":"三田市","number":"142"}, 
 {"id":"64955394-d720-4683-8bc9-cd09525b2a8e","lat":34.96824490,"long":134.92864650,"status":"done","name":"主要地方道西脇八千代市川線歩道柵（上王子町信号南側）","address":"上王子町123","city":"西脇市","number":"147"}, 
 {"id":"649c0621-852b-4c96-8948-6188003e3e74","lat":null,"long":null,"status":"not_yet","name":"市立加茂保育所前最明寺川沿ガードレール","address":"下加茂1丁目32番","city":"加西市","number":"116"}, 
 {"id":"649e2326-cefc-47d9-a678-a7c93852f3dd","lat":34.78682080,"long":134.59706880,"status":"done","name":"大江島会館東 大江島中央公園北側フェンス","address":"網干区大江島551ー1","city":"姫路市","number":"561"}, 
 {"id":"64a9483d-e14a-41a0-b253-7622a65a1bfc","lat":34.76648090,"long":135.37824510,"status":"done","name":"常松新幹線下子ども広場 南側","address":"常松2-9常松新幹線下子ども広場 南側","city":"尼崎市","number":"454"}, 
 {"id":"64acc101-2022-4af6-9b36-20fb8bbe9e7f","lat":34.79956740,"long":134.57137560,"status":"not_yet","name":"上余部警鐘台下","address":"余部区上余部","city":"姫路市","number":"604"}, 
 {"id":"64b0bf80-be67-4ba9-b29b-f448942375ca","lat":34.72454140,"long":135.26367160,"status":"done","name":"阪神水道企業団南側鉄柵","address":"東灘区西岡本3丁目20番1号","city":"神戸市","number":"122"}, 
 {"id":"64b9b542-8c9f-475b-bbd8-d70d242d3dd7","lat":34.72689780,"long":135.13278850,"status":"done","name":"神戸北郵便局南側矢の口橋西側鉄柵","address":"北区北五葉2丁目1番","city":"神戸市","number":"120"}, 
 {"id":"64bf4fbf-05be-4f5f-a0aa-4bf2ccd7b0e6","lat":35.46310130,"long":134.87821040,"status":"done","name":"市有地（住宅用地分譲地）","address":"出石町東條9市有地(住宅用地分譲地)","city":"豊岡市","number":"338"}, 
 {"id":"64c9100d-d0d6-42a0-af2a-bbcba0c18c94","lat":34.74989100,"long":134.86040760,"status":"done","name":"野口第一公園南側フェンス","address":"野口町野口129-126","city":"加古川市","number":"126"}, 
 {"id":"64d05c8a-82e5-40a2-a0d2-5a28296fa99c","lat":35.29905460,"long":134.83564690,"status":"not_yet","name":"クラボウインターナショナル竹田事業所前フェンス","address":"竹田上町","city":"朝来市","number":"82"}, 
 {"id":"64d3bf11-d73e-4fda-a781-3d1fe037487d","lat":34.72632090,"long":134.95525770,"status":"not_yet","name":"南古自治会館付近","address":"西区岩岡町岩岡1449番地","city":"神戸市","number":"335"}, 
 {"id":"64d4a82e-4fd9-4797-8157-51e4b035ce33","lat":34.74429450,"long":134.84353210,"status":"not_yet","name":"長砂公園北東入口","address":"野口町長砂544","city":"加古川市","number":"153"}, 
 {"id":"64e15532-8758-4709-b87b-5165a099c179","lat":34.98600820,"long":134.37694040,"status":"not_yet","name":"（旧）中安小学校正門横フェンス","address":"米田110","city":"佐用町","number":"100"}, 
 {"id":"64e4849c-12fb-4dc5-90c1-44a59282faaf","lat":34.79369700,"long":134.82754500,"status":"done","name":"中央消防署西分署東側市道水路沿防護柵","address":"東神吉町神吉(10-1010 神吉10号線)","city":"加古川市","number":"388"}, 
 {"id":"64e9153b-8efe-4ef2-b7a3-26701182737d","lat":34.86294150,"long":134.79023860,"status":"not_yet","name":"上村氏所有畑","address":"飾東町小原493","city":"姫路市","number":"244"}, 
 {"id":"64e9d01e-a5f3-4842-9801-65ff44c407bb","lat":34.86274990,"long":135.37101050,"status":"not_yet","name":"masked","address":"masked","city":"川西市","number":"252"}, 
 {"id":"64e9e8ae-41db-47c4-b642-92a043edaa48","lat":34.88047480,"long":134.63839830,"status":"not_yet","name":"六角公民館東側花壇","address":"六角449－8","city":"姫路市","number":"265"}, 
 {"id":"64ead828-dda0-4a4f-8360-a7f0da85079d","lat":34.68322330,"long":135.08896970,"status":"done","name":"落合プラザ駐車場北側 歩道鉄柵","address":"須磨区西落合7丁目4番","city":"神戸市","number":"222"}, 
 {"id":"64f30a90-a417-484b-acb3-82a6168253d7","lat":34.66150600,"long":135.00310690,"status":"done","name":"めぐみの郷伊川谷店南西付近","address":"西区伊川谷町潤和1466番地の1","city":"神戸市","number":"129"}, 
 {"id":"64f742bc-69a8-4737-a393-380ee4510048","lat":35.05901940,"long":134.75303480,"status":"not_yet","name":"柏尾バス停横　ガードフェンス","address":"柏尾","city":"神河町","number":"54"}, 
 {"id":"64f77b62-468e-42a1-a571-a472538fe9b8","lat":35.04046150,"long":135.16582610,"status":"done","name":"南矢代グラウンドフェンス前","address":"南矢代","city":"丹波篠山市","number":"46-6"}, 
 {"id":"65082c2c-930c-4f92-8cc1-493f9e27be1d","lat":34.86129690,"long":135.21820850,"status":"done","name":"鹿の子台小学校西側フェンス","address":"北区鹿の子台北町6丁目34番","city":"神戸市","number":"386"}, 
 {"id":"650c5102-b06b-49ff-bb37-07f276178ea8","lat":34.65203240,"long":135.00087430,"status":"done","name":"市道(水田方北側ガードレール)","address":"太寺3丁目15","city":"明石市","number":"60"}, 
 {"id":"6515a266-f3e4-4d80-9653-53964bc6f5b6","lat":34.69254120,"long":135.20532690,"status":"done","name":"ローレルコート神戸海岸通北西鉄柵","address":"中央区脇浜海岸通4丁目5番","city":"神戸市","number":"89"}, 
 {"id":"6519842c-3e3c-47e9-9033-fa2835c7f46a","lat":34.65587630,"long":135.01706330,"status":"done","name":"東山公園(北側植込)","address":"朝霧台3776-56","city":"明石市","number":"23"}, 
 {"id":"651dc4c7-a5e5-4ba2-916a-6240c780c9ce","lat":35.23443600,"long":134.80608790,"status":"not_yet","name":"朝来大橋東側空き地（市有地）","address":"立野","city":"朝来市","number":"301"}, 
 {"id":"6524f67e-d5b8-48c3-b49d-dc2c170c18f0","lat":34.97735240,"long":134.48894690,"status":"not_yet","name":"河内神社北側土地改良事業記念石碑横ガードパイプ","address":"新宮町牧","city":"たつの市","number":"2"}, 
 {"id":"6528e969-b585-49f8-88f8-ca7d702d8bb4","lat":35.30903760,"long":134.89871920,"status":"not_yet","name":"市営住宅栗鹿団地駐車場フェンス","address":"上早田","city":"朝来市","number":"107"}, 
 {"id":"652967d6-99db-4c83-9fda-d31443578c5e","lat":34.79163900,"long":135.36195080,"status":"done","name":"末成小学校正門西側フェンス","address":"宝塚市末成町1-1","city":"宝塚市","number":"38-02"}, 
 {"id":"652dc861-7eee-4372-a129-036b08a9c341","lat":34.65460880,"long":135.08517400,"status":"done","name":"第1下畑橋南道路ガードレール","address":"垂水区下畑町字谷川","city":"神戸市","number":"20"}, 
 {"id":"6532611f-849d-4dc2-a539-cf14840838fc","lat":35.49945300,"long":134.98124740,"status":"not_yet","name":"市道太田虫生線国道482号線交差点付近","address":"但東町太田294-5市道太田虫生線国道482号線交差点付近","city":"豊岡市","number":"423"}, 
 {"id":"6535680d-6af1-4953-97f0-88584a0014b6","lat":35.14843530,"long":135.06546070,"status":"done","name":"個人所有　畑","address":"氷上町石生","city":"丹波市","number":"管理番号102氷上67"}, 
 {"id":"6536384a-0801-43ac-ad32-ad47bf882e3a","lat":35.47105360,"long":134.59358630,"status":"not_yet","name":"masked","address":"村岡区村岡276-2（福西）","city":"香美町","number":"156"}, 
 {"id":"653644a3-9161-49d9-9965-d9a819a3dd57","lat":34.29494740,"long":134.94311040,"status":"done","name":"空地","address":"由良四丁目３番２１号付近","city":"洲本市","number":"105"}, 
 {"id":"6539f36e-352c-4503-a5eb-48486a2115df","lat":34.90316000,"long":135.36084000,"status":"done","name":"町道若葉１号線 \n白金１丁目バス停付近ガードパイプ","address":"白金１丁目","city":"猪名川町","number":"13_93"}, 
 {"id":"6541ea5d-e18b-49e1-a37f-ae4f47ddb9b8","lat":35.07513780,"long":135.01955910,"status":"done","name":"県道篠山山南線歩道　転落防止柵(ﾐﾆｽﾄｯﾌﾟ山南町村森店付近)","address":"篠山山南線","city":"丹波市","number":"管理番号253山南35"}, 
 {"id":"654867d7-a669-4384-97a8-70b25d92b9c1","lat":null,"long":null,"status":"not_yet","name":"元木クリニック南西ガードレール","address":"東睦野1丁目11番","city":"加西市","number":"299"}, 
 {"id":"6548688e-e400-4dc5-a557-e2b54be2ac98","lat":34.68864870,"long":135.16567990,"status":"done","name":"中島橋欄干","address":"兵庫区雪御所町10番","city":"神戸市","number":"29"}, 
 {"id":"654dde20-6b22-44a8-87b5-e12c7580c6c7","lat":34.77393269,"long":134.81080410,"status":"done","name":"多目的広場の東側（植栽）","address":"高砂市米田町米田新20－36","city":"高砂市","number":"18-2"}, 
 {"id":"654e011c-1d43-4352-a4d9-3ddb7b8d2f6e","lat":35.44185600,"long":134.82385060,"status":"not_yet","name":"暮坂区農業用倉庫北側壁面","address":"出石町暮坂140-4暮坂区農業用倉庫北側壁面","city":"豊岡市","number":"359"}, 
 {"id":"6553acd2-1b6d-4596-9c73-8cb964818c19","lat":34.66485570,"long":135.13746490,"status":"done","name":"「五位の池こども園」南側金網","address":"長田区五位ノ池町2丁目1番","city":"神戸市","number":"158"}, 
 {"id":"655724c8-7cb2-44c7-b492-70d2603570ab","lat":35.51766230,"long":134.52281110,"status":"not_yet","name":"湯谷配水池横　ガードレール","address":"湯谷","city":"新温泉町","number":"106"}, 
 {"id":"65599e9c-7f6c-4ce3-88cf-4ae027fe5b9e","lat":34.77913070,"long":135.40539390,"status":"done","name":"公務員宿舎 東側水路","address":"昆陽東1丁目2番街区","city":"伊丹市","number":"144"}, 
 {"id":"655bf8e6-755d-4cf2-9446-c3724fa2bfd2","lat":null,"long":null,"status":"not_yet","name":"市営加茂桃源団地3号棟前","address":"加茂4丁目8番3号","city":"加西市","number":"107"}, 
 {"id":"6561bc5f-3751-44f5-9a95-8ad6a4cb8c55","lat":34.82820920,"long":134.52252460,"status":"done","name":"神戸北山公民館南側ゴミステーション横フェンス","address":"揖保川町神戸北山","city":"たつの市","number":"191"}, 
 {"id":"65679676-e0ff-4d65-b9c2-c54ad01d67e3","lat":35.12688700,"long":135.07102190,"status":"done","name":"個人所有地　路肩","address":"柏原町小南","city":"丹波市","number":"管理番号11柏原11"}, 
 {"id":"65683739-62e9-42c5-8dc1-aa615ad1f3c4","lat":34.79190330,"long":135.35236000,"status":"done","name":"小林公園東側ガードレール","address":"宝塚市小林1-15","city":"宝塚市","number":"09-01"}, 
 {"id":"656fcc69-6c1c-454a-97c1-155890694b02","lat":34.71981720,"long":134.86399650,"status":"done","name":"播磨小学校南交差点北東側フェンス","address":"宮北1丁目431-2","city":"播磨町","number":"37"}, 
 {"id":"6576236a-51a0-4a98-9f35-6e76b8906980","lat":34.71849780,"long":135.42862270,"status":"done","name":"大物公園 南側","address":"東大物町1-1-4大物公園 南側","city":"尼崎市","number":"164"}, 
 {"id":"657dbe14-9114-4ab8-bf32-2e69f05dc117","lat":34.81328380,"long":134.47539120,"status":"not_yet","name":"masked","address":"垣内町","city":"相生市","number":"60"}, 
 {"id":"657ef678-054e-44e1-bd8d-1f27499d78ff","lat":35.49812180,"long":134.80075980,"status":"not_yet","name":"旧国府テラス横市道フェンス","address":"日高町上石384-16 (374-1東側市道対側地)旧国府テラス横市道フェンス","city":"豊岡市","number":"254"}, 
 {"id":"6581a3ad-fd63-405d-b6ea-ac94675d334d","lat":34.73400600,"long":134.83065260,"status":"done","name":"浜の宮保育園西側フェンス","address":"尾上町池田89-1","city":"加古川市","number":"266"}, 
 {"id":"6582a024-6bb8-4db5-afd1-b9a8ca858f85","lat":34.99680460,"long":134.95568250,"status":"done","name":"西脇中学校正門南側市道柵","address":"小坂町","city":"西脇市","number":"29"}, 
 {"id":"6582c308-3e2c-46b1-9b99-b7d6b0581cff","lat":34.69208590,"long":135.27182260,"status":"done","name":"アイランド北口バス停東側ガードレール","address":"東灘区向洋町中1丁目","city":"神戸市","number":"278"}, 
 {"id":"65848242-043a-47c9-87e0-9876415e74f9","lat":35.65169170,"long":134.57495630,"status":"not_yet","name":"JR鎧駅 町道のガードレール 鎧駅左前方","address":"香住区鎧410-12","city":"香美町","number":"111"}, 
 {"id":"6585a120-2b6f-4f29-b043-88793a4fc100","lat":34.65330400,"long":135.14046100,"status":"done","name":"「中華飯店若松」東側ガードレール","address":"長田区若松町10丁目6番","city":"神戸市","number":"207"}, 
 {"id":"658bf726-8b6a-4d39-9211-0a3c0c5f8e8d","lat":34.81018410,"long":134.99242240,"status":"not_yet","name":"常楽寺ブロック塀","address":"府内町","city":"三木市","number":"60"}, 
 {"id":"65a09e40-9d8c-480c-a431-f7158d4312a9","lat":35.08350770,"long":135.38158730,"status":"not_yet","name":"下原山公民館掲示板前","address":"下原山","city":"丹波篠山市","number":"21-2"}, 
 {"id":"65a2d78b-8f30-4997-b1b4-d5af6839f96d","lat":35.15005490,"long":134.47951730,"status":"not_yet","name":"荒尾左雲橋 市道ガードレール","address":"千種町岩野辺606-2","city":"宍粟市","number":"232"}, 
 {"id":"65a4b09b-f900-4923-be8e-5a7cdfc4e5d8","lat":35.01205140,"long":134.54443660,"status":"not_yet","name":"masked","address":"山崎町庄能178-1","city":"宍粟市","number":"17"}, 
 {"id":"65a50b0a-cdb7-4db8-a1d9-e91f83f83c15","lat":34.73022800,"long":134.86268600,"status":"done","name":"中野バス停南側ガードレール","address":"平岡町中野66地先(0569 二俣中野線)","city":"加古川市","number":"208"}, 
 {"id":"65bd2bd2-7205-47e6-aa33-452e2b68498b","lat":34.29448970,"long":134.77978160,"status":"not_yet","name":"山所公会堂敷地内ガードパイプ","address":"複列山所1190-4","city":"南あわじ市","number":"3-6"}, 
 {"id":"65c67542-0140-424b-bc2d-4f8d777f9526","lat":35.39835580,"long":134.75795180,"status":"done","name":"小山公民館附近 県道沿い","address":"八鹿町小山177","city":"養父市","number":"42"}, 
 {"id":"65cd7ad0-6479-4add-8cdf-0f2425ba8247","lat":34.64084980,"long":135.04708870,"status":"done","name":"垂水郵便局北側ガードレール","address":"垂水区星陵台2丁目1番","city":"神戸市","number":"112"}, 
 {"id":"65cfc0e7-e051-4764-9ad0-71d2a1960278","lat":34.65542980,"long":135.16765410,"status":"done","name":"パークサイド御崎西側金網","address":"兵庫区御崎町2丁目3番","city":"神戸市","number":"221"}, 
 {"id":"65d6a12f-b6fc-4df8-a7c4-1f34f2775560","lat":34.65984310,"long":135.17503550,"status":"done","name":"神戸市総合児童センター(こべっこランド)北側 フェンス","address":"兵庫区上庄通1丁目1番43号","city":"神戸市","number":"204"}, 
 {"id":"65dac77e-6da3-4219-8272-19153d9e9017","lat":34.66961920,"long":135.13907260,"status":"done","name":"「上池田小公園」東側の柵","address":"長田区上池田3丁目9番","city":"神戸市","number":"140"}, 
 {"id":"65db509a-ef06-4b38-b0b1-93b96cf7ae42","lat":34.70946070,"long":135.00966080,"status":"done","name":"勝負谷池ダム東側北角付近","address":"西区樫野台1丁目7番地の1","city":"神戸市","number":"233"}, 
 {"id":"65dbb35f-70e1-417f-b17b-c2b8d081cfc2","lat":34.93082470,"long":134.78032750,"status":"not_yet","name":"兵庫西農協福崎東支所八千種店 西側フェンス","address":"八千種179-2","city":"福崎町","number":"38"}, 
 {"id":"65e3d1a2-bb9d-444b-b5ec-47b8a608fc4b","lat":34.16797300,"long":134.82518000,"status":"not_yet","name":"魚谷商店前ガードパイプ","address":"沼島2157","city":"南あわじ市","number":"4-84"}, 
 {"id":"65ef7aec-ca6f-4b1c-a4c6-dd69b4587760","lat":34.77277950,"long":135.40282870,"status":"done","name":"美鈴児童遊園地 東側金網","address":"美鈴町1丁目45番地","city":"伊丹市","number":"80"}, 
 {"id":"65f9e714-c4d5-42e6-9643-5f1b3331eec5","lat":34.81911700,"long":134.92533920,"status":"not_yet","name":"分譲地北の溜池東側 ゴミステーション道向 市道3003線ガードレール","address":"桑田町799の2","city":"小野市","number":"13-86"}, 
 {"id":"65fcd806-1494-4487-a5b3-3f431cf2248c","lat":34.82068420,"long":135.39914720,"status":"done","name":"最明寺川沿い南側ガードレール","address":"宝塚市南ひばりガ丘3-27","city":"宝塚市","number":"43-06"}, 
 {"id":"65fdd0cf-4184-4009-9ee5-9b1167ddc688","lat":34.72816450,"long":134.90362300,"status":"not_yet","name":"第五昭和苑公園フェンス","address":"六分一1181-63","city":"稲美町","number":"116"}, 
 {"id":"65ff1c39-3637-4403-b748-206a3dbd8cfa","lat":34.85641680,"long":134.70120040,"status":"done","name":"姫路競馬場北側フェンス(自衛隊正門の南側)","address":"広峰二丁目7","city":"姫路市","number":"139"}, 
 {"id":"65fff22d-35ec-40e2-869d-ae2712f94c81","lat":34.88443520,"long":135.19222850,"status":"done","name":"弥生が丘５丁目　シオン橋手すり（住居表示板右横）","address":"弥生が丘5丁目 シオン橋手すり(住居表示板右横)","city":"三田市","number":"220"}, 
 {"id":"6609dfd3-ec01-442b-8c4d-43a44354f25f","lat":34.64917150,"long":134.98513510,"status":"done","name":"大観小学校（南門西側フェンス）","address":"大明石町2丁目8","city":"明石市","number":"116"}, 
 {"id":"66171f67-4c3c-43d4-be92-a5b3be3f712f","lat":34.71936160,"long":135.43949010,"status":"done","name":"熊野神社 北側","address":"杭瀬本町1-9-36熊野神社 北側","city":"尼崎市","number":"159"}, 
 {"id":"661f2614-e292-44e2-9a7b-bf1c8b83bbce","lat":34.75569180,"long":134.38146500,"status":"done","name":"六百目町浜田第1公園東面","address":"六百目町浜田第1公園東面","city":"赤穂市","number":"15"}, 
 {"id":"6620ba82-92ed-4d77-86ec-2e818af09226","lat":34.83019860,"long":135.41739550,"status":"error_wrong_place","name":"能勢電鉄鷲の森駅(西側)鉄柵","address":"鷲の森町7番14号能勢電鉄鷲の森駅(西側)鉄柵","city":"川西市","number":"45"}, 
 {"id":"662b1753-8ae8-4bb5-9821-f1062e97dca1","lat":34.72036900,"long":135.39848900,"status":"done","name":"成徳小学校　北側","address":"蓬川町311成徳小学校 北側","city":"尼崎市","number":"200"}, 
 {"id":"662dc82c-f28e-499d-9522-1482fe187793","lat":35.54225950,"long":134.82327170,"status":"done","name":"豊岡小学校プール道路沿い南側","address":"中央町17-21豊岡小学校プ-ル道路沿い南側","city":"豊岡市","number":"13"}, 
 {"id":"662f181a-bdc4-4eed-ab3f-509223edbc9a","lat":34.73268200,"long":135.43159600,"status":"done","name":"ＪＲ尼崎駅タクシー乗場 北側","address":"潮江1-2 地先JR尼崎駅タクシ-乗場 北側","city":"尼崎市","number":"111"}, 
 {"id":"663a06ee-82dc-490f-b4f7-59719a7e6e8f","lat":34.71286570,"long":135.21776930,"status":"done","name":"福住公園西北柵","address":"灘区福住通7丁目2番","city":"神戸市","number":"130"}, 
 {"id":"663da2c9-2f70-49b9-86c7-2acfe544f563","lat":34.74156240,"long":135.36131720,"status":"done","name":"高畑公園南側","address":"高畑町2番","city":"西宮市","number":"339"}, 
 {"id":"663e6aa8-fa59-4a73-bed1-46fa123354ad","lat":35.00295210,"long":135.16114680,"status":"done","name":"大将軍神社倉庫横","address":"古森","city":"丹波篠山市","number":"48-5"}, 
 {"id":"6640595c-f576-4f41-9518-234d4b97e3af","lat":34.91425450,"long":135.21733010,"status":"not_yet","name":"福島　福島沢野本宿舎入口右側金網","address":"福島 福島沢野本宿舎入口右側金網","city":"三田市","number":"152"}, 
 {"id":"66411086-060f-48d5-8e2f-07c7746ffc69","lat":34.72268150,"long":135.30786140,"status":"done","name":"ロイヤルハイツ松浜付近路肩","address":"松浜町7-29地先","city":"芦屋市","number":"119"}, 
 {"id":"6642ad7c-5d52-411b-a964-775457143496","lat":34.81588990,"long":135.02565230,"status":"done","name":"masked","address":"細川町細川中","city":"三木市","number":"40"}, 
 {"id":"6644377d-ebab-455d-8ec5-9cec97600802","lat":34.75911590,"long":134.39524350,"status":"done","name":"山手町つつじ公園東面","address":"山手町つつじ公園東面","city":"赤穂市","number":"146"}, 
 {"id":"6644c2d6-78a6-4c11-9cff-65a44849900a","lat":34.85250410,"long":134.81077010,"status":"not_yet","name":"藤城造園南側県道残地","address":"志方町畑729地先","city":"加古川市","number":"482"}, 
 {"id":"664698ca-baae-4f94-b39c-3eda3d64307c","lat":34.87067190,"long":135.41220860,"status":"done","name":"カイガラ公園","address":"緑台1丁目1番地の106カイガラ公園","city":"川西市","number":"189"}, 
 {"id":"6646ce46-f04e-4286-9af4-877782de68b1","lat":34.76559510,"long":135.17752160,"status":"done","name":"防火水槽鉄柵","address":"北区山田町上谷上字森田32番地","city":"神戸市","number":"211"}, 
 {"id":"665a4b0f-9582-49fe-96e0-1c864b9c4bbd","lat":35.18014960,"long":135.03275390,"status":"done","name":"フレッシュさとう前空き地","address":"氷上町常楽","city":"丹波市","number":"管理番号46氷上11"}, 
 {"id":"665ad343-f0fa-456d-ac2d-c0584222db33","lat":34.83327990,"long":134.55843210,"status":"not_yet","name":"加藤稲荷入口北玉垣","address":"誉田町片吹","city":"たつの市","number":"150"}, 
 {"id":"6667c40e-fcf3-45df-bb2c-54ddce0df95b","lat":34.92969860,"long":134.96647430,"status":"done","name":"masked","address":"上中1丁目31番地","city":"加東市","number":"28"}, 
 {"id":"6670a774-f59e-4bbc-8988-5ca710289908","lat":34.81098950,"long":135.38702360,"status":"done","name":"みどりのプラザ本館 東側柵","address":"荒牧6丁目4番街区","city":"伊丹市","number":"360"}, 
 {"id":"6670e69d-a272-4358-ab26-dc591a11df90","lat":34.81766720,"long":135.36254850,"status":"done","name":"菰池東側ガードレール","address":"宝塚市売布4-2","city":"宝塚市","number":"50-03"}, 
 {"id":"6671e9b1-54d9-4952-8445-0e3735b18f5b","lat":34.41450140,"long":134.89516840,"status":"done","name":"塩田港入口","address":"国道28号","city":"淡路市","number":"8"}, 
 {"id":"6677c617-af23-418c-9759-c3ba886324ea","lat":35.08055840,"long":135.00495540,"status":"done","name":"丹波ひかみ農協山南支店　営農経済センターフェンス","address":"山南町奥","city":"丹波市","number":"管理番号254山南36"}, 
 {"id":"667905da-6ad7-4972-ad47-56a772df51e0","lat":34.65446030,"long":135.12386590,"status":"done","name":"若木交番東鉄柵","address":"須磨区若木町2丁目10番5号","city":"神戸市","number":"110"}, 
 {"id":"667d1364-0322-4f49-98da-44b1741185cc","lat":34.84462680,"long":135.02098710,"status":"done","name":"高篠入口横 三木側 県道金柵","address":"細川町高篠","city":"三木市","number":"20"}, 
 {"id":"667e32e9-f5da-4a72-91df-b8fde9de5050","lat":34.64311990,"long":134.98003330,"status":"done","name":"川端公園（北側鉄柵）","address":"大観町21","city":"明石市","number":"131"}, 
 {"id":"66806804-69c8-490f-abad-b9c18bd31f63","lat":34.89259320,"long":135.14243420,"status":"not_yet","name":"二瀬川バス停西側三叉路（県道植栽部）","address":"吉川町金会","city":"三木市","number":"276"}, 
 {"id":"66841363-15af-4b3b-a85c-785063986c65","lat":34.92505290,"long":135.19203730,"status":"not_yet","name":"上井沢　広野歩道橋東詰（団地側）の左側鉄柵","address":"上井沢 広野歩道橋東詰(団地側)の左側鉄柵","city":"三田市","number":"74"}, 
 {"id":"66878f53-56b7-4fea-b15f-a6b0c7d44db1","lat":34.74414430,"long":135.37380140,"status":"done","name":"松並公園南側","address":"松並町5番","city":"西宮市","number":"323"}, 
 {"id":"6689f6ee-4605-49ab-8e75-d420dfb91569","lat":34.99242800,"long":135.32246400,"status":"not_yet","name":"県道島川原線 \n西畑バス停付近（県道沿い）","address":"西畑字深田","city":"猪名川町","number":"8_51"}, 
 {"id":"668c24c1-4717-44ac-8980-3ee13c730c9a","lat":34.73002080,"long":135.31235710,"status":"done","name":"打出保育所東側宮川沿防護柵","address":"宮川町4-10地先","city":"芦屋市","number":"76"}, 
 {"id":"668ddf5a-92ba-4156-956a-bcb9bb774373","lat":34.66772630,"long":135.08896970,"status":"done","name":"市バス北須磨団地バス停ガードレール","address":"須磨区友が丘5丁目5番地","city":"神戸市","number":"278"}, 
 {"id":"6699fa93-c12c-4d02-8dd0-8c2ba24ef5c0","lat":35.17573190,"long":134.54197980,"status":"not_yet","name":"皆木コミュニティセンターフェンス","address":"波賀町皆木463-1","city":"宍粟市","number":"199"}, 
 {"id":"669c514a-95c6-49c7-85eb-81727aad5f60","lat":34.95303300,"long":135.31861900,"status":"not_yet","name":"町道笹尾線 \nアイディタウン入口付近","address":"笹尾字材ノ前","city":"猪名川町","number":"7_50"}, 
 {"id":"669e5103-5a9f-4520-9a2f-b8e29e613dfc","lat":34.85773930,"long":134.72934990,"status":"not_yet","name":"城見台二丁目バス停南","address":"城見台二丁目","city":"姫路市","number":"162"}, 
 {"id":"66b01b7f-31cd-4c5d-bcf7-d67e9587250c","lat":35.17118230,"long":135.03057240,"status":"done","name":"葛野川（成松橋西）","address":"氷上町上成松","city":"丹波市","number":"管理番号36氷上1"}, 
 {"id":"66b43670-fdc0-4a01-9878-0c7a6485f42a","lat":34.78152400,"long":135.13424980,"status":"not_yet","name":"福地バス停前鉄柵","address":"北区山田町福地字下津ノ73番地の2","city":"神戸市","number":"188"}, 
 {"id":"66b57b09-72ce-45d4-be36-c1fab9f0d950","lat":34.81906180,"long":134.49660710,"status":"done","name":"那波野3丁目交差点北ガードレール","address":"那波野三丁目","city":"相生市","number":"37"}, 
 {"id":"66b7c28e-8e0e-4348-8bc9-dc534c71f610","lat":34.73586040,"long":134.89179570,"status":"not_yet","name":"和田五社大神社","address":"和田471","city":"稲美町","number":"29"}, 
 {"id":"66c5944b-7250-4145-99b6-c917ea29707a","lat":34.45067970,"long":134.83776470,"status":"not_yet","name":"柳沢老人福祉センター前","address":"多賀洲本線","city":"淡路市","number":"222"}, 
 {"id":"66c93b95-6f97-4265-994e-2e51d1379c36","lat":34.80088170,"long":134.95684930,"status":"not_yet","name":"鳥町中橋南空地","address":"別所町近藤","city":"三木市","number":"145"}, 
 {"id":"66cb7b6e-144c-4ea8-99a0-d458dde697c1","lat":35.07720010,"long":135.18084630,"status":"done","name":"上新田公民館掲示板横植栽","address":"上新田","city":"丹波篠山市","number":"31-3"}, 
 {"id":"66cbacae-f080-46c5-8e07-bbe0e8b6b648","lat":34.73974320,"long":135.34149620,"status":"done","name":"兵庫県西宮総合庁舎駐車場東側","address":"江上町 1番","city":"西宮市","number":"5"}, 
 {"id":"66cd3042-3e5b-4293-839c-ae9604d7ee5b","lat":34.80404250,"long":135.40155390,"status":"done","name":"大野クチナシ児童遊園地　南側金網","address":"大野1丁目1番地3","city":"伊丹市","number":"307"}, 
 {"id":"66f10075-f625-490d-adb7-71960689a79f","lat":34.77823600,"long":134.87931800,"status":"not_yet","name":"神野西公会堂","address":"神野町神野2236","city":"加古川市","number":"86"}, 
 {"id":"66fa2213-4679-48f4-b98b-f2cd79137dad","lat":34.88196900,"long":134.72262600,"status":"done","name":"JR仁豊野駅西側","address":"仁豊野265－2","city":"姫路市","number":"180"}, 
 {"id":"66fbcb38-97bb-4990-b28f-d7c8a4f95c82","lat":35.02776290,"long":134.72407320,"status":"not_yet","name":"谷公民館","address":"谷","city":"市川町","number":"78"}, 
 {"id":"67017a94-fb97-40f0-a4c1-af703cf16481","lat":34.82653140,"long":134.54901640,"status":"not_yet","name":"崇道神社境内地(野立)","address":"揖保町栄","city":"たつの市","number":"140"}, 
 {"id":"67085043-500f-49e7-8197-1a590e46c534","lat":34.45929680,"long":134.93405730,"status":"not_yet","name":"佐野港臨港道日進丸前ガードレール","address":"佐野新島","city":"淡路市","number":"68"}, 
 {"id":"67091f29-1241-4ae1-8ff2-d64f6a22bfa8","lat":34.75107770,"long":134.87558490,"status":"done","name":"鶴池東公園西側防護柵","address":"平岡町新在家1192-440","city":"加古川市","number":"247"}, 
 {"id":"670f6baf-5f88-4bf6-8731-a28b5ddbdf39","lat":35.47164950,"long":134.78162870,"status":"done","name":"日高区公民館（花壇）","address":"日高町鶴岡492-1日高区公民館(花壇)","city":"豊岡市","number":"292"}, 
 {"id":"6712adb6-d725-48d4-9ed5-5951a22ebb49","lat":34.81939230,"long":134.95254500,"status":"not_yet","name":"午後有料駐車場　樫山町ゴ ミズテーションNo.4の隣","address":"樫山町1475の60","city":"小野市","number":"17-111"}, 
 {"id":"671471d6-8731-43a6-ab5d-7e483b586627","lat":34.75719880,"long":134.38009590,"status":"done","name":"塩屋第4公園 (おららの公園)南面","address":"塩屋第4公園 (おららの公園)南面","city":"赤穂市","number":"35"}, 
 {"id":"671a777e-65b4-4f96-b937-377d1361c354","lat":34.81019310,"long":135.37434520,"status":"done","name":"安倉上池　北側ガードレール","address":"宝塚市安倉北4","city":"宝塚市","number":"03-02"}, 
 {"id":"67207ca8-395f-4606-8857-41268fcc5497","lat":35.46079830,"long":134.86744320,"status":"not_yet","name":"田村久子氏所有地（県道境界面）","address":"出石町鍛冶屋1-1田村久子氏所有地(県道境界面)","city":"豊岡市","number":"360"}, 
 {"id":"672f292a-5e53-41cd-b90f-c74657e51b04","lat":35.41008540,"long":134.57137560,"status":"not_yet","name":"口大谷下バス停横","address":"村岡区口大谷507-2","city":"香美町","number":"197"}, 
 {"id":"6730433c-73fd-4742-89e4-5ac554a6555f","lat":35.03524100,"long":135.07519210,"status":"not_yet","name":"主要地方道西脇篠山線路肩柵（小南富士西側）","address":"住吉町705","city":"西脇市","number":"125"}, 
 {"id":"673c3795-414a-44b3-af84-e5ba4fb4988f","lat":35.60583470,"long":134.80192390,"status":"not_yet","name":"円山団地内","address":"城崎町来日235円山団地内","city":"豊岡市","number":"175"}, 
 {"id":"674270bc-8237-41fb-b98c-24c53e3850e5","lat":34.75205990,"long":135.32114260,"status":"done","name":"樋之池公園北西端","address":"樋之池町 11番","city":"西宮市","number":"94"}, 
 {"id":"6744fb46-66a9-40ab-9248-b5f74408b5fa","lat":34.28857610,"long":134.76860560,"status":"not_yet","name":"市こども園西側鉄塔向ガードレール","address":"市三條886","city":"南あわじ市","number":"3-38"}, 
 {"id":"6747aaf2-1a95-4525-85d9-12d67440c6bc","lat":34.65378270,"long":134.99666970,"status":"done","name":"上ノ丸ヒマラヤ公園(北東側フェンス)","address":"上ノ丸2丁目2-30","city":"明石市","number":"84"}, 
 {"id":"674ad02e-d73d-43c6-8a24-3ca6a53259f9","lat":35.49751850,"long":134.99373270,"status":"not_yet","name":"福田隆氏住宅","address":"但東町中山839福田隆氏住宅","city":"豊岡市","number":"399"}, 
 {"id":"674b47c4-554f-4623-b08f-6befa7b512c4","lat":34.76699260,"long":135.40208670,"status":"done","name":"佐々原児童遊園地 南側金網","address":"南野5丁目11番街区","city":"伊丹市","number":"325"}, 
 {"id":"674e38d5-2fd3-4b75-9cbe-6d11dd6b8782","lat":34.90860270,"long":134.54901640,"status":"not_yet","name":"白井食品前堤防(野立)","address":"新宮町井野原","city":"たつの市","number":"46"}, 
 {"id":"6761e64e-0eb1-43c6-95e9-7bab0930265d","lat":34.84126760,"long":134.68958440,"status":"done","name":"水尾神社南側玉垣","address":"山野井町1-3","city":"姫路市","number":"118"}, 
 {"id":"6762cada-2a71-49cf-808f-c144ec154c23","lat":34.91190770,"long":134.61136010,"status":"not_yet","name":"岩佐氏所有地北側","address":"林田町上伊勢141－1","city":"姫路市","number":"321"}, 
 {"id":"67680370-f4f8-4a75-9c24-c3b6a03f9c2e","lat":34.28974540,"long":134.76872620,"status":"not_yet","name":"旧市役所三原庁舎跡地前","address":"市福永358-1","city":"南あわじ市","number":"3-31"}, 
 {"id":"676e591e-e5ce-49ce-b075-ac4ad4c4e659","lat":34.67462180,"long":135.11028960,"status":"done","name":"地下鉄妙法寺駅前駐輪場西鉄柵","address":"須磨区横尾1丁目13番地","city":"神戸市","number":"160"}, 
 {"id":"677679a3-0711-4000-98ed-f7edde7672e3","lat":34.97460340,"long":134.91832940,"status":"done","name":"主要地方道西脇八千代市川線路肩柵（芳田橋東側）","address":"落方町","city":"西脇市","number":"139"}, 
 {"id":"677b2f45-b963-4946-ab5f-a0357f1b2774","lat":34.83791000,"long":134.69380200,"status":"done","name":"姫路郵便局北側駐車場フェンス","address":"本町210","city":"姫路市","number":"12"}, 
 {"id":"677c85e3-8422-4bfa-89a0-28fd1f61c072","lat":34.82906680,"long":135.37848300,"status":"done","name":"山手台2丁目バス停上手ガードフェンス","address":"宝塚市山手台東1-24","city":"宝塚市","number":"58-02"}, 
 {"id":"677f5d61-97b2-4551-b8bd-9ac1d5ff489f","lat":34.99065500,"long":134.76089440,"status":"not_yet","name":"保健福祉センター","address":"甘地323の1","city":"市川町","number":"65"}, 
 {"id":"6780403d-e494-439a-a3fb-2ce8f763a498","lat":34.80604350,"long":135.40988780,"status":"done","name":"市立久代幼稚園北約100m水路沿鉄柵","address":"久代2丁目9番市立久代幼稚園北約100m水路沿鉄柵","city":"川西市","number":"133"}, 
 {"id":"678ce661-f4e8-4e8b-9526-d71f5bf4f416","lat":35.01495240,"long":134.80842910,"status":"not_yet","name":"岡部会館入口ガードパイプ","address":"下牛尾11の3","city":"市川町","number":"43"}, 
 {"id":"678cf49e-b6a2-4237-bea7-fc271b3716cc","lat":34.74596840,"long":135.40627590,"status":"done","name":"生島北公園南側金網","address":"栗山町2-9-127 地先生島北公園南側金網","city":"尼崎市","number":"265"}, 
 {"id":"6796efbb-3e8b-4ce6-bb1f-0d594f773c38","lat":35.00322300,"long":135.30429100,"status":"not_yet","name":"県道島川原線 \n大野口バス停付近","address":"柏原","city":"猪名川町","number":"9_63"}, 
 {"id":"67973193-f05c-49ef-95a0-dbe0bb5d858d","lat":34.42554960,"long":134.85704930,"status":"done","name":"大町小学校フェンス","address":"大谷鮎原神代線","city":"淡路市","number":"76"}, 
 {"id":"67a78ee5-6a24-4cab-981b-c1628dffb9dc","lat":35.04750980,"long":134.78084110,"status":"not_yet","name":"福山集会所前　ガードレール","address":"福本","city":"神河町","number":"31"}, 
 {"id":"67b26cd2-65e2-43b2-a0cc-4786998243f1","lat":34.27716400,"long":134.69438200,"status":"done","name":"湯の川荘敷地内フェンス","address":"伊加利1184-1付近","city":"南あわじ市","number":"2-53"}, 
 {"id":"67b76312-8a96-4d94-85f8-2d4509171ff7","lat":34.83384870,"long":135.41887330,"status":"done","name":"キセラ川西プラザ福祉棟東側","address":"火打1丁目12番16号キセラ川西プラザ福祉棟東側","city":"川西市","number":"36"}, 
 {"id":"67bd0de9-ba98-4725-9185-c3cbb103b5db","lat":34.91163240,"long":135.31757540,"status":"not_yet","name":"大原野字茶谷37付近　ガードレール","address":"宝塚市大原野字茶谷","city":"宝塚市","number":"22-04"}, 
 {"id":"67c58e0d-2865-40bf-aca3-65b07b53448f","lat":34.88859700,"long":135.21392160,"status":"done","name":"天神３丁目　天神垣内公園東側スロープフェンス","address":"天神3丁目 天神垣内公園東側スロ-プフェンス","city":"三田市","number":"133"}, 
 {"id":"67c66376-d2c1-40ff-81da-1c47002db9a5","lat":34.80519840,"long":135.41838080,"status":"done","name":"上水道高芝水源池(東側)金網","address":"東久代2丁目14番7号上水道高芝水源池(東側)金網","city":"川西市","number":"147"}, 
 {"id":"67cab9d4-867d-43fc-82ab-288dab604265","lat":34.94556570,"long":134.96851570,"status":"done","name":"市道北野多井田線 闘竜灘交差点ガードレール","address":"多井田286番地1","city":"加東市","number":"112"}, 
 {"id":"67d00fba-8dba-4ea3-a8b9-60634b2751d3","lat":34.75783660,"long":135.15475710,"status":"done","name":"市立箕谷駅前自転車駐車場北側鉄柵","address":"北区松が枝町1丁目64番地の1","city":"神戸市","number":"191"}, 
 {"id":"67da63a4-a119-4b4f-a3ab-141fbbfe2196","lat":34.71546030,"long":135.23826990,"status":"done","name":"フォレスタ六甲ビル東南入口北側落防止柵","address":"灘区永手町4丁目2番","city":"神戸市","number":"31"}, 
 {"id":"67e4b751-2bc7-4af8-9035-6b62239c4c20","lat":34.53228650,"long":134.99111200,"status":"done","name":"淡路市東浦事務所前","address":"国道28号","city":"淡路市","number":"252"}, 
 {"id":"68073665-faf2-49c5-94d4-0f61f7100cc5","lat":34.78002200,"long":134.58181800,"status":"done","name":"興浜西公園東側","address":"網干区興浜1128","city":"姫路市","number":"573"}, 
 {"id":"680d2bd4-eef8-47ed-af0f-dbadc759a857","lat":34.97317560,"long":134.96793360,"status":"done","name":"緑風台市道和田奥野線入口市道柵（緑風台北バス停付近）","address":"野村町","city":"西脇市","number":"71"}, 
 {"id":"6811bc07-2379-4594-b306-c4e9aa690b5b","lat":34.90497880,"long":135.38922760,"status":"done","name":"町道松尾台３号線 \n松尾台小学校付近","address":"松尾台２丁目","city":"猪名川町","number":"11_79"}, 
 {"id":"68133be7-d5ce-45dc-ab91-9d2bb88f8ea4","lat":34.73276300,"long":135.38602920,"status":"done","name":"下稲葉公園　北側","address":"稲葉荘1-10下稲葉公園 北側","city":"尼崎市","number":"239"}, 
 {"id":"681aa5e3-09aa-4e14-9a20-30bfc8861ccc","lat":34.67432550,"long":135.16734000,"status":"done","name":"NTT兵庫ネットワークセンター東 ガードレール","address":"兵庫区大開通3丁目1番27号","city":"神戸市","number":"157"}, 
 {"id":"6820911c-c039-46be-8e13-915137797c08","lat":34.67203680,"long":134.97654100,"status":"error_wrong_place","name":"県営玉津団地11号棟南側付近","address":"西区曙町1070番地","city":"神戸市","number":"36"}, 
 {"id":"6825bc61-aefd-4bc3-bc93-ab56c2aacc37","lat":34.71254690,"long":135.39067280,"status":"done","name":"元浜緑地　南西側","address":"元浜町1元浜緑地 南西側","city":"尼崎市","number":"207"}, 
 {"id":"6828367f-4f22-4a2c-8000-c15144a5478a","lat":34.97982440,"long":134.41279950,"status":"not_yet","name":"久保クラブ","address":"末廣２２０７","city":"佐用町","number":"139"}, 
 {"id":"68319b48-dd32-4868-a140-393e461f2c85","lat":34.86702780,"long":134.91461850,"status":"not_yet","name":"粟生オートサービスの北側空地","address":"粟生町412の2（北条）","city":"小野市","number":"12-80"}, 
 {"id":"683539b9-4364-4891-a9b1-48acc44d9bf6","lat":34.80825860,"long":134.48570570,"status":"done","name":"古池変電所南ガードレール","address":"古池二丁目","city":"相生市","number":"24"}, 
 {"id":"6836d70b-b479-494b-a132-f8460e8b3e1a","lat":34.79503500,"long":134.56196250,"status":"not_yet","name":"たつの市民病院前植込(野立)","address":"御津町中島","city":"たつの市","number":"244"}, 
 {"id":"683fa271-07cb-4128-bffb-c3e3dc46e700","lat":34.34289540,"long":134.89545970,"status":"not_yet","name":"洲本まちなか広場北側","address":"本町三丁目４番１５号","city":"洲本市","number":"23"}, 
 {"id":"68537c3f-9760-4d0a-8352-ee6269b67d4c","lat":34.72038490,"long":135.29446270,"status":"done","name":"深江南第二住宅北側金網","address":"東灘区深江南町4丁目7番26号","city":"神戸市","number":"15"}, 
 {"id":"6853a3bb-3956-4ebd-b914-19b3909dcf35","lat":35.45486420,"long":134.93068520,"status":"not_yet","name":"masked","address":"masked","city":"豊岡市","number":"434"}, 
 {"id":"6856b393-1770-40b2-9029-3fef526157d3","lat":34.79081300,"long":134.68962100,"status":"not_yet","name":"阿成グラウンド 北側フェンス","address":"飾磨区阿成下渡場","city":"姫路市","number":"413"}, 
 {"id":"6858890e-a32b-4b3f-ab57-bea37b93d560","lat":34.77696930,"long":135.02157030,"status":"done","name":"東自由が丘１丁目ロ－タリ－内南側","address":"志染町東自由が丘１丁目","city":"三木市","number":"249"}, 
 {"id":"685d3403-d32e-4e81-a1ef-eb45cae10a06","lat":34.79403280,"long":135.34678100,"status":"done","name":"逆瀬川公園フェンス","address":"宝塚市逆瀬川2-8","city":"宝塚市","number":"37-01"}, 
 {"id":"685f7b99-686c-48f7-bc74-ac03b3db2db5","lat":34.65929400,"long":135.13113800,"status":"done","name":"前池橋東交差点ガードレール","address":"須磨区飛松町5丁目2番","city":"神戸市","number":"124"}, 
 {"id":"686246f2-0715-4d87-b99b-8b0a2a8206b4","lat":34.76137380,"long":134.83300400,"status":"not_yet","name":"大向公園南側生垣","address":"加古川町粟津9","city":"加古川市","number":"10"}, 
 {"id":"6863983b-a578-4f80-8482-b66a5fc9a2ad","lat":34.75371180,"long":134.84470170,"status":"not_yet","name":"鶴林新道歩道沿植込","address":"野口町良野(0066 平野尾上線)","city":"加古川市","number":"156"}, 
 {"id":"6864911d-d3e5-4aee-b58d-a0e063ab1e58","lat":35.40534120,"long":134.77272230,"status":"not_yet","name":"後藤圭一事務所前花壇","address":"八鹿町八鹿1860-2","city":"養父市","number":"28"}, 
 {"id":"6864aa76-2445-4180-b5c8-f706c20133e5","lat":35.23728960,"long":135.13828910,"status":"done","name":"友政公民館西側　ガードレール","address":null,"city":"丹波市","number":"管理番号278市島1"}, 
 {"id":"6866a0c8-a750-4aa0-ab95-23fa765b3e23","lat":34.77066570,"long":134.56666930,"status":"not_yet","name":"東部公園公衆トイレ前フェンス","address":"御津町苅屋","city":"たつの市","number":"239"}, 
 {"id":"68697904-fd0a-49e0-a292-0a49b2d0ccf2","lat":35.16409500,"long":134.79042420,"status":"done","name":"ＪＲ和田山駅前ガードパイプ","address":"駅前","city":"朝来市","number":"87"}, 
 {"id":"686d139d-d8cc-45e0-bcc5-ef488dca2fb0","lat":34.70693950,"long":135.42183580,"status":"done","name":"尼崎自動車教習所　南側ガードレール","address":"北初島町13 地先尼崎自動車教習所 南側ガ-ドレ-ル","city":"尼崎市","number":"7"}, 
 {"id":"686d512d-b414-430f-9c04-e32046a1edf3","lat":34.75557290,"long":135.33798800,"status":"done","name":"六軒南公園東側フェンス","address":"六軒町1番","city":"西宮市","number":"147"}, 
 {"id":"686f35ba-9407-4c84-939a-be59d827e96d","lat":34.38658900,"long":134.79238900,"status":"done","name":"五色中学校交差点付近ガードレール","address":"五色町広石北４９番地１","city":"洲本市","number":"185"}, 
 {"id":"68773066-f22e-42af-8253-3c8e99c98a30","lat":34.77754565,"long":134.77955000,"status":"done","name":"コープ神戸高砂店西入口の道路西側","address":"高砂市松陽1丁目10地先","city":"高砂市","number":"14-1"}, 
 {"id":"687dc649-82a9-47d8-86bb-71697902df8f","lat":35.01757670,"long":134.55801840,"status":"not_yet","name":"masked","address":"山崎町中493-5","city":"宍粟市","number":"68"}, 
 {"id":"6887a169-481a-4a60-9c78-6ad0fca6a1fa","lat":34.77500900,"long":134.55725520,"status":"not_yet","name":"黒崎公民館前植込(野立)","address":"御津町黒崎","city":"たつの市","number":"234"}, 
 {"id":"68884564-c1c0-48b3-9b28-c0cd7e515289","lat":34.98964900,"long":134.95918280,"status":"done","name":"万松交差点南側市道柵","address":"高田井町","city":"西脇市","number":"11"}, 
 {"id":"6892965a-07ad-4d1e-839c-aab6e2dc2782","lat":34.86399320,"long":135.06824330,"status":"not_yet","name":"masked","address":"口吉川町笹原","city":"三木市","number":"8"}, 
 {"id":"68956a62-8641-4992-917b-ab689a2243cf","lat":34.66396290,"long":135.14506520,"status":"done","name":"「西代蓮池公園」北西の歩道柵","address":"長田区蓮池町","city":"神戸市","number":"132"}, 
 {"id":"689945bd-1172-40d8-a537-ae5f1aa10c33","lat":34.83565690,"long":135.41759590,"status":"done","name":"キセラ川西プラザ西駐車場","address":"火打1丁目9番キセラ川西プラザ西駐車場","city":"川西市","number":"39"}, 
 {"id":"6899f330-e4ad-4ff1-816a-deb1e30c6f3c","lat":34.76784870,"long":134.87414140,"status":"not_yet","name":"石守公園北側防護柵","address":"神野町石守471-9","city":"加古川市","number":"111"}, 
 {"id":"689fed51-12a2-46a6-ad4f-6f1dff15b292","lat":34.72823300,"long":135.14627110,"status":"done","name":"神鉄鈴蘭台変電所西側金網(2枚の時は暴力追放看板の左右)","address":"北区鈴蘭台北町2丁目5番6号","city":"神戸市","number":"74"}, 
 {"id":"68a29951-1064-4199-b1b4-5124161b5059","lat":35.38751590,"long":134.68456060,"status":"not_yet","name":"大谷公会堂前","address":"大谷278","city":"養父市","number":"189"}, 
 {"id":"68a496ff-e53a-45ed-a07b-9110107e81c8","lat":34.72986870,"long":135.26991720,"status":"done","name":"長子公園西側鉄柵","address":"東灘区岡本8丁目8番","city":"神戸市","number":"113"}, 
 {"id":"68aa6271-1640-4129-ab93-1add5bac9d37","lat":34.92205240,"long":134.93862520,"status":"done","name":"河高こども園フェンス","address":"河高2116番地","city":"加東市","number":"94"}, 
 {"id":"68acb634-b23a-4bb5-b716-2b337d59cb9e","lat":34.66065870,"long":135.03352570,"status":"done","name":"神陵台小学校正門横金網","address":"垂水区神陵台3丁目1番","city":"神戸市","number":"175"}, 
 {"id":"68b06be2-bf83-4356-8080-54caa60bb2a9","lat":34.32743800,"long":134.75044300,"status":"done","name":"「認定こども園松帆北」北側ブロック塀","address":"松帆樽田198","city":"南あわじ市","number":"2-8"}, 
 {"id":"68b388de-14e1-4395-bb9c-21474e5c5653","lat":34.71505100,"long":135.42123850,"status":"done","name":"琴ノ浦高等学校　北側","address":"南城内10-2琴ノ浦高等学校 北側","city":"尼崎市","number":"9"}, 
 {"id":"68b68d95-a69a-4f13-8321-1e1f125ebc28","lat":34.82515130,"long":135.34545970,"status":"done","name":"阪急バスすみれガ丘東バス停西側フェンス","address":"宝塚市すみれガ丘3-5","city":"宝塚市","number":"26-08"}, 
 {"id":"68c2fdb2-7cd8-4677-bdcf-467b944d5199","lat":35.14208960,"long":135.16278910,"status":"done","name":"県住春日中山団地横　転落防止柵","address":"春日町松森","city":"丹波市","number":"管理番号192春日33"}, 
 {"id":"68cf41f4-e499-40ed-89b4-fc70c272920f","lat":35.12375810,"long":135.29703970,"status":"not_yet","name":"上筱見農業倉庫前","address":"上筱見","city":"丹波篠山市","number":"30-1"}, 
 {"id":"68dd0fd4-6380-4d2a-a4a9-b5e9e892e279","lat":34.76564286,"long":134.77885760,"status":"done","name":"梅井緑地の西側（植栽）","address":"高砂市梅井4丁目26地先","city":"高砂市","number":"11-3"}, 
 {"id":"68def9ef-a1d0-4927-aa3b-5105e7a9e887","lat":35.40873590,"long":134.75548430,"status":"done","name":"消防団第８分団車庫横 市道沿い（白い柵）","address":"八鹿町九鹿411-1","city":"養父市","number":"39"}, 
 {"id":"68e679b9-e64c-4bac-bd97-814240ef2530","lat":34.64745660,"long":135.11036270,"status":"done","name":"高倉川橋鉄柵","address":"須磨区高倉町1丁目1番","city":"神戸市","number":"18"}, 
 {"id":"68eb82b9-0e53-4438-b39e-dea0f422670c","lat":34.76187080,"long":135.39055010,"status":"done","name":"樋口モータープール 南側","address":"武庫之荘7-9 地先樋口モ-タ-プ-ル 南側","city":"尼崎市","number":"462"}, 
 {"id":"68ed8f3a-6516-4fd1-9e72-ed3f7ce44d9a","lat":35.34433640,"long":134.89310190,"status":"done","name":"masked","address":"久田和","city":"朝来市","number":"73"}, 
 {"id":"68edc4a7-e30a-4410-9ea4-29ccdfb8edf2","lat":34.93425000,"long":134.82850100,"status":"done","name":"住吉神社門前、酒見寺駐車場フェンス","address":"北条町宮前","city":"加西市","number":"12"}, 
 {"id":"68f07627-9a29-4ffe-a602-cb58179fc5d3","lat":34.32876650,"long":134.73012380,"status":"done","name":"masked","address":"湊1126付近","city":"南あわじ市","number":"2-21"}, 
 {"id":"68f648c8-e4f2-4dc2-94f6-8505d64e16ac","lat":35.53664490,"long":134.46509530,"status":"not_yet","name":"masked","address":"飯野","city":"新温泉町","number":"142"}, 
 {"id":"68f6a467-0c75-4ef4-84a1-54c817f44091","lat":34.89899290,"long":135.19343140,"status":"done","name":"masked","address":"masked","city":"三田市","number":"186"}, 
 {"id":"68fffc8b-3011-45b3-a520-d943147c088d","lat":34.95060400,"long":134.80822600,"status":"done","name":"公会堂北側ふれあい広場 西側フェンス","address":"畑町","city":"加西市","number":"44"}, 
 {"id":"6903b871-d4ac-4184-8172-0a2d8c1c2656","lat":34.90506140,"long":135.22327450,"status":"done","name":"友が丘２丁目　友が丘けやき公園防火水槽表示板左側ガードレール","address":"友が丘2丁目 友が丘けやき公園防火水槽表示板左側ガ-ドレ-ル","city":"三田市","number":"173"}, 
 {"id":"69057244-bbbe-41b8-bba8-fe8af7f17fbb","lat":34.89592700,"long":135.18630380,"status":"done","name":"masked","address":"masked","city":"三田市","number":"207"}, 
 {"id":"6905f52f-4d53-46ae-8557-1110ab0fc125","lat":34.20528000,"long":134.79306000,"status":"not_yet","name":"あわじ島農協灘支所","address":"灘円実128-1-2","city":"南あわじ市","number":"4-70"}, 
 {"id":"690bd199-0538-487a-b955-e89f76346c2c","lat":34.70928760,"long":135.37071670,"status":"done","name":"上田西公園東側南端","address":"上田西町 ４番","city":"西宮市","number":"230"}, 
 {"id":"6912f4b1-5727-4cc2-9197-6e5ec29d62ac","lat":34.80573620,"long":135.38501250,"status":"done","name":"天神川小学校 東側金網","address":"荒牧南3丁目17番12号","city":"伊丹市","number":"350"}, 
 {"id":"6917d2b5-e28b-4fea-b2fd-04454a18c1c5","lat":null,"long":null,"status":"not_yet","name":"masked","address":"緑台3丁目1番地の59","city":"加西市","number":"192"}, 
 {"id":"69255178-ff1e-4907-a73d-ec0fd3d5df3d","lat":34.71179540,"long":135.27636660,"status":"done","name":"浜公園南側鉄柵","address":"東灘区魚崎南町2丁目10番","city":"神戸市","number":"137"}, 
 {"id":"6928a55a-d06d-4e3a-933a-505e39df5008","lat":34.83032110,"long":135.37593140,"status":"done","name":"山手台西2丁目公園東側フェンス","address":"宝塚市山手台西2-27","city":"宝塚市","number":"58-04"}, 
 {"id":"69303648-f22d-4776-9a26-1130904ef909","lat":35.47684540,"long":134.70891180,"status":"not_yet","name":"石井区宮向橋西側市道路肩","address":"日高町石井663-2南側市道対側地石井区宮向橋西側市道路肩","city":"豊岡市","number":"320"}, 
 {"id":"6938ada0-19fd-4424-9d29-9537ba440d62","lat":34.87724260,"long":135.00858290,"status":"not_yet","name":"らんらんバス停「管理事務所前」から西へ1ブロック先の空地","address":"池田町21の247","city":"小野市","number":"25-164"}, 
 {"id":"693975a0-bdb3-4d7b-b417-d5902148e9c9","lat":34.89621780,"long":134.35083560,"status":"not_yet","name":"町道（赤松地区公民館 前）","address":"苔縄67付近","city":"上郡町","number":"61"}, 
 {"id":"6945e804-6c8f-40c8-b255-23bea1441402","lat":35.01817760,"long":134.50926520,"status":"not_yet","name":"広岡橋南詰　西側ガードパイプ","address":"山崎町高下273-8","city":"宍粟市","number":"33"}, 
 {"id":"695994ad-873e-4d0a-9907-c499d7138bf9","lat":34.87031200,"long":134.74391200,"status":"not_yet","name":"三浦建設㈱西側","address":"豊富町御蔭(薮田)1940","city":"姫路市","number":"331"}, 
 {"id":"695b41be-2767-4a6b-8d28-17b951fae3be","lat":35.01628760,"long":134.27395560,"status":"not_yet","name":"皆田ふれあい広場フェンス","address":"皆田３２７地先","city":"佐用町","number":"60"}, 
 {"id":"695bf29f-5164-4499-89c5-45c6536f7d90","lat":34.94864190,"long":134.74898090,"status":"not_yet","name":"大井機工駐車場（★）","address":"福崎新344","city":"福崎町","number":"49"}, 
 {"id":"696c95e9-6a0b-42fe-92c0-23e45dc8328a","lat":34.77081300,"long":134.87867700,"status":"not_yet","name":"石守第2公園東側フェンス","address":"神野町石守","city":"加古川市","number":"112"}, 
 {"id":"696d1a22-c486-4cd1-899e-898b5f005bd4","lat":34.68257420,"long":135.14206880,"status":"done","name":"「丸山」バス停（南行）後方の柵","address":"長田区明泉寺町3丁目9番","city":"神戸市","number":"31"}, 
 {"id":"69731dd7-8c9d-40e8-a85c-a3c638063e0f","lat":34.71464120,"long":135.25645490,"status":"done","name":"阪神御影駅南口バス停東側ガードレール","address":"東灘区御影本町2丁目16番","city":"神戸市","number":"221"}, 
 {"id":"697c9cea-845a-4629-acbf-41cacdd1da18","lat":34.95313670,"long":134.77606240,"status":"not_yet","name":"町有地（岡本電工西側）","address":"東田原449-2","city":"福崎町","number":"24"}, 
 {"id":"69895a54-7024-4ce5-bd91-043292dbdf0e","lat":35.51597400,"long":134.86164670,"status":"not_yet","name":"清水峯氏管理水田（集落入口道路南西角）","address":"立石27-1清水峯氏管理水田(集落入口道路南西角)","city":"豊岡市","number":"155"}, 
 {"id":"698a3f5f-7207-4373-9d1d-e2eeef25583b","lat":34.78043140,"long":135.04431750,"status":"not_yet","name":"志染バイパス窟屋公民館（向側）金柵","address":"志染町窟屋","city":"三木市","number":"79"}, 
 {"id":"698ee06d-959e-44e1-9906-a64cd5afed38","lat":35.15692200,"long":134.79159300,"status":"not_yet","name":"北真弓市営住宅ブロック塀","address":"北真弓","city":"朝来市","number":"32"}, 
 {"id":"698f0ea9-8933-48a5-bb47-5740807ed695","lat":34.83502300,"long":135.25050140,"status":"done","name":"鍋倉公園北側","address":"北六甲台３丁目 2番","city":"西宮市","number":"538"}, 
 {"id":"698ffe01-4390-4123-b82f-f2bc655fe252","lat":35.34373960,"long":134.84065180,"status":"not_yet","name":"masked","address":"土田","city":"朝来市","number":"99"}, 
 {"id":"6992b526-fe82-4426-927d-a83d962a4845","lat":35.07414810,"long":134.78531660,"status":"not_yet","name":"旧神崎クロージング㈱前　町道路肩（自立式）","address":"中村","city":"神河町","number":"22"}, 
 {"id":"699f7e4d-7e62-4d4d-acf8-53be5a607bf4","lat":34.88274640,"long":134.55768190,"status":"not_yet","name":"masked","address":"神岡町小那田","city":"たつの市","number":"168"}, 
 {"id":"69a7568c-f8e7-4a64-ad96-9b40595adbb4","lat":34.75208540,"long":135.34120260,"status":"done","name":"市営大社町住宅　東側","address":"大社町8番","city":"西宮市","number":"145"}, 
 {"id":"69ace946-fbfa-4e87-9f3f-6610ae620e09","lat":34.71828640,"long":135.23182590,"status":"done","name":"ふじ温泉北側・阪急電鉄神戸線金網","address":"灘区篠原南町1丁目6番","city":"神戸市","number":"33"}, 
 {"id":"69b633ab-d960-4fd4-8342-50fea7d4aaaa","lat":34.85395800,"long":134.79470800,"status":"not_yet","name":"masked","address":"飾東町北野","city":"姫路市","number":"241"}, 
 {"id":"69bb3314-8143-4185-b524-d5c2083a1b4e","lat":34.80526450,"long":134.67772950,"status":"done","name":"中部飾磨公園東側","address":"飾磨区都倉二丁目149","city":"姫路市","number":"383"}, 
 {"id":"69bfa4b8-34ff-4841-9877-5bbde34b8c26","lat":34.74002740,"long":135.41956420,"status":"done","name":"名和小学校　東側","address":"名神町3-1名和小学校 東側","city":"尼崎市","number":"270"}, 
 {"id":"69ca9608-f66d-4ec0-b870-713277e37c01","lat":34.72151840,"long":135.40201280,"status":"done","name":"masked","address":"masked","city":"尼崎市","number":"50"}, 
 {"id":"69caa363-4b43-4611-9e6a-05c5a59eb9eb","lat":35.34116990,"long":134.85188830,"status":"not_yet","name":"masked","address":"緑ヶ丘（和田山）","city":"朝来市","number":"41"}, 
 {"id":"69d16e75-4f4c-4ba9-9555-42aeccdb5a68","lat":35.08113570,"long":135.07215260,"status":"done","name":"市道谷川青田線　転落防止柵（太田小河川）","address":"山南町太田","city":"丹波市","number":"管理番号227山南9"}, 
 {"id":"69db1303-5a0b-4a69-b05d-2ecdf986f3a6","lat":34.67107740,"long":135.08383600,"status":"done","name":"市営菅の台第2住宅9号棟南鉄柵","address":"須磨区菅の台4丁目3番地の1","city":"神戸市","number":"271"}, 
 {"id":"69df9d58-7a03-4190-abf1-b8d61f409d3e","lat":35.40953640,"long":134.77075770,"status":"not_yet","name":"masked","address":"八鹿町仲町892","city":"養父市","number":"33"}, 
 {"id":"69e008d5-1ef7-4a1e-bee2-0ac58215d54b","lat":34.73101130,"long":135.29689310,"status":"done","name":"清水公園北側歩道植込","address":"清水町6番","city":"芦屋市","number":"58"}, 
 {"id":"69e52c96-f21e-4bed-8abf-4c4596120978","lat":34.90851700,"long":134.84972300,"status":"not_yet","name":"尾崎団地東公園フェンス","address":"尾崎団地自治区","city":"加西市","number":"88"}, 
 {"id":"69ea9396-eca9-46d1-b35d-b1c95ad0a1bc","lat":34.66590230,"long":135.13644190,"status":"done","name":"「五位の池小学校」北西角のフェンス","address":"長田区五位ノ池町2丁目3番","city":"神戸市","number":"160"}, 
 {"id":"69eb1b73-51d0-4f99-ae23-00dd2606e133","lat":35.53603970,"long":134.81253540,"status":"done","name":"市民グランド東側テニスコート北側法面","address":"戸牧319-17付近市民グランド東側テニスコ-ト北側法面","city":"豊岡市","number":"78"}, 
 {"id":"69edc205-a34f-4a09-acb3-791979c97e48","lat":34.74159740,"long":135.15632170,"status":"not_yet","name":"若葉台公園南側側溝","address":"北区若葉台2丁目12番","city":"神戸市","number":"57"}, 
 {"id":"69f5db0c-3b21-4a4d-85de-f2180d74e7e4","lat":34.85680760,"long":134.32129020,"status":"not_yet","name":"町道（下栗原公民館 横）","address":"栗原1304","city":"上郡町","number":"79"}, 
 {"id":"6a0cb2d9-18c4-4a24-bcf1-dfa67fe7c881","lat":34.97317560,"long":134.96793360,"status":"done","name":"野村大池南側市道柵（茜が丘入口との交差点）","address":"野村町","city":"西脇市","number":"72"}, 
 {"id":"6a1747bf-3539-47d5-a5cc-cfec26a582f3","lat":34.76699280,"long":134.84470170,"status":"not_yet","name":"溝之口99-1及び97-11フェンス","address":"加古川町溝之口99-1及び97-11","city":"加古川市","number":"78"}, 
 {"id":"6a1acf3c-9dfd-4787-a11e-05a9b4d61362","lat":34.74688770,"long":135.06123930,"status":"not_yet","name":"市営栄住宅16号棟付近","address":"西区桜が丘東町3丁目1番地","city":"神戸市","number":"271"}, 
 {"id":"6a1b661f-7688-4721-ab21-ac7ef7f9c1af","lat":34.76878550,"long":135.36885320,"status":"done","name":"段上公園東側フェンス","address":"段上町7丁目 2番","city":"西宮市","number":"441"}, 
 {"id":"6a2049c9-cc40-4b6e-a670-defc7f39d615","lat":34.82023100,"long":134.47598070,"status":"not_yet","name":"駅北バス停 三角広場","address":"山手一丁目","city":"相生市","number":"47"}, 
 {"id":"6a31dbc4-5582-4064-9034-422b26d69ae1","lat":34.73554750,"long":135.41937680,"status":"done","name":"名月公園　西側","address":"尾浜町3-10名月公園 西側","city":"尼崎市","number":"276"}, 
 {"id":"6a356bad-05fe-4ade-92c0-a2ad062898d1","lat":35.08591840,"long":135.34868950,"status":"not_yet","name":"本明谷生活改善センター広場フェンス","address":"本明谷","city":"丹波篠山市","number":"20-5"}, 
 {"id":"6a36da19-bfc8-4b75-837d-b40238c198d8","lat":34.78253680,"long":135.40961830,"status":"done","name":"伊丹市営斎場 西側植込み","address":"船原2丁目4番20号","city":"伊丹市","number":"138"}, 
 {"id":"6a3771b6-b21b-4f0e-aaf2-adcee921f95f","lat":35.23627730,"long":134.94171820,"status":"done","name":"国道427号線（昭光繊維入口付近）","address":"国道429号","city":"丹波市","number":"管理番号137青垣27"}, 
 {"id":"6a3f7c75-33c7-4bb0-8799-cd9e10379024","lat":35.01000500,"long":134.94634710,"status":"done","name":"県道西脇口吉川神戸線歩道柵（市原東交差点南側）","address":"市原町78","city":"西脇市","number":"50"}, 
 {"id":"6a45d70e-ca95-4635-af11-f1d263e1080b","lat":34.81729720,"long":135.39116550,"status":"done","name":"長尾南小学校東側フェンス","address":"宝塚市山本南2-10-1","city":"宝塚市","number":"59-03"}, 
 {"id":"6a4b5332-23d3-40cc-9797-c7bed65e9f6b","lat":34.97674130,"long":135.15538000,"status":"not_yet","name":"藍本　ＪＲ藍本駅駐輪場付近ガードレール","address":"藍本 JR藍本駅駐輪場付近ガ-ドレ-ル","city":"三田市","number":"40"}, 
 {"id":"6a63f1fa-79c2-422d-b9d9-25c12706ae59","lat":34.79809420,"long":135.38731740,"status":"done","name":"鴻池墓地公園 東側鉄柵","address":"鴻池3丁目6番街区","city":"伊丹市","number":"188"}, 
 {"id":"6a690c57-66b5-40e8-87e4-9b790c92106a","lat":34.71762520,"long":135.40012830,"status":"done","name":"下田公園　西側","address":"道意町2-1下田公園 西側","city":"尼崎市","number":"204"}, 
 {"id":"6a6fbe58-8967-4c2f-a3c0-c9280604b91d","lat":34.81116340,"long":135.38882350,"status":"done","name":"鶴田センター 入口東側植込み","address":"荒牧6丁目20番29号","city":"伊丹市","number":"359"}, 
 {"id":"6a730d7b-a438-4828-a397-16189af34b3d","lat":34.65719260,"long":134.99030920,"status":"done","name":"明石市立市民病院（堺西側）","address":"鷹匠町1-33","city":"明石市","number":"104"}, 
 {"id":"6a74e75c-e5dd-4f84-af61-111e099e6c66","lat":35.57023540,"long":134.79807970,"status":"not_yet","name":"masked","address":"masked","city":"豊岡市","number":"91"}, 
 {"id":"6a75bff8-f1e2-48fd-9cd0-a86997690111","lat":34.73536740,"long":135.16582610,"status":"not_yet","name":"小部小西交差点北側ガードレール","address":"北区山田町小部字西ノ岡谷16番地","city":"神戸市","number":"80"}, 
 {"id":"6a7920c0-f1a9-4aa4-8bbf-94ba5f93a2c7","lat":35.64141080,"long":134.51083420,"status":"not_yet","name":"和田公会堂横　空地（防火水槽奥側）","address":"和田","city":"新温泉町","number":"38"}, 
 {"id":"6a837d49-3d22-4267-96a6-19fc6dae8d45","lat":34.72518670,"long":135.43686750,"status":"done","name":"常光寺川西緑地 北側","address":"常光寺2-6-49 地先常光寺川西緑地 北側","city":"尼崎市","number":"140"}, 
 {"id":"6a9ebb4a-6049-4a3a-bfec-8b6f9b590403","lat":35.24070330,"long":135.12103090,"status":"done","name":"岩倉公民館前","address":null,"city":"丹波市","number":"管理番号280市島3"}, 
 {"id":"6a9fbff5-81c8-4100-a045-ebb2b0c851c8","lat":34.65896690,"long":135.07612410,"status":"done","name":"コーポつつじが丘東 つつじが丘公園南鉄柵","address":"垂水区つつじが丘4丁目","city":"神戸市","number":"277"}, 
 {"id":"6aa84af5-e9d2-46d0-9f7a-07a6a6cf0861","lat":34.65493380,"long":134.98732360,"status":"done","name":"藤和明石公園ハイタウン（東側植込）","address":"茶園場町3","city":"明石市","number":"109"}, 
 {"id":"6ab55813-5f86-41a4-8f79-a0cd8ecfc41b","lat":34.89693790,"long":135.05071710,"status":"done","name":"森尾集会所東側フェンス","address":"岩屋217番地1","city":"加東市","number":"141"}, 
 {"id":"6ab646e8-ba86-487d-afd1-e921524beb1c","lat":null,"long":null,"status":"not_yet","name":"多田猪名川こんにゃく橋進入口","address":"新田1丁目1番","city":"加西市","number":"222"}, 
 {"id":"6ab7b68b-14fd-4b70-98d2-70fefe833a98","lat":34.78884760,"long":134.55372450,"status":"not_yet","name":"朝臣バス停前(野立)","address":"御津町朝臣","city":"たつの市","number":"223"}, 
 {"id":"6aba97b9-f03e-4a35-9462-ea7f9e5226ad","lat":34.82544180,"long":134.52217400,"status":"done","name":"JR竜野駅正面ガードパイプ (位置情報が見つかりませんでした)","address":"揖保川町竜野駅前","city":"たつの市","number":"205"}, 
 {"id":"6abc212c-af24-44a6-bd13-4350dab2f332","lat":34.66995410,"long":135.08626430,"status":"done","name":"名谷テニスガーデン西公園北西部","address":"須磨区友が丘9丁目30番地","city":"神戸市","number":"276"}, 
 {"id":"6abcc790-75e3-4401-aa3c-4b8e72523c82","lat":35.49377260,"long":134.56908500,"status":"not_yet","name":"入江公会堂前 石垣","address":"村岡区入江1708-3","city":"香美町","number":"135"}, 
 {"id":"6ac173e1-aab9-4f7f-aaec-12a44b0a486f","lat":34.70840340,"long":135.22128300,"status":"done","name":"青谷川外園南ガードレール","address":"灘区灘北通7丁目4番","city":"神戸市","number":"104"}, 
 {"id":"6ac6d3a7-701c-47bf-973b-9bc6978c5a07","lat":34.70382140,"long":135.20376790,"status":"done","name":"神若保育所東側フェンス","address":"中央区神若通2丁目3番6号","city":"神戸市","number":"63"}, 
 {"id":"6ac9f0db-f084-4748-ae4a-7179999b3ebd","lat":34.76779590,"long":134.50544420,"status":"not_yet","name":"御津北こども園前自治会駐車場前(野立) (位置情報が見つかりませんでした)","address":"御津町栄町","city":"たつの市","number":"248"}, 
 {"id":"6ad1cba6-5e3b-414b-bc28-709585bfcddb","lat":34.32335890,"long":134.75317940,"status":"not_yet","name":"脇田公会堂前ブロック塀","address":"松帆脇田783付近","city":"南あわじ市","number":"2-14"}, 
 {"id":"6ad39901-02a1-48fb-aadb-d651b638ad8c","lat":34.77627960,"long":135.40267470,"status":"done","name":"よつばセンター 入口横鉄柵","address":"昆陽東6丁目3番街区","city":"伊丹市","number":"56"}, 
 {"id":"6ad89937-beb1-48d5-a693-0423df7cdb28","lat":34.72511220,"long":134.88702510,"status":"done","name":"手先第一公園北側フェンス","address":"平岡町土山1110-7(国道2号線本土山バス停南側)","city":"加古川市","number":"189"}, 
 {"id":"6ad93e0f-450a-40f2-921c-1c831f7c5ada","lat":34.78264410,"long":135.39874010,"status":"done","name":"稲野小学校　北側金網","address":"昆陽1丁目175番地","city":"伊丹市","number":"233"}, 
 {"id":"6ada5240-b8af-4846-a548-9e5088902a41","lat":34.75220050,"long":134.88813330,"status":"done","name":"西山団地内","address":"中村1830","city":"稲美町","number":"39"}, 
 {"id":"6adba58d-7c74-49bf-88e5-15b50e67b4c6","lat":35.15699670,"long":135.18588040,"status":"done","name":"細見化成㈱手前　転落防止柵","address":"中山綾部線","city":"丹波市","number":"管理番号190春日31"}, 
 {"id":"6ade4388-baa6-46a9-9d47-025b89acd8b1","lat":34.75854470,"long":134.41109750,"status":"done","name":"南野中バス停西防護柵","address":"南野中バス停西防護柵","city":"赤穂市","number":"96"}, 
 {"id":"6ae08bd0-1f0d-4fc5-aa31-cc0bb5343a10","lat":35.01942870,"long":134.55870790,"status":"not_yet","name":"市営住宅中山台団地北駐車場北側フェンス","address":"山崎町三谷57-1","city":"宍粟市","number":"70"}, 
 {"id":"6ae36cbc-1c51-4e34-92cf-f386e08c3768","lat":35.01837270,"long":134.97784660,"status":"done","name":"県道津万井西田線歩道柵（ゴミ置き場横）","address":"黒田庄町津万井","city":"西脇市","number":"185"}, 
 {"id":"6ae3ff9f-e683-4818-9c71-e2f962c2345a","lat":34.72702030,"long":135.30409280,"status":"done","name":"市役所東側掲示板付近植込","address":"精道町7-6","city":"芦屋市","number":"84"}, 
 {"id":"6ae96ae9-dc71-4f8e-9b5b-933aefc16737","lat":34.86292430,"long":135.22289360,"status":"done","name":"北神戸中学校南陸橋","address":"北区鹿の子台北町2丁目8番","city":"神戸市","number":"384"}, 
 {"id":"6aebd369-cd79-46d3-99fc-d7663056117f","lat":35.12619680,"long":134.91716160,"status":"done","name":"門村公会堂駐車場前ガードレール","address":"門村86-3地先","city":"多可町","number":"49"}, 
 {"id":"6aef77ed-4dc0-4b56-ae6c-5a83cbc68b03","lat":34.71445080,"long":135.21044980,"status":"error_wrong_place","name":"駐車場グリーンヴァレイ南歩道ガードパイプ","address":"灘区青谷町4丁目5番","city":"神戸市","number":"169"}, 
 {"id":"6aeffab8-e58d-4ed5-a679-dca47aed82df","lat":34.94759600,"long":135.15594200,"status":"not_yet","name":"下相野　相野駅タクシーのりば看板左側シェルター支柱（樹木の間に設置）","address":"下相野 相野駅タクシ-のりば看板左側シェルタ-支柱(樹木の間に設置)","city":"三田市","number":"65"}, 
 {"id":"6af09346-5253-4cbf-b45f-92e88d9940bd","lat":35.35036270,"long":134.86651510,"status":"done","name":"弥生が丘２区集会所横","address":"弥生が丘2区","city":"朝来市","number":"77"}, 
 {"id":"6af86f53-8752-4e83-adb2-7cb761f2d3a6","lat":34.88528500,"long":135.41363000,"status":"done","name":"元木クリニック南西ガードレール","address":"東睦野1丁目11番元木クリニック南西ガ-ドレ-ル","city":"川西市","number":"299"}, 
 {"id":"6b02793d-e38e-4a58-bb2a-6e967b6300c7","lat":34.87223330,"long":135.38403750,"status":"done","name":"中山公園(南側)鉄柵","address":"清和台西2丁目3番地の25中山公園(南側)鉄柵","city":"川西市","number":"248"}, 
 {"id":"6b06eec5-1452-4688-b16a-cc0a64d28f77","lat":34.55177450,"long":134.99810550,"status":"done","name":"楠本中郷公会堂前フェンス","address":"小磯","city":"淡路市","number":"239"}, 
 {"id":"6b0b1a3d-c749-4227-a2f6-4ee58b38a685","lat":35.27112490,"long":134.96428500,"status":"done","name":"日向橋付近　ガードレール","address":"青垣町稲土","city":"丹波市","number":"管理番号147青垣37"}, 
 {"id":"6b0cf064-76ce-4456-8c30-fb12dae1a6b7","lat":34.21558040,"long":134.73321550,"status":"done","name":"新川橋南詰ガードパイプ","address":"阿万西町285-3付近","city":"南あわじ市","number":"4-61"}, 
 {"id":"6b134135-c816-4eff-9cd8-1c657c1fa78d","lat":34.68490560,"long":134.98799980,"status":"done","name":"玉津第一小学校正門付近","address":"西区小山1丁目4番1号","city":"神戸市","number":"3"}, 
 {"id":"6b18a4de-ff00-40bf-ba14-051ed05f85a1","lat":35.08603000,"long":134.88228700,"status":"done","name":"masked","address":"的場402-2","city":"多可町","number":"63"}, 
 {"id":"6b1c01f7-a929-4e6e-8410-ca1cd96413b7","lat":34.75838400,"long":135.39630400,"status":"done","name":"武庫庄小学校 東側","address":"武庫之荘本町3-21 地先武庫庄小学校 東側","city":"尼崎市","number":"467"}, 
 {"id":"6b211599-c4e7-4058-8c80-335b5a173591","lat":34.74018450,"long":135.37798800,"status":"done","name":"東浦公園西側","address":"甲子園口北町11番","city":"西宮市","number":"328"}, 
 {"id":"6b225510-6cac-421b-8080-c1e8aaf0b4c1","lat":34.71845860,"long":135.31258730,"status":"done","name":"潮見東公園(東側)","address":"潮見町1番","city":"芦屋市","number":"137"}, 
 {"id":"6b26f8dd-f377-4750-8cc9-cd1a417ea0cd","lat":34.71861110,"long":135.41916670,"status":"done","name":"アマゴッタ　西側　防護柵","address":"西大物町12-41アマゴッタ 西側 防護柵","city":"尼崎市","number":"32"}, 
 {"id":"6b29af0b-0545-446f-a48a-addad738e39f","lat":34.76889740,"long":134.96992610,"status":"not_yet","name":"ともえ会館金柵","address":"別所町巴","city":"三木市","number":"127"}, 
 {"id":"6b2fb652-1ebc-4249-b019-e021e83ce461","lat":34.85291410,"long":135.12372920,"status":"not_yet","name":"奥谷バス停東側田法面","address":"吉川町奥谷","city":"三木市","number":"292"}, 
 {"id":"6b346a62-85ee-4dd1-958c-b1f8c2067d4c","lat":34.25123600,"long":134.87651100,"status":"not_yet","name":"北辰神社前","address":"畑田組8番地4","city":"洲本市","number":"74"}, 
 {"id":"6b3c302e-1d7c-4b98-b94b-793c77d54e78","lat":34.87363490,"long":134.35622740,"status":"done","name":"旧船坂小学校","address":"八保甲177-1","city":"上郡町","number":"85"}, 
 {"id":"6b3ed186-873a-494c-b61e-38a896cf797d","lat":34.84926310,"long":135.22701170,"status":"done","name":"神鉄二郎駅北側神鉄フェンス","address":"北区有野町二郎122番地の7付近","city":"神戸市","number":"304"}, 
 {"id":"6b4e60f1-2b5d-499b-b009-a13bb9435e87","lat":34.64639360,"long":135.11773930,"status":"done","name":"都市局管理地","address":"須磨区天神町4丁目4番","city":"神戸市","number":"8"}, 
 {"id":"6b576373-1051-4521-b537-e336c50bfe5c","lat":34.81731110,"long":135.33496440,"status":"done","name":"JR宝塚線福知山線北東側　線路侵入防止鉄柵","address":"生瀬東町28番","city":"西宮市","number":"480"}, 
 {"id":"6b57f53f-d0b9-479e-8509-06ac14fcb853","lat":35.06604930,"long":135.34399170,"status":"done","name":"福住上公民館西","address":"福住上","city":"丹波篠山市","number":"20-3"}, 
 {"id":"6b59f661-f5d2-42f5-963c-3ffabb282199","lat":34.82551140,"long":135.37527030,"status":"done","name":"中山台加圧所フェンス","address":"宝塚市中筋山手5-6","city":"宝塚市","number":"19-08"}, 
 {"id":"6b5c2fdc-df16-4454-87d6-2f1dc68b59da","lat":35.50150400,"long":134.82047700,"status":"done","name":"中筋地区コミュニティセンター記念碑前","address":"土渕281-1中筋地区コミュニティセンタ-記念碑前","city":"豊岡市","number":"115"}, 
 {"id":"6b6821f2-bc6c-4277-a1ea-5f09afcbbe6b","lat":null,"long":null,"status":"not_yet","name":"畝野宝来稲荷神社ブロック塀","address":"東睦野3丁目17番1号","city":"加西市","number":"303"}, 
 {"id":"6b692ac3-cdde-4e7c-aa5b-38f26a031663","lat":34.87181890,"long":134.47244380,"status":"not_yet","name":"masked","address":"矢野町金坂","city":"相生市","number":"106"}, 
 {"id":"6b6a2e30-a5a2-450d-99bf-8e1ccb7ec85b","lat":34.69543320,"long":135.07595740,"status":"done","name":"神戸淡路鳴門自動車道高架下付近","address":"西区伊川谷町布施畑441番地の1","city":"神戸市","number":"59"},