[{"id":"b368f7c2-45dd-4ecd-ac72-b01eb1e8081b","lat":35.68644240,"long":139.83569270,"status":"done","name":"区立大島五丁目公園南東側","address":"大島5-27","city":"江東区","number":"38-7"}, 
 {"id":"b36b308a-e807-4884-9ca6-a1acdc9e0594","lat":35.71818360,"long":139.45232010,"status":"done","name":"masked","address":"北町2-16","city":"国分寺市","number":"10-1"}, 
 {"id":"b36df836-ab47-46d8-a876-d3eb31147d05","lat":35.74927690,"long":139.33758960,"status":"done","name":"目白第二病院駐車場フェンス","address":"福生市大字福生1980番地","city":"福生市","number":"11-4"}, 
 {"id":"b36fbc4a-1cfa-4140-9b59-07390ad6cbf5","lat":35.64976900,"long":139.40405300,"status":"done","name":"たまどう 駐車場東側金網","address":"程久保8-50","city":"日野市","number":"70"}, 
 {"id":"b37cd435-3c14-49e5-8520-7365c6cf5e5e","lat":35.71216080,"long":139.65262230,"status":"done","name":"区立啓明公園東側 フェンス","address":"大和町1-21","city":"中野区","number":"34-5"}, 
 {"id":"b3800fc5-4684-4fdb-b07f-3ff7336c613b","lat":35.74550020,"long":139.79680350,"status":"done","name":"千寿小学校(南側)","address":"足立区千住宮元町6-1","city":"足立区","number":"08-04"}, 
 {"id":"b3804bb3-775f-436f-8cf9-354ed3341702","lat":35.75985010,"long":139.73183280,"status":"done","name":"北区立東十条南児童遊園","address":"北区東十条1-2-1","city":"北区","number":"24-08"}, 
 {"id":"b3806c31-ca3c-4e9f-8fb8-0fd6711c07fe","lat":35.77196460,"long":139.70180660,"status":"done","name":"masked","address":"蓮沼町79番3号","city":"板橋区","number":"31_2"}, 
 {"id":"b3815f2e-378f-48f1-a3d9-abcbf3aa04de","lat":35.62576680,"long":139.71826460,"status":"done","name":"北品川四谷線（レジディアタワー前）／歩道植込み","address":"西五反田3-7","city":"品川区","number":"11-3"}, 
 {"id":"b3931d15-1afd-4527-adff-286eeea7b4ef","lat":35.68401540,"long":139.87157020,"status":"done","name":"船堀五丁目児童遊園北側","address":"江戸川区船堀5丁目7番8号","city":"江戸川区","number":"261"}, 
 {"id":"b39d1f93-ade2-42f3-ad8c-adfa63d01725","lat":35.61802840,"long":139.39188190,"status":"done","name":"松木中学校南側フェンス","address":"別所1-34-1","city":"八王子市","number":"061-1"}, 
 {"id":"b39fa712-88b1-44fe-bd3f-70e6656a6203","lat":35.63422260,"long":139.42147410,"status":"done","name":"梶川緑地西側道路沿い","address":"鹿島111-1","city":"八王子市","number":"052-4"}, 
 {"id":"b39fd63c-adc2-4882-b731-01a69cb43709","lat":35.77896500,"long":139.69071820,"status":"done","name":"小桜保育園前","address":"志村3丁目32番1号","city":"板橋区","number":"34_5"}, 
 {"id":"b3ae8df5-ee76-486c-b077-7e64aeb9aadb","lat":35.66826680,"long":139.78453900,"status":"done","name":"佃中学校前緑地","address":"佃2丁目3番2号","city":"中央区","number":"14-4"}, 
 {"id":"b3b3f40a-96a0-4ab4-a628-8133cc6e3067","lat":35.58740140,"long":139.72489870,"status":"done","name":"山王公園 東側鉄柵","address":"山王三丁目32番６号","city":"大田区","number":"29-7"}, 
 {"id":"b3b58940-0ef0-4d45-bb29-08a0f903930b","lat":35.77944590,"long":139.29111420,"status":"done","name":"白はけ公園前","address":"河辺町6丁目7番地","city":"青梅市","number":"8-6"}, 
 {"id":"b3b6887f-4aa6-44f4-88e5-80a8fee24811","lat":35.77155570,"long":139.67757850,"status":"done","name":"中台さとやま公園（南）","address":"中台3丁目16番","city":"板橋区","number":"35_8"}, 
 {"id":"b3d39068-8309-4b18-8614-fe365400785c","lat":35.65953130,"long":139.47138970,"status":"done","name":"東京都水道局府中南町浄水所南側フェンス","address":"南町1-50","city":"府中市","number":"11-2"}, 
 {"id":"b3d3fc32-a138-43f2-bc07-b05f85b9ba7f","lat":35.74144710,"long":139.68159100,"status":"done","name":"向原小学校（西）","address":"向原2丁目34番1号","city":"板橋区","number":"15_5"}, 
 {"id":"b3dd70ce-1e87-4e25-a54b-c2549868e9e6","lat":35.57036990,"long":139.73546310,"status":"done","name":"大森第一小学校 東側植込","address":"大森東三丁目１番18号","city":"大田区","number":"21-1"}, 
 {"id":"b3dfba72-605c-4cd7-ae3b-31eda0b64149","lat":35.65285680,"long":139.61645250,"status":"done","name":"船橋小学校東側","address":"船橋4丁目41番1号","city":"世田谷区","number":"52-5"}, 
 {"id":"b3dfd93d-b213-4f7d-bdc4-67f647bd1fae","lat":35.70898820,"long":139.57033370,"status":"done","name":"成蹊通り 歩道 バス停 (成蹊通り) 南側","address":"吉祥寺本町4-31","city":"武蔵野市","number":"8~6"}, 
 {"id":"b3f2faff-c154-4307-8789-de4b000fd472","lat":35.77911350,"long":139.76321130,"status":"done","name":"上沼田公園(第3上沼田保育園側)","address":"足立区江北7-4-1","city":"足立区","number":"60-01"}, 
 {"id":"b3fe3e2f-81e1-4662-b20d-86ea387e6ff4","lat":35.69757900,"long":139.76044110,"status":"done","name":"錦華公園（北側）","address":"神田猿楽町一丁目1番2号","city":"千代田区","number":"8-2"}, 
 {"id":"b3fe8fb4-7fd3-4c03-8873-2963e51efc01","lat":35.70954900,"long":139.71022490,"status":"done","name":"財務省 西早稲田寮","address":"新宿区西早稲田2-19-14","city":"新宿区","number":"21-08"}, 
 {"id":"b40b1ff0-c706-42be-ae5a-3573deb241be","lat":35.71922470,"long":139.43522400,"status":"done","name":"けやき台団地内ドラッグストア前植え込み","address":"若葉町１－１３－２","city":"立川市","number":"14－６"}, 
 {"id":"b40d933d-ce45-42de-837f-3ff6161463a9","lat":35.71720420,"long":139.74285660,"status":"done","name":"文京清掃事務所播磨坂事業所シャッター右植込地","address":"文京区小石川 ５丁目４０番２１号","city":"文京区","number":"07-02"}, 
 {"id":"b40f5297-3b7c-4424-9abe-ad3ba1c3defc","lat":35.67018430,"long":139.72472910,"status":"done","name":"東京都南青山一丁目ひろば南側金網","address":"港区南青山1-6","city":"港区","number":"33-5"}, 
 {"id":"b41a79e7-e9a7-4eff-8100-96a5892c3ea6","lat":35.57928000,"long":139.68320060,"status":"done","name":"白山神社 正門右側石垣","address":"東嶺町31番18号","city":"大田区","number":"5-5"}, 
 {"id":"b41f530d-b0c9-4cc3-a365-33d31ff202e6","lat":35.69472830,"long":139.48498060,"status":"done","name":"元町公園植え込み","address":"東元町1-34","city":"国分寺市","number":"1-5"}, 
 {"id":"b41fb82a-4c46-4b33-bbdd-74893333454a","lat":35.73454020,"long":139.76377040,"status":"done","name":"北区立田端台公園南側","address":"北区田端1-28-23","city":"北区","number":"01-06"}, 
 {"id":"b4253d1f-2393-4945-a40c-8b1f770c14c5","lat":35.77654310,"long":139.48332360,"status":"done","name":"masked","address":"秋津町4-7-10","city":"東村山市","number":"4-4"}, 
 {"id":"b42884a0-8fb7-4c77-b4fd-33480f367a19","lat":35.59101220,"long":139.48121500,"status":"done","name":"平和台坂上バス停留所前（鶴川第二小学校）","address":"能ケ谷７－２４－１","city":"町田市","number":"30-3"}, 
 {"id":"b4291f55-31a7-4227-8896-b32a66d30538","lat":35.68669180,"long":139.43851780,"status":"done","name":"富士見公園北東側","address":"富士見台3-9-1富士見公園北東側","city":"国立市","number":"10-5"}, 
 {"id":"b42fb910-40a5-4385-95f9-a5bcd9b72057","lat":35.73113370,"long":139.51925010,"status":"done","name":"芝久保第一公園東側道路脇(備蓄庫北)","address":"芝久保町4-20","city":"西東京市","number":"11-8"}, 
 {"id":"b4337f23-3248-4924-bbaf-9a88a90ff618","lat":35.73807480,"long":139.78217220,"status":"done","name":"第二峡田小学校東側植込野立","address":"荒川区荒川２－３０－１","city":"荒川区","number":"10-04"}, 
 {"id":"b437fef9-897b-414f-9e07-9d61fbcb5a0d","lat":35.66995950,"long":139.79494060,"status":"done","name":"区立牡丹町公園北側","address":"牡丹2-1-2","city":"江東区","number":"12-6"}, 
 {"id":"b43ec65a-e339-4cf9-9efa-675fdba6e131","lat":35.71083920,"long":139.68791970,"status":"done","name":"落合郵便局北側 植込","address":"東中野4-27-21","city":"中野区","number":"17-2"}, 
 {"id":"b4438b51-a4cb-4c1e-becc-18471dae5834","lat":35.74252680,"long":139.46074000,"status":"done","name":"市立第一中学校正門横","address":"富士見町1-5-2","city":"東村山市","number":"16-1"}, 
 {"id":"b4443cf8-0cea-4e61-8aeb-8d90bd595752","lat":35.74506650,"long":139.47169770,"status":"done","name":"都営萩山町3丁目アパート10号棟南側公園内","address":"萩山町3-17","city":"東村山市","number":"14-4"}, 
 {"id":"b4491c2d-660b-48da-9b45-c2274c515b9a","lat":35.76950810,"long":139.49428150,"status":"done","name":"星ヶ丘公園","address":"青葉町3-21-30","city":"東村山市","number":"6-7"}, 
 {"id":"b44e2dda-5463-45e5-9328-769442fe43cc","lat":35.77618830,"long":139.83585260,"status":"done","name":"谷中公園(東側)","address":"足立区谷中2-23","city":"足立区","number":"33-08"}, 
 {"id":"b44eb674-3a46-4946-8ca7-76d67922137e","lat":35.70665870,"long":139.60767990,"status":"done","name":"中田橋周辺","address":"上荻3-5","city":"杉並区","number":"42-1"}, 
 {"id":"b4551c57-37da-4987-941d-3cab741ced58","lat":35.64204400,"long":139.57304900,"status":"done","name":"市民総合体育館入口左側植込","address":"和泉本町3-25-1","city":"狛江市","number":"2-2"}, 
 {"id":"b45f5678-1285-43c0-b099-079be8cefd20","lat":35.71113800,"long":139.69488730,"status":"done","name":"観音寺","address":"新宿区高田馬場3-37-26","city":"新宿区","number":"34-08"}, 
 {"id":"b464cae2-347d-491a-8bcc-45b68671c82a","lat":35.73099820,"long":139.48176780,"status":"done","name":"masked","address":"仲町62","city":"小平市","number":"18-3"}, 
 {"id":"b46fce87-200e-4652-964d-e90fa8859fec","lat":35.81190500,"long":139.19943200,"status":"done","name":"製作所前","address":"沢3丁目1728番地","city":"青梅市","number":"23-7"}, 
 {"id":"b472bac1-075a-4048-8fb1-5a2f894baf9a","lat":35.71468200,"long":139.37671780,"status":"done","name":"北文化公園東交差点","address":"宮沢町521番地7","city":"昭島市","number":"5-8"}, 
 {"id":"b474d048-76c0-4008-9fc1-fcb953cd65ee","lat":35.78652470,"long":139.26861920,"status":"done","name":"千ヶ瀬町4丁目運動広場フェンス","address":"千ヶ瀬町4丁目375番地","city":"青梅市","number":"7-5"}, 
 {"id":"b477a8f2-1553-41e9-80cb-9e2335ed14c6","lat":35.67092510,"long":139.63696030,"status":"done","name":"おおぞら公園南　入り口付近","address":"下高井戸2-28-23","city":"杉並区","number":"7-8"}, 
 {"id":"b477f1b2-f68a-4801-8a0d-343f2aee65c1","lat":35.66821910,"long":139.50700300,"status":"done","name":"上染屋八幡神社北側駐車場横塀","address":"白糸台1-43","city":"府中市","number":"33-5"}, 
 {"id":"b4797138-0f36-4fb9-8fb6-5dd021868afd","lat":35.69881540,"long":139.46487360,"status":"done","name":"いずみホール北側植え込み","address":"泉町3-36","city":"国分寺市","number":"6-5"}, 
 {"id":"b484a5d9-22a2-490d-828d-da5672fb676d","lat":35.59468430,"long":139.70473940,"status":"done","name":"地域包括支援センター馬込 正門右側鉄柵","address":"中馬込一丁目19番１号","city":"大田区","number":"33-2"}, 
 {"id":"b4856ff0-0192-4d8c-afe5-8946725e4d16","lat":35.74797770,"long":139.65174540,"status":"done","name":"masked","address":"早宮３－３４","city":"練馬区","number":"25-3"}, 
 {"id":"b48bfbd1-7077-42ba-8b68-bc939f23bcb9","lat":35.68417360,"long":139.82162400,"status":"done","name":"江東区スポーツ会館駐輪場前","address":"北砂1-2-9","city":"江東区","number":"42-4"}, 
 {"id":"b48d049b-8773-44f0-86d2-de9b6c05c2bf","lat":35.64476410,"long":139.64270890,"status":"done","name":"桜木ふれあい緑地東側","address":"桜1丁目27番28号","city":"世田谷区","number":"17-2"}, 
 {"id":"b49441cf-8a8e-4d5a-8e2b-87cbc925b704","lat":35.79094940,"long":139.22424940,"status":"done","name":"梅郷5丁目運動広場","address":"梅郷5丁目1081番地の1","city":"青梅市","number":"14-6"}, 
 {"id":"b4958588-7f72-435c-a86a-26a0b4c30ac3","lat":35.72967930,"long":139.80708320,"status":"done","name":"東京ガス（株）千住整圧所東側金網","address":"荒川区南千住３－２８","city":"荒川区","number":"03-02"}, 
 {"id":"b49ac73b-2f4c-43b3-844b-0b1f735538d8","lat":35.58267530,"long":139.69509050,"status":"done","name":"区営久が原四丁目アパート 北側フェンス","address":"久が原四丁目３番６号","city":"大田区","number":"9-3"}, 
 {"id":"b49eedf7-7763-4518-9583-84a0a589fe80","lat":35.74831410,"long":139.80790240,"status":"done","name":"千寿常東小学校(南東側)","address":"足立区千住旭町10-31","city":"足立区","number":"04-05"}, 
 {"id":"b4a2997f-cd8e-4000-8e74-c88c20ac0ba4","lat":35.61710660,"long":139.32598300,"status":"done","name":"七国公園北東","address":"七国3-125","city":"八王子市","number":"164-1"}, 
 {"id":"b4ad0090-4ef4-48b9-a64a-ab80e76f3fd4","lat":35.74482160,"long":139.78071420,"status":"done","name":"第四峡田小学校北側鉄柵","address":"荒川区町屋２－１１－６","city":"荒川区","number":"15-02"}, 
 {"id":"b4b2c999-95e7-4a4d-8142-bf65918002dd","lat":35.64328160,"long":139.36435310,"status":"done","name":"長沼山下公園南側","address":"長沼町793-2","city":"八王子市","number":"171-7"}, 
 {"id":"b4ba4292-fff7-46a8-b549-0170a5d10082","lat":35.66565580,"long":139.47520440,"status":"done","name":"第2都市遊歩道(広場内北側植込み)","address":"本町2-2他","city":"府中市","number":"12-5"}, 
 {"id":"b4bc4db3-5c4c-4318-b377-bcbcc8851917","lat":35.65202900,"long":139.37518770,"status":"done","name":"豊田電車区公園 南側植込み","address":"東平山3-26-23","city":"日野市","number":"166"}, 
 {"id":"b4bef806-0c87-478c-8e27-b68797c0c4cd","lat":35.75039500,"long":139.77111590,"status":"done","name":"東京都下水道局尾久ポンプ場東側鉄柵","address":"荒川区東尾久８－２－２","city":"荒川区","number":"19-02"}, 
 {"id":"b4c14284-28c5-4bd9-a133-9a481ebf1b0e","lat":35.70374080,"long":139.78902320,"status":"done","name":"区立精華公園北側植込","address":"蔵前４丁目１５番９号","city":"台東区","number":"17-9"}, 
 {"id":"b4c27921-1459-4ff6-9b7e-e6cc4557fd77","lat":35.61264050,"long":139.69918320,"status":"done","name":"コーポ洗足／フェンス","address":"小山6-23-11","city":"品川区","number":"26-6"}, 
 {"id":"b4c6d131-d381-42c6-8395-61d8c295df6f","lat":35.70778250,"long":139.69927430,"status":"done","name":"西戸山公園 西側(1号地)","address":"新宿区百人町4-2","city":"新宿区","number":"29-05"}, 
 {"id":"b4d370b9-d29c-4498-a6c0-7bdc0e8d7b1b","lat":35.65404150,"long":139.64353540,"status":"done","name":"北沢川緑道ユリの木公園","address":"赤堤1丁目15番","city":"世田谷区","number":"43-2"}, 
 {"id":"b4d6b370-51ee-48de-9aab-b41f27897a24","lat":35.73697330,"long":139.50934390,"status":"done","name":"小平第十一小学校・体育館東柵","address":"花小金井4-16-1","city":"小平市","number":"26-4"}, 
 {"id":"b4dba013-0f23-4ef2-afb7-aec22a72c7d5","lat":35.64131140,"long":139.60210930,"status":"done","name":"砧土木管理事務所水防施設西側","address":"祖師谷3丁目13番4号","city":"世田谷区","number":"59-2"}, 
 {"id":"b4de061b-e6fb-43f1-826a-b1abd2679b54","lat":35.67395300,"long":139.26863510,"status":"done","name":"恩方市民センター北側","address":"西寺方町260-4","city":"八王子市","number":"130-2"}, 
 {"id":"b4e12424-a5d1-4a9d-b3f0-448abe20309b","lat":35.70137480,"long":139.66454100,"status":"done","name":"区立桃園川緑道大久保通り西側 植込","address":"中野3-9","city":"中野区","number":"13-5"}, 
 {"id":"b4e2339d-14f5-43c1-87e5-f40025881bd2","lat":35.57888260,"long":139.72117750,"status":"done","name":"入新井第二小学校 南側フェンス","address":"中央二丁目15番１号","city":"大田区","number":"40-4"}, 
 {"id":"b4e7e964-1f9d-4ac4-a30d-2bc8db691e62","lat":35.58142680,"long":139.71214990,"status":"done","name":"中央五丁目公園 北側植込","address":"中央五丁目14番１号","city":"大田区","number":"39-5"}, 
 {"id":"b4e9617e-05df-4a28-9609-14f527ff47bd","lat":35.70825700,"long":139.50938860,"status":"done","name":"masked","address":"本町3-12","city":"小金井市","number":"113-3"}, 
 {"id":"b4ec21e5-b112-4e90-b9d6-916ac52df7f9","lat":35.73716990,"long":139.56603520,"status":"done","name":"天神山交差点西武バス折返所西側柵(南寄り)","address":"中町4-8","city":"西東京市","number":"18-1"}, 
 {"id":"b4ed302b-3abc-4046-9124-d848ab96c28e","lat":35.71909320,"long":139.73596920,"status":"done","name":"窪町小学校春日通り側植込地東寄り","address":"文京区大 塚 ３丁目 ２番 ３号","city":"文京区","number":"06-04"}, 
 {"id":"b4efdb12-d9c0-49c0-b9b4-09dc703dc024","lat":27.07177440,"long":142.20193790,"status":"done","name":"扇浦園地","address":"父島字扇浦","city":"小笠原村","number":"5"}, 
 {"id":"b4f18ca7-36fe-449f-99c0-2d9460402425","lat":35.73322050,"long":139.25591390,"status":"done","name":"いなげやあきる野北伊奈店西側植込","address":"伊奈492-1","city":"あきる野市","number":"14-2"}, 
 {"id":"b4f71b69-5691-40d6-a099-0e88ff7fb669","lat":35.79565370,"long":139.53210170,"status":"done","name":"下宿一丁目台田団地14号棟脇","address":"下宿一丁目1","city":"清瀬市","number":"2-2"}, 
 {"id":"b4f7454b-230b-474f-af12-d4969e6810f6","lat":35.64742760,"long":139.66573200,"status":"done","name":"太子堂八幡広場南側","address":"太子堂5丁目23番4号","city":"世田谷区","number":"4-5"}, 
 {"id":"b4fd3094-b5eb-45bc-be41-351a467d6586","lat":35.71785510,"long":139.56745210,"status":"done","name":"総合体育館 西側","address":"吉祥寺北町5-11-20","city":"武蔵野市","number":"10~7"}, 
 {"id":"b509c265-ef1c-4452-9249-f73afb2fc29c","lat":35.75448080,"long":139.85760630,"status":"done","name":null,"address":"葛飾区青戸７－３２","city":"葛飾区","number":"18-07"}, 
 {"id":"b513ce44-b7b7-47da-8ec6-51f0a3a3dc66","lat":35.64204660,"long":139.55479470,"status":"done","name":"杉森小学校西側フェンス","address":"染地2-25-4","city":"調布市","number":"18-4"}, 
 {"id":"b516c27f-3a84-474d-9f54-5d8983168840","lat":35.63717690,"long":139.64032950,"status":"done","name":"世田谷いちい保育園東側","address":"弦巻5丁目10番23号","city":"世田谷区","number":"15-6"}, 
 {"id":"b519e131-9e51-4b26-90b7-2d46d536820e","lat":35.78196320,"long":139.85888610,"status":"done","name":null,"address":"葛飾区水元１－２３先","city":"葛飾区","number":"54-05"}, 
 {"id":"b51b6ed7-87a9-40e6-8744-2740a72c0be8","lat":35.78253700,"long":139.67159760,"status":"done","name":"高島平一丁目公園（南）","address":"高島平1丁目23番1号","city":"板橋区","number":"52_3"}, 
 {"id":"b51ef744-2c84-41c0-815e-d032aa6c55a4","lat":35.66120210,"long":139.73514560,"status":"done","name":"麻布保育園裏側植込","address":"港区六本木5-16-46","city":"港区","number":"22-6"}, 
 {"id":"b523aa53-ff6d-4a1c-b843-9c5c0884a5dd","lat":35.76015580,"long":139.71618970,"status":"done","name":"加賀中学校（南）","address":"加賀2丁目19番","city":"板橋区","number":"3_6"}, 
 {"id":"b5247a68-94f2-45f6-919e-26ff2c4fbcd2","lat":35.66457700,"long":139.37713600,"status":"done","name":"タイムズ多摩平第3駐車場南側 UR柵","address":"多摩平3-1","city":"日野市","number":"108"}, 
 {"id":"b5271442-37ba-4c09-8244-2701e5015057","lat":35.76747250,"long":139.85629140,"status":"done","name":"長門小学校(東側)","address":"足立区中川1-19-32","city":"足立区","number":"42-02"}, 
 {"id":"b52c3367-a392-4b3d-b263-d62a81af7045","lat":35.54743710,"long":139.73311000,"status":"done","name":"本羽田第三公園 南側鉄柵","address":"本羽田二丁目10番15号","city":"大田区","number":"52-8"}, 
 {"id":"b52e07c3-4059-4b11-abeb-c308cf2dbc83","lat":35.77578430,"long":139.78025360,"status":"done","name":"西新井本町一丁目にこにこ児童遊園(南側)","address":"足立区西新井本町1-4-2","city":"足立区","number":"22-03"}, 
 {"id":"b5401293-c8e5-4c7a-9111-f2083d1af1a4","lat":35.72085330,"long":139.69142970,"status":"done","name":"山手通り 中落合2丁目歩道橋付近","address":"新宿区中落合2-21-11","city":"新宿区","number":"36-02"}, 
 {"id":"b541442e-88f6-41cc-a6d8-602560043134","lat":35.69714240,"long":139.63695140,"status":"done","name":"天桂寺北西側","address":"成田東4-17-14","city":"杉並区","number":"34-2"}, 
 {"id":"b542558d-d225-4575-b573-052f4a71c834","lat":35.76729460,"long":139.60238240,"status":"done","name":"大泉町もみじやま公園","address":"大泉町3－23","city":"練馬区","number":"52-2"}, 
 {"id":"b5472078-bdbc-4fa4-a4af-365c3c1825d4","lat":35.70842550,"long":139.58880470,"status":"done","name":"市立本宿公園 南側植木沿い","address":"吉祥寺東町3-5","city":"武蔵野市","number":"1~2"}, 
 {"id":"b548cae1-b68a-4aef-bcfd-e46ffe3f49e0","lat":35.75446500,"long":139.86655930,"status":"done","name":null,"address":"葛飾区高砂８－１４－１","city":"葛飾区","number":"45-01"}, 
 {"id":"b54ac401-7b0c-41cc-9779-933dea9a9118","lat":35.76826680,"long":139.81714440,"status":"done","name":"弘道第一公園(北西側)","address":"足立区弘道2-16","city":"足立区","number":"64-04"}, 
 {"id":"b55065ab-5d6b-422e-8b32-c42d4e2eaecf","lat":35.66876490,"long":139.71531270,"status":"done","name":"北青山3-3-4ビル前植込","address":"港区北青山3-3","city":"港区","number":"36-4"}, 
 {"id":"b553024f-db20-47ef-9e2a-18877ea55365","lat":35.82012170,"long":139.28034090,"status":"done","name":"民家南側","address":"小曾木4丁目2748番地の1","city":"青梅市","number":"22-6"}, 
 {"id":"b55c03e4-7646-4de7-b01f-a8765758245c","lat":35.72941670,"long":139.79524700,"status":"done","name":"天理教本嬬金分教会西側コンクリート塀","address":"荒川区南千住２－１４－９","city":"荒川区","number":"05-07"}, 
 {"id":"b55d1b88-2408-493c-a60c-e10660b2b239","lat":35.63153500,"long":139.70725300,"status":"done","name":"ベルグ目黒前","address":"下目黒3-24","city":"目黒区","number":"12-04"}, 
 {"id":"b55ecb9f-8d90-4ff3-aa87-42df4120de83","lat":35.60334790,"long":139.34831210,"status":"done","name":"久保ケ谷戸バス停留所前","address":"小山町４１３６－３","city":"町田市","number":"56-4"}, 
 {"id":"b5631e3e-1473-40e0-93cc-917d0ed6297f","lat":35.69452290,"long":139.71962130,"status":"done","name":"住吉公園 東側","address":"新宿区住吉町13","city":"新宿区","number":"19-01"}, 
 {"id":"b569c126-496d-4da4-a73f-3d6a6e60bc7a","lat":35.64910020,"long":139.60592730,"status":"done","name":"祖師谷ぞうさん広場北側","address":"祖師谷4丁目28番19号","city":"世田谷区","number":"57-8"}, 
 {"id":"b56f9136-5a35-41b0-9f45-8e6fa36f8804","lat":35.64066940,"long":139.56062070,"status":"done","name":"多摩川住宅ハ3号棟北側植込","address":"染地3-1","city":"調布市","number":"33-2"}, 
 {"id":"b572336a-7c04-47f2-9258-f3e3892970b8","lat":35.73222400,"long":139.69696000,"status":"done","name":"千早第二公園塀千早1-22前","address":"千早1-23-18","city":"豊島区","number":"34-4"}, 
 {"id":"b57a3bd3-877c-4588-a787-5bd104b72c53","lat":35.71914910,"long":139.68619210,"status":"done","name":"延寿東流庭園","address":"新宿区中落合4-6","city":"新宿区","number":"37-01"}, 
 {"id":"b57db5d2-e1b5-482f-90a3-1f9a2e5cddbc","lat":35.62020800,"long":139.68945400,"status":"done","name":"円融寺示真殿前","address":"碑文谷1-22-22","city":"目黒区","number":"27-02"}, 
 {"id":"b585f48b-eba4-4380-ad32-2caa4ba46cb7","lat":35.76455980,"long":139.79572510,"status":"done","name":"梅田中央公園(東側)","address":"足立区梅田3-25-2","city":"足立区","number":"27-06"}, 
 {"id":"b586a580-b7a6-4142-b982-84f37410dcd8","lat":35.71177580,"long":139.33454490,"status":"done","name":"都営拝島町三丁目アパート7号棟 東","address":"拝島町三丁目11番","city":"昭島市","number":"15-7"}, 
 {"id":"b586d9c2-4557-4f54-b52c-77f67efee59b","lat":35.68072410,"long":139.65907960,"status":"done","name":"方南二丁目公園","address":"方南2-6-11","city":"杉並区","number":"1-2"}, 
 {"id":"b58ce41d-26e0-4131-a5a1-28f0d252af0a","lat":35.66981740,"long":139.30104910,"status":"done","name":"西蓮寺陣馬街道側万年塀","address":"大楽寺町566","city":"八王子市","number":"114-2"}, 
 {"id":"b58e75d1-9c62-4855-96ec-263c34fd472a","lat":35.79964420,"long":139.21418910,"status":"done","name":"民家北東側ガードレール","address":"柚木町1丁目275番地の3","city":"青梅市","number":"15-4"}, 
 {"id":"b58e8992-e38a-4550-ba8a-b94fc7751d4a","lat":35.65087060,"long":139.73583310,"status":"done","name":"東町小学校北側植込","address":"港区南麻布１－８","city":"港区","number":"25-1"}, 
 {"id":"b58f4c1b-b387-4bad-a118-001ca8215f6a","lat":35.59622930,"long":139.36985640,"status":"done","name":"masked","address":"小山町２４８２","city":"町田市","number":"55-5"}, 
 {"id":"b5914d86-f6a1-4564-8628-86b5777e4704","lat":35.63212600,"long":139.69814500,"status":"done","name":"油面小学校北東側","address":"中町1-5-4","city":"目黒区","number":"14-07"}, 
 {"id":"b594b4ec-e36f-4c33-b262-843e8a6eaa63","lat":35.68401540,"long":139.81866820,"status":"done","name":"区立扇橋三丁目公園南側","address":"扇橋3-20-11","city":"江東区","number":"9-1"}, 
 {"id":"b59a0cb8-4700-44dc-ac2c-cfe4a2169a1e","lat":35.54908200,"long":139.48060110,"status":"done","name":"成瀬東公園前","address":"成瀬３－６－１","city":"町田市","number":"11-2"}, 
 {"id":"b59d028b-d22e-4e3e-920b-aeee721e02ff","lat":35.57758330,"long":139.67888900,"status":"done","name":"多摩堤保育園 南西側フェンス","address":"鵜の木三丁目11番13号","city":"大田区","number":"7-5"}, 
 {"id":"b5a57d50-027e-4c90-95f7-2aa5d31cabfd","lat":35.76791620,"long":139.48375530,"status":"done","name":"masked","address":"久米川町1-39-1","city":"東村山市","number":"3-5"}, 
 {"id":"b5aa03d4-4ffc-4c3d-be06-6d3fbf0272aa","lat":35.67257400,"long":139.81841920,"status":"done","name":"江東区文化センター南側植込み","address":"東陽4-11-3","city":"江東区","number":"16-7"}, 
 {"id":"b5b559a4-3ada-4b06-9f99-8847823aa1c2","lat":35.65156850,"long":139.57528920,"status":"done","name":"神代団地42号棟東側","address":"西つつじケ丘4-23","city":"調布市","number":"23-4"}, 
 {"id":"b5b6795d-9308-4bc7-bc00-52270191aa2f","lat":35.77668460,"long":139.49364550,"status":"done","name":"茂野豆腐店南側畑","address":"秋津町5-20-3","city":"東村山市","number":"5-2"}, 
 {"id":"b5ba01a4-8069-4c4f-8b8f-744112f55947","lat":35.76007890,"long":139.66476050,"status":"done","name":"平和台図書館","address":"平和台1－36－17","city":"練馬区","number":"19-7"}, 
 {"id":"b5c14c22-fe1c-47d9-9ed9-a2f6eaa76bd5","lat":35.70239330,"long":139.71128220,"status":"done","name":"東戸山小学校 大久保通り側","address":"新宿区戸山2-34-2","city":"新宿区","number":"22-01"}, 
 {"id":"b5c218d0-b018-491b-850c-8ce6237384d2","lat":35.69869350,"long":139.36103150,"status":"done","name":"成隣小学校","address":"大神町四丁目4番","city":"昭島市","number":"10-4"}, 
 {"id":"b5c35fef-3b95-4e25-9840-08e5e875fc25","lat":35.70537680,"long":139.68804150,"status":"done","name":"合同宿舎 北新宿住宅","address":"新宿区北新宿3-39-1","city":"新宿区","number":"44-05"}, 
 {"id":"b5c9fd79-1789-416a-80d1-6c810a6c046e","lat":35.67439500,"long":139.87926000,"status":"done","name":"一之江小学校北側","address":"江戸川区江戸川5丁目18番地","city":"江戸川区","number":"190"}, 
 {"id":"b5cc1378-fe24-4bc4-8e04-297948f67c90","lat":35.69241900,"long":139.44352680,"status":"done","name":"一橋大学グラウンド東南角","address":"中2-16一橋大学グラウンド東南角","city":"国立市","number":"2-4"}, 
 {"id":"b5cc5051-0a91-42bd-aef9-538b270f6278","lat":35.71849060,"long":139.81974240,"status":"done","name":"曳舟西ビューハイツ","address":"墨田区京島 １-３９- １","city":"墨田区","number":"28-05"}, 
 {"id":"b5cda1f8-a062-406a-8cab-42d61c8a2e63","lat":35.69673100,"long":139.87602100,"status":"done","name":"宮園バス株式会社江戸川営業所東側","address":"江戸川区西一之江4丁目13番20号","city":"江戸川区","number":"137"}, 
 {"id":"b5cf3e83-389d-406b-b02c-d2ac60dcd095","lat":35.68691850,"long":139.79557640,"status":"done","name":"区立八名川小学校北側","address":"新大橋3-1-15","city":"江東区","number":"1-3"}, 
 {"id":"b5dca895-07d8-410d-b799-024d910c5732","lat":35.64079240,"long":139.64050080,"status":"done","name":"世田谷地区会館西側","address":"世田谷2丁目25番10号","city":"世田谷区","number":"16-3"}, 
 {"id":"b5e6c0b4-73ee-4110-aefa-6136b445be18","lat":35.69921900,"long":139.69156180,"status":"done","name":"新宿池田文化会館","address":"新宿区北新宿1-32-13","city":"新宿区","number":"45-03"}, 
 {"id":"b5edd88a-6d12-4a07-adda-e293e7d3f111","lat":35.70618980,"long":139.85995270,"status":"done","name":"松江第二中学校北側","address":"江戸川区松島2丁目3番1号","city":"江戸川区","number":"62"}, 
 {"id":"b5f123bb-45d3-4c4d-b072-44f2efc154d5","lat":35.75597580,"long":139.68566110,"status":"done","name":"東山公園（西）","address":"東山町52番8号","city":"板橋区","number":"22_8"}, 
 {"id":"b5f40057-98ff-4f32-9c4c-12c08df11360","lat":35.67475020,"long":139.55163010,"status":"done","name":"深大寺地域福祉センターフェンス","address":"深大寺北町2-40-1","city":"調布市","number":"13-2"}, 
 {"id":"b5f40e23-4402-454f-adf9-cefae5a7bbef","lat":35.75646470,"long":139.47879570,"status":"done","name":"市立大岱小学校北側","address":"恩多町4-17-1","city":"東村山市","number":"9-3"}, 
 {"id":"b5f8a5b0-573c-40fc-9f75-3917d75be649","lat":35.70807930,"long":139.64719280,"status":"done","name":"馬橋北第二公園","address":"高円寺北3-26-9","city":"杉並区","number":"24-8"}, 
 {"id":"b605b84c-183d-4f5d-a078-67b5be48ba60","lat":35.70293720,"long":139.48776280,"status":"done","name":"masked","address":"貫井北町5-14","city":"小金井市","number":"82-4"}, 
 {"id":"b6078833-b245-4c25-b7da-24b91309be43","lat":35.73385220,"long":139.51606880,"status":"done","name":"花2公園 西柵","address":"花小金井2-16","city":"小平市","number":"25-3"}, 
 {"id":"b607f983-b7a4-43c7-9942-c4d43be903f0","lat":35.77923750,"long":139.34934830,"status":"done","name":"吉岡園芸 フェンス","address":"大字箱根ヶ崎752番地1","city":"瑞穂町","number":"7-4"}, 
 {"id":"b620c5bd-a796-4361-bdbc-f1e5ebb13c65","lat":35.77143680,"long":139.68938260,"status":"done","name":"都営前野町四丁目第５アパート","address":"前野町4丁目15番","city":"板橋区","number":"58_2"}, 
 {"id":"b623dd2f-1a29-4ce2-bc87-eaa6bd9c7c5c","lat":35.76551140,"long":139.53651170,"status":"done","name":"黒目川大橋わき(都市計画道路計画地上)","address":"大門町二丁目７番","city":"東久留米市","number":"１９・１"}, 
 {"id":"b627d020-9d63-40d9-b20b-05a9243a00f6","lat":35.68895210,"long":139.87736740,"status":"done","name":"一之江境川親水公園植込み","address":"江戸川区一之江6丁目18番1号先","city":"江戸川区","number":"145"}, 
 {"id":"b62e54fd-f6d2-47c6-adee-719a098f5bf5","lat":35.72571940,"long":139.26228580,"status":"done","name":"観光トイレ敷地内","address":"山田822","city":"あきる野市","number":"12-3"}, 
 {"id":"b632e02f-5170-4f5a-a390-348e603f4f00","lat":35.65859090,"long":139.65847170,"status":"done","name":"代田小学校西側","address":"代田4丁目2番3号","city":"世田谷区","number":"31-4"}, 
 {"id":"b6339f00-ad4e-41db-8ee2-423fa4e27f98","lat":35.67119050,"long":139.51718220,"status":"done","name":"北の原公園朝日町地域公園南側金網","address":"朝日町1-29","city":"府中市","number":"35-3"}, 
 {"id":"b635c154-c2cf-4269-9176-6374395339bd","lat":35.78019580,"long":139.79205940,"status":"done","name":"島根小学校(西側)","address":"足立区島根3-28-11","city":"足立区","number":"51-01"}, 
 {"id":"b63e161c-74eb-4efc-b25d-b480da168793","lat":35.75403470,"long":139.40148820,"status":"done","name":"第五老人福祉館南","address":"神明2-7","city":"武蔵村山市","number":"1-6"}, 
 {"id":"b6402731-2648-4e15-90d5-f2b9e4d77e9b","lat":35.68078830,"long":139.62257720,"status":"done","name":"三井の森公園","address":"高井戸東1-28-2","city":"杉並区","number":"60-6"}, 
 {"id":"b640a624-23fe-4f50-9d12-286ee5c548ab","lat":35.56120660,"long":139.72940830,"status":"done","name":"東蒲中学校 北東側塀","address":"東蒲田二丁目38番１号","city":"大田区","number":"41-4"}, 
 {"id":"b644bd98-b3c7-48bd-a94d-b8bbbc3dbbfe","lat":35.59793220,"long":139.38272930,"status":"done","name":"ふれあい町田ホスピタル前","address":"小山ヶ丘１－３－８","city":"町田市","number":"54-1"}, 
 {"id":"b650a7e7-37fa-43cb-b0bd-711ae20510d8","lat":35.71401560,"long":139.72656480,"status":"done","name":"目白通り沿い植込地","address":"文京区関 口 ３丁目１６番","city":"文京区","number":"04-08"}, 
 {"id":"b658e638-2a73-4980-af79-0b092fe83ef8","lat":35.66564530,"long":139.36658410,"status":"done","name":"高倉南公園西側","address":"高倉町69","city":"八王子市","number":"183-5"}, 
 {"id":"b6666e99-c594-446c-8f1b-d7d25deb3ec4","lat":35.67059940,"long":139.63588440,"status":"done","name":"下高井戸公園","address":"下高井戸2-27-5","city":"杉並区","number":"7-1"}, 
 {"id":"b666d173-34e4-413f-af4b-f16c78dd0e97","lat":35.71199240,"long":139.70118900,"status":"done","name":"コーシャハイム高田馬場 北側","address":"新宿区高田馬場4-15","city":"新宿区","number":"33-01"}, 
 {"id":"b6718a59-b591-405c-a186-61f4711dc959","lat":35.66672900,"long":139.81406780,"status":"done","name":"区立東陽中学校西側","address":"東陽2-1-8","city":"江東区","number":"17-5"}, 
 {"id":"b672636a-ba56-4f22-a600-ae0b5b6fb76f","lat":35.77756640,"long":139.73598380,"status":"done","name":"北区立志茂子ども交流館南側","address":"北区志茂5-18-3","city":"北区","number":"30-05"}, 
 {"id":"b6729e9d-756d-454a-b9f1-12d0f249fc82","lat":35.76744730,"long":139.83854140,"status":"done","name":"北三谷小学校(北東側)","address":"足立区東和1-17-12","city":"足立区","number":"40-01"}, 
 {"id":"b673b8c4-480c-486b-bf84-2c24cdad1b7d","lat":35.64124000,"long":139.68764500,"status":"done","name":"区営上目黒四丁目住宅１号棟前","address":"上目黒4-38-1","city":"目黒区","number":"17-09"}, 
 {"id":"b6790189-543d-4d1a-9c99-fa73b07130be","lat":35.74817930,"long":139.73542500,"status":"done","name":"桜丘中・高等学校西側","address":"北区滝野川1-51-12","city":"北区","number":"12-08"}, 
 {"id":"b6826206-7285-47dc-8000-dcda143a5b36","lat":35.66505370,"long":139.71187420,"status":"done","name":"ヒューリック青山ビル前植込","address":"港区北青山3-6-12","city":"港区","number":"36-7"}, 
 {"id":"b68aa1c3-106c-4333-a0cb-6cc2588cad3b","lat":35.72120270,"long":139.66488540,"status":"done","name":"私立沼袋幼稚園東側 ブロック塀","address":"沼袋2-28-2","city":"中野区","number":"27-4"}, 
 {"id":"b6941cac-2143-42a3-9409-102f9f9883c3","lat":35.64566300,"long":139.68635200,"status":"done","name":"防衛省東山宿舎Ｂ棟南側","address":"東山2-23","city":"目黒区","number":"04-09"}, 
 {"id":"b6957176-dca7-4c6b-ba28-298907e80393","lat":35.64691800,"long":139.58227600,"status":"done","name":"東 野 川 市 民 テニスコート駐 車 場 右 側 フェンス際","address":"東野川3-14","city":"狛江市","number":"5-7"}, 
 {"id":"b698bed7-3904-48c8-98fc-66203ccc32a1","lat":35.58636140,"long":139.49245300,"status":"done","name":"イト－ピア３号緑地前","address":"能ケ谷５－４","city":"町田市","number":"30-8"}, 
 {"id":"b6994e66-2088-4f57-8aba-e4fa93628027","lat":35.74692740,"long":139.82279450,"status":"done","name":null,"address":"葛飾区堀切４－２６－１","city":"葛飾区","number":"25-04"}, 
 {"id":"b6a8dbad-4dac-4a3a-a45d-763de4d69b2b","lat":35.63808350,"long":139.57813540,"status":"done","name":"東京電力パワーグリッド狛江変電所向い側畑脇","address":"和泉本町1-15","city":"狛江市","number":"11-6"}, 
 {"id":"b6ac2e10-7924-41f3-92a4-4fcf11705c49","lat":35.77586650,"long":139.76018040,"status":"done","name":"江北地域学習センター(北側)","address":"足立区江北3-39-4","city":"足立区","number":"15-04"}, 
 {"id":"b6accef6-6fda-4279-82ae-e1962b1cfabf","lat":35.61450000,"long":139.74039200,"status":"done","name":"目黒川沿い遊歩道（大龍寺前）／鉄柵","address":"南品川 4-2","city":"品川区","number":"2-7"}, 
 {"id":"b6b202a4-d470-4efe-99ad-193dd18fb340","lat":35.54653920,"long":139.70535360,"status":"done","name":"西六郷三丁目公園 南側鉄柵","address":"西六郷三丁目16番16号","city":"大田区","number":"58-2"}, 
 {"id":"b6b43d99-7991-46f7-b027-ca90ca144eab","lat":35.75754750,"long":139.52195430,"status":"done","name":"東京消防庁東久留米消防署","address":"幸町三丁目４番","city":"東久留米市","number":"１０・２"}, 
 {"id":"b6b879c1-67b0-4db2-a43b-feea9afcc77e","lat":35.66475340,"long":139.81206860,"status":"done","name":"区立深川第八中学校南側(東寄)","address":"塩浜2-21-14","city":"江東区","number":"19-2"}, 
 {"id":"b6c8a32a-2102-4e8c-9e5d-96a5e8dd37f4","lat":35.65513050,"long":139.54361450,"status":"done","name":"第一小学校南側フェンス","address":"小島町1-8-1","city":"調布市","number":"01-2"}, 
 {"id":"b6cba101-95d6-413d-8dd1-1a7618ae6fa4","lat":35.75597520,"long":139.73906720,"status":"done","name":"北区立柳田公園南側","address":"北区王子1-20-1","city":"北区","number":"18-01"}, 
 {"id":"b6cd2a52-23bf-4ccd-a83d-7dc2199e3f2f","lat":35.75656010,"long":139.85971800,"status":"done","name":null,"address":"葛飾区新宿１－１－２４","city":"葛飾区","number":"44-08"}, 
 {"id":"b6ce70fa-5e71-4708-b443-22c650ec3990","lat":35.75350220,"long":139.55616590,"status":"done","name":"北町ふれあい広場西側柵","address":"北町1-2","city":"西東京市","number":"29-7"}, 
 {"id":"b6d77fb9-efc2-4db7-adfc-e08841b9c49c","lat":35.71126920,"long":139.43661360,"status":"done","name":"中藤洋蘭園フェンス","address":"西町3-10-2","city":"国分寺市","number":"12-7"}, 
 {"id":"b6dc4063-ac69-4753-b177-eefd8d9d0153","lat":35.60276820,"long":139.67956340,"status":"done","name":"奥沢中学校東側","address":"奥沢1丁目42番1号","city":"世田谷区","number":"113-5"}, 
 {"id":"b6de5826-c216-4e33-a3f8-ae47fc9656cc","lat":35.66821910,"long":139.50700300,"status":"done","name":"市立白糸台体育館自転車置場","address":"白糸台1-50","city":"府中市","number":"3-3-3"}, 
 {"id":"b6e7a866-89fa-4a43-95e5-c4f4c3862605","lat":35.73738420,"long":139.78618820,"status":"done","name":"荒川さつき保育園南側鉄柵","address":"荒川区荒川８－２５－４","city":"荒川区","number":"09-04"}, 
 {"id":"b6e7b24f-7e51-47b9-936a-0ffb762260e6","lat":35.66172430,"long":139.78312090,"status":"done","name":"月島第一児童公園南東側","address":"月島4丁目2番1号","city":"中央区","number":"16-2"}, 
 {"id":"b6f3288d-fb97-4b96-81e2-190218dc30b7","lat":35.72428500,"long":139.68579100,"status":"done","name":"NTT落合(別館)ビル鉄柵南長崎3-9前","address":"南長崎4-10-1","city":"豊島区","number":"30-1"}, 
 {"id":"b6f47b33-eb04-4692-aac0-bb10b2432253","lat":35.70923750,"long":139.46838130,"status":"done","name":"masked","address":"東恋ヶ窪4-21","city":"国分寺市","number":"18-2"}, 
 {"id":"b6f5e36c-3667-4eb3-8f68-94ec9e475bc9","lat":35.58329910,"long":139.69863600,"status":"done","name":"呑川 護岸壁（仲池児童公園前）","address":"仲池上二丁目27番13号","city":"大田区","number":"11-7"}, 
 {"id":"b6fa127a-ee99-487d-8357-d31998ba71d9","lat":35.70827870,"long":139.68268270,"status":"done","name":"区立みどり公園内東側 植込","address":"東中野3-11","city":"中野区","number":"22-5"}, 
 {"id":"b6ff59ad-e19c-49f8-9305-939ac2eb74f3","lat":35.65424950,"long":139.38499080,"status":"done","name":"1号公園北側","address":"豊田2先","city":"日野市","number":"228"}, 
 {"id":"b70899cb-3a0a-4fca-a497-83fde201520c","lat":35.63775510,"long":139.51659580,"status":"done","name":"矢野口自治会館前","address":"矢野口 1603","city":"稲城市","number":"1-3"}, 
 {"id":"b70cd110-ceb1-450b-bfc7-a3486f9c8de9","lat":35.70844680,"long":139.73662240,"status":"done","name":"さくら児童遊園","address":"新宿区水道町4","city":"新宿区","number":"08-04"}, 
 {"id":"b714a2a7-b37a-453b-ba45-e85af4b9e20b","lat":34.20552360,"long":139.13449940,"status":"done","name":"漁協市場前","address":"40番地","city":"神津島村","number":"1"}, 
 {"id":"b71e3254-746c-446e-808b-9ff076ca8578","lat":35.71817640,"long":139.87611770,"status":"done","name":"東京都立鹿本学園南側塀","address":"江戸川区本一色2丁目24番11号","city":"江戸川区","number":"80"}, 
 {"id":"b72b9241-c082-4aa1-be4c-15e464ca59b2","lat":35.68158000,"long":139.39212000,"status":"done","name":"駐車場入口横柵","address":"栄町1-3-6","city":"日野市","number":"32"}, 
 {"id":"b7302dca-934f-4a94-9972-3eef7a8ef94d","lat":35.77433110,"long":139.64342080,"status":"done","name":"下赤塚小学校（東）","address":"赤塚6丁目14番1号","city":"板橋区","number":"46_6"}, 
 {"id":"b733b429-d11c-400a-b92d-0885901d5c01","lat":35.64060440,"long":139.66328520,"status":"done","name":"三軒茶屋小学校東側","address":"三軒茶屋2丁目42番1号","city":"世田谷区","number":"7-8"}, 
 {"id":"b737addd-44be-4578-8577-258fb7ca11b2","lat":35.71444930,"long":139.86230440,"status":"done","name":null,"address":"葛飾区新小岩２－１１－１","city":"葛飾区","number":"13-06"}, 
 {"id":"b7383b97-2b01-486b-8d36-4805617921ec","lat":35.68031180,"long":139.57733930,"status":"done","name":"三鷹新川給水所","address":"新川二丁目1番","city":"三鷹市","number":"6-1"}, 
 {"id":"b746154f-8a75-467e-915a-01bef65b1340","lat":35.64438200,"long":139.70286700,"status":"done","name":"目黒学院高校前","address":"中目黒1-1-50","city":"目黒区","number":"07-01"}, 
 {"id":"b7471987-066d-47c1-b364-47acf894053b","lat":35.61150120,"long":139.31106970,"status":"done","name":"相原小学校正門横","address":"相原町１６７３","city":"町田市","number":"58-5"}, 
 {"id":"b75610f3-eceb-4b61-a8e4-df01f7c803d1","lat":35.71858630,"long":139.80239880,"status":"done","name":"区立山谷堀公園吉野橋際","address":"浅草７丁目９番１０号","city":"台東区","number":"22-3"}, 
 {"id":"b75740e3-8b21-40d8-8f4b-e872fd537c4b","lat":35.70248840,"long":139.82097150,"status":"done","name":"亀戸天神社東側駐車場","address":"亀戸3-6","city":"江東区","number":"27-6"}, 
 {"id":"b75ba6a6-5e25-41a1-9747-9d44cdbf8dda","lat":35.73792890,"long":139.50493560,"status":"done","name":"弥生第一緑地わき","address":"弥生一丁目５番","city":"東久留米市","number":"５・１"}, 
 {"id":"b75be4c3-75f2-4d38-981b-518eecdeb77c","lat":35.63092390,"long":139.45518020,"status":"done","name":"馬引沢第3公園西側","address":"馬引沢2丁目16番地1","city":"多摩市","number":"18-07"}, 
 {"id":"b75ece34-191b-4123-a321-c39efce46863","lat":35.76126850,"long":139.56476170,"status":"done","name":"むさしの広場公園","address":"西大泉6－19－39","city":"練馬区","number":"57-8"}, 
 {"id":"b765f2a7-1275-4abe-976c-6534991ec200","lat":35.77178300,"long":139.66596840,"status":"done","name":"徳丸小学校（南）","address":"徳丸1丁目21番1号","city":"板橋区","number":"42_4"}, 
 {"id":"b76daf0c-e13e-4e35-bec9-420622e2ab52","lat":35.68997140,"long":139.80246280,"status":"done","name":"中和小学校","address":"墨田区菊川 １-１８-１０","city":"墨田区","number":"04-07"}, 
 {"id":"b778336c-a379-482a-8d56-00e6b5ec47ed","lat":35.71472170,"long":139.64454800,"status":"done","name":"区立美鳩小学校西側 植込","address":"大和町4-26-5","city":"中野区","number":"35-1"}, 
 {"id":"b78224ea-9fff-4357-bf86-866e4c20c0a8","lat":35.70810070,"long":139.69026000,"status":"done","name":"神田上水公園　亀齢橋横","address":"新宿区北新宿4-37","city":"新宿区","number":"43-02"}, 
 {"id":"b7864394-991d-449c-b680-1f4010b2391b","lat":35.76232530,"long":139.72767230,"status":"done","name":"マンションサンハイム前線路沿柵","address":"北区岸町2-11","city":"北区","number":"20-01"}, 
 {"id":"b78d01d4-fa02-474f-856a-723d89655d7a","lat":35.68354940,"long":139.88868100,"status":"done","name":"鎌田西通り沿い植込み","address":"江戸川区江戸川3丁目50番40号脇","city":"江戸川区","number":"397"}, 
 {"id":"b78fc0a8-a70f-4578-a976-291031c022f8","lat":35.73340510,"long":139.87632720,"status":"done","name":"鹿本通り沿い植込み","address":"江戸川区西小岩2丁目16番先","city":"江戸川区","number":"221"}, 
 {"id":"b79af7fc-4e49-4e20-8592-9be844f9138a","lat":35.67992060,"long":139.60122820,"status":"done","name":"公社烏山北住宅２号棟西側","address":"北烏山2丁目3番","city":"世田谷区","number":"66-2"}, 
 {"id":"b79ba9ad-c069-4ef4-ad69-e14a22ce6d62","lat":35.72112560,"long":139.51110460,"status":"done","name":"花小金井南中学校・北植込","address":"花小金井南町1-9-1","city":"小平市","number":"23-3"}, 
 {"id":"b79bbacf-45fb-4451-933d-5d5f50302c1e","lat":35.70143970,"long":139.63401660,"status":"done","name":"阿佐谷ことり公園","address":"阿佐谷南3-4-16","city":"杉並区","number":"26-8"}, 
 {"id":"b79d8cfd-8230-4d96-ae15-91cde8fa8e70","lat":35.70426670,"long":139.49952880,"status":"done","name":"植木畑南側フェンス","address":"貫井北町2-2","city":"小金井市","number":"146-3"}, 
 {"id":"b7ac906c-c04f-4904-a69c-a50e463d4481","lat":35.76273220,"long":139.72562990,"status":"done","name":"北区立中十条公園","address":"北区中十条2-12-12","city":"北区","number":"23-03"}, 
 {"id":"b7bad0d6-d43f-45ad-99fe-080b543a54d8","lat":35.70434580,"long":139.52306790,"status":"done","name":"第三小学校南門左脇フェンス","address":"梶野町5-7","city":"小金井市","number":"92-8"}, 
 {"id":"b7c13982-fc94-47ac-b2b7-d5b97771e824","lat":35.72819400,"long":139.54311540,"status":"done","name":"プリンスハイツ田無東側植込み東側歩道脇","address":"田無町2-14","city":"西東京市","number":"14-5"}, 
 {"id":"b7c3d608-21a0-47e5-a615-f01be50d6a05","lat":35.80386990,"long":139.80798230,"status":"done","name":"花畑西小学校(東側)","address":"足立区花畑4-21-1","city":"足立区","number":"48-01"}, 
 {"id":"b7c47c85-8fb5-47fb-9a13-057ba2dbc18c","lat":35.76822220,"long":139.83225440,"status":"done","name":"東綾瀬公園(URパークタウン東綾瀬6号棟西側)","address":"足立区東綾瀬2-10","city":"足立区","number":"40-08"}, 
 {"id":"b7c5a5d2-b88f-417f-a822-4a913cca812b","lat":35.73717820,"long":139.41338600,"status":"done","name":"桜が丘こども広場北側フェンス","address":"桜が丘4-323","city":"東大和市","number":"10-3"}, 
 {"id":"b7cb4dc3-236c-4a89-864b-b5e79e6add29","lat":35.64886750,"long":139.49029520,"status":"done","name":"JR南武線南多摩駅北側","address":"大丸 1018-1","city":"稲城市","number":"8-7"}, 
 {"id":"b7cb7081-14fa-4fd4-b0d3-b266fbe9a4d4","lat":35.65798480,"long":139.50054690,"status":"done","name":"市立小柳小学校南東側金網","address":"小柳町4-4-5","city":"府中市","number":"43-2"}, 
 {"id":"b7cdb1a2-a9ba-459d-8181-b389d1970c6b","lat":35.72306450,"long":139.68355920,"status":"done","name":"大江戸線 落合南長崎駅","address":"新宿区西落合3-1-18","city":"新宿区","number":"40-01"}, 
 {"id":"b7cde5b2-5701-4071-b4af-0ea744c49af9","lat":35.68226380,"long":139.63378970,"status":"done","name":"都営浜田山四丁目第２アパート","address":"浜田山4-3-9","city":"杉並区","number":"10-6"}, 
 {"id":"b7d231bf-c1c9-415f-aca2-1e76b5f8ed73","lat":35.55710050,"long":139.44119910,"status":"done","name":"協和キリン東京リサーチパーク横フェンス","address":"旭町３－６","city":"町田市","number":"62-6"}, 
 {"id":"b7dd13e2-8177-4c04-bcc6-71e5a96ac758","lat":35.73183970,"long":139.75650310,"status":"done","name":"動坂公園西側植込地","address":"文京区本駒込 ４丁目１８番","city":"文京区","number":"22-05"}, 
 {"id":"b7df4e56-ac43-44e9-b1ad-e676d3081b0a","lat":35.68507900,"long":139.42759500,"status":"done","name":"市立第六小学校北側西寄り","address":"谷保6600市立第六小学校北側西寄り","city":"国立市","number":"11-8"}, 
 {"id":"b7e1aa34-bc43-4934-98f6-c67050fd85de","lat":35.68378590,"long":139.84398430,"status":"done","name":"区立東砂小学校東側","address":"東砂2-12-14","city":"江東区","number":"47-7"}, 
 {"id":"b7e32330-fce1-4bf7-adb9-6433c8409f61","lat":35.70359530,"long":139.57630430,"status":"done","name":"吉祥寺二葉栄養調理専門職学校 西側植込み","address":"吉祥寺本町2-11-2","city":"武蔵野市","number":"7~3"}, 
 {"id":"b7e63c88-be58-4372-a9c4-884191b1df57","lat":35.69669130,"long":139.79775280,"status":"done","name":"東京電力パワーグリッド㈱本所変電所","address":"墨田区亀沢 １- ７- ７","city":"墨田区","number":"01-07"}, 
 {"id":"b7f8affc-230d-4e63-90f6-39c17240fdc4","lat":35.69871080,"long":139.37777020,"status":"done","name":"はじめ児童遊園","address":"福島町二丁目31番","city":"昭島市","number":"4-9"}, 
 {"id":"b7fd60d6-8a9a-48ff-9bab-8de81e795fa5","lat":35.62512900,"long":139.69216600,"status":"done","name":"目黒清掃事務所前","address":"目黒本町2-13-19","city":"目黒区","number":"22-09"}, 
 {"id":"b7fea416-5472-47c0-89e1-58c0d483048a","lat":35.65442940,"long":139.70175080,"status":"done","name":"ツクイ渋谷桜丘","address":"桜丘町11番8号","city":"渋谷区","number":"9-3"}, 
 {"id":"b802a6a2-6de8-42f9-86d4-5547834aaa1e","lat":35.70409400,"long":139.63684100,"status":"done","name":"中杉通り植栽（三井住友銀行前）","address":"阿佐谷南1-48","city":"杉並区","number":"25-5"}, 
 {"id":"b804789d-cd7c-4787-92d2-c39a78b5b231","lat":35.67247950,"long":139.49152320,"status":"done","name":"万蔵庵公園北側フェンス","address":"緑町3-27","city":"府中市","number":"2-4-2"}, 
 {"id":"b804abe5-8275-4ee2-a92a-16347acec4f3","lat":35.71478390,"long":139.67997100,"status":"done","name":"落合公園 南側","address":"新宿区中井1-14","city":"新宿区","number":"42-03"}, 
 {"id":"b80766b4-151b-4a30-99ea-5e1b33b25327","lat":35.69546570,"long":139.43892920,"status":"done","name":"中里歯科西側駐車場フェンス","address":"中2-3-22中里歯科西側駐車場フェンス","city":"国立市","number":"2-7"}, 
 {"id":"b8155dc6-b7f1-46f8-977d-037ec4545ff5","lat":35.77760380,"long":139.75321410,"status":"done","name":"古内公園(北側)","address":"足立区鹿浜1-15-1","city":"足立区","number":"61-02"}, 
 {"id":"b827d808-4e2f-407e-b073-401ce5cdab82","lat":35.78109740,"long":139.80858430,"status":"done","name":"東島根中学校(東側)","address":"足立区平野1-27-2","city":"足立区","number":"68-03"}, 
 {"id":"b82bd62c-3eaf-46f5-958c-1d88f07c20a6","lat":35.75323270,"long":139.56230560,"status":"done","name":"下保谷ポンプ場北側柵(西寄り)","address":"下保谷2-6-15","city":"西東京市","number":"28-6"}, 
 {"id":"b833230f-097e-4c00-b910-452e31eb9180","lat":35.65814380,"long":139.50191410,"status":"done","name":"小柳散歩道(西武スマイルパーク競艇場前駅北口第一駐車場そば)","address":"小柳町4-8","city":"府中市","number":"43-7"}, 
 {"id":"b8379a37-d2f2-4119-8468-8246cee5f88e","lat":35.68647960,"long":139.69363200,"status":"done","name":"甲州街道 佐鳴ビルデング前","address":"新宿区西新宿3-2-8","city":"新宿区","number":"48-02"}, 
 {"id":"b83ad9d6-bade-41f7-9f18-a812fe0495d0","lat":35.69204400,"long":139.90475180,"status":"done","name":"南篠崎さくら公園北東側","address":"江戸川区南篠崎町2丁目47番2号","city":"江戸川区","number":"370"}, 
 {"id":"b83c42b6-bf1d-4327-aa09-af877011d7d1","lat":35.68168300,"long":139.43136600,"status":"done","name":"石田街道堀江駐車場東側フェンス","address":"矢川3-22-1石田街道堀江駐車場東側フェンス","city":"国立市","number":"3-4"}, 
 {"id":"b85721a3-c3ad-43ab-b7b4-67ae758cb4ac","lat":35.59315890,"long":139.68057800,"status":"done","name":"調布地域庁舎 南側フェンス","address":"雪谷大塚町４番６号","city":"大田区","number":"3-3"}, 
 {"id":"b85c2968-dbc0-4311-801b-a8370a877a10","lat":35.79366710,"long":139.81594530,"status":"done","name":"総合スポーツセンター公園テニスコート(北側)","address":"足立区東保木間2-32","city":"足立区","number":"11-06"}, 
 {"id":"b860c8c5-67ad-4079-a4b4-a2a10b220b81","lat":35.76525770,"long":139.75034430,"status":"done","name":"豊島北コミュニティアリーナ南側","address":"北区豊島5-3-35","city":"北区","number":"16-04"}, 
 {"id":"b860e398-5d8c-419f-b2a1-855cb3b50954","lat":35.78603610,"long":139.79943100,"status":"done","name":"六月一丁目公園(北側)","address":"足立区六月1-10-21","city":"足立区","number":"52-07"}, 
 {"id":"b86be599-8435-48df-820f-8062d1408770","lat":35.76711630,"long":139.64808860,"status":"done","name":"北八風の子公園","address":"北町8-31-20","city":"練馬区","number":"30-1"}, 
 {"id":"b8740974-5de1-40c5-9d1e-aa373d34c830","lat":35.76989070,"long":139.81383710,"status":"done","name":"第十一中学校(北側)","address":"足立区弘道1-38-15","city":"足立区","number":"36-01"}, 
 {"id":"b87730de-83b3-46c1-9c91-5020d26de520","lat":35.72775980,"long":139.47659610,"status":"done","name":"中央公民館・南側","address":"小川町2-1325","city":"小平市","number":"10-1"}, 
 {"id":"b8799580-79ad-475e-a0ea-fc40d6f0ae10","lat":35.58880830,"long":139.46733690,"status":"done","name":"鶴川市民センター前","address":"大蔵町１９８１－４","city":"町田市","number":"36-3"}, 
 {"id":"b8816df0-4ceb-4f92-92ec-c303504edf86","lat":35.66505290,"long":139.70199950,"status":"done","name":"神宮通公園(北側)","address":"神宮前6丁目22番8号","city":"渋谷区","number":"12-3"}, 
 {"id":"b887b079-c48c-40d0-bc0d-fd2f13ed4d2d","lat":35.61909950,"long":139.43153940,"status":"done","name":"落合第1公園東側","address":"落合3丁目27番地","city":"多摩市","number":"15-03"}, 
 {"id":"b8963796-0fb7-49f0-a9a5-2b7c2028a027","lat":35.78766060,"long":139.36506440,"status":"done","name":"masked","address":"大字駒形富士山64番地4","city":"瑞穂町","number":"9-4"}, 
 {"id":"b89be284-5e8f-48ea-9e32-a7bcada80f43","lat":35.65925560,"long":139.63707980,"status":"done","name":"西福寺南側","address":"赤堤3丁目28番","city":"世田谷区","number":"43-4"}, 
 {"id":"b8a07959-0ec4-4e9d-9907-26a578922be4","lat":35.63000560,"long":139.67172720,"status":"done","name":"野沢四丁目東整圧器室北側","address":"野沢4丁目1番18号","city":"世田谷区","number":"86-6"}, 
 {"id":"b8a66cd7-e13f-4c82-afa1-51da1c742a4f","lat":35.73549320,"long":139.84274710,"status":"done","name":"渋江公園北東入口","address":"葛飾区東立石3-3-1","city":"葛飾区","number":"04-06"}, 
 {"id":"b8ace601-c5cb-45c2-81c3-2f6ce89df2a6","lat":35.63408910,"long":139.30801540,"status":"done","name":"椚田中学校校庭側門フェンス","address":"椚田町172","city":"八王子市","number":"100-3"}, 
 {"id":"b8b3e06b-652c-4f9f-ac12-3a2ea823b478","lat":35.74045900,"long":139.71044900,"status":"done","name":"学校法人豊昭学園東側金網池袋本町2-12-4駐車場前","address":"池袋本町2-10-1","city":"豊島区","number":"40-8"}, 
 {"id":"b8b4bcd2-ad52-4d7b-af9e-5b5a8d9e623a","lat":35.72176760,"long":139.50779000,"status":"done","name":"鈴木公民館・東側","address":"鈴木町2-772-10","city":"小平市","number":"22-4"}, 
 {"id":"b8b6fb40-7078-4fc5-b574-c1c63009931d","lat":35.69892810,"long":139.74788580,"status":"done","name":"富士見児童公園","address":"富士見一丁目1番16号","city":"千代田区","number":"5-3"}, 
 {"id":"b8be24e6-3299-4174-a3dd-e320fb531a86","lat":35.64637000,"long":139.69005100,"status":"done","name":"東山中学校北西側","address":"東山1-24-31","city":"目黒区","number":"05-01"}, 
 {"id":"b8d3fb77-d058-4507-9d47-a6d7063f08ee","lat":35.72759600,"long":139.69702100,"status":"done","name":"西池袋第二公園山手通り側鉄柵山手通り沿い","address":"西池袋4-40-18","city":"豊島区","number":"25-7"}, 
 {"id":"b8e118c0-fef7-4950-a88c-b3f9a3e5eff0","lat":35.73049860,"long":139.86510160,"status":"done","name":null,"address":"葛飾区奥戸５−２３−７","city":"葛飾区","number":"16-03"}, 
 {"id":"b8e1e95c-20d4-4a99-a972-bd156712f5dc","lat":35.59072480,"long":139.67566460,"status":"done","name":"田園調布一丁目東公園 入口横フェンス","address":"田園調布一丁目22番３号","city":"大田区","number":"4-7"}, 
 {"id":"b8e45aac-7a1e-4721-a168-a81ef8f78734","lat":35.71021410,"long":139.33597210,"status":"done","name":"都営拝島町三丁目アパート2号棟北","address":"拝島町三丁目9番","city":"昭島市","number":"15-6"}, 
 {"id":"b8f28e37-1fcb-4fb8-a137-faaa7d65957b","lat":35.59398550,"long":139.72895430,"status":"done","name":"鹿島康塚児童遊園／鉄柵","address":"大井 7-29-11","city":"品川区","number":"20-4"}, 
 {"id":"b8ff041d-7026-45b1-902a-e96748c90476","lat":35.73604090,"long":139.80569000,"status":"done","name":"汐入とちのき保育園東側ブロック塀","address":"荒川区南千住８－３－３","city":"荒川区","number":"02-03"}, 
 {"id":"b8ff0e7a-684c-458f-b21b-a59db87bb5cc","lat":35.77924670,"long":139.48477180,"status":"done","name":"秋津第2児童遊園(秋水園南)","address":"秋津町4-25-1","city":"東村山市","number":"4-6"}, 
 {"id":"b9066b81-a019-4fcf-b63d-29de9d43d594","lat":35.68043370,"long":139.59326410,"status":"done","name":"日本女子体育大学運動場東側","address":"北烏山5丁目16番","city":"世田谷区","number":"68-6"}, 
 {"id":"b90912a6-3e69-4f55-a8aa-a8ce2fd6d065","lat":35.66475340,"long":139.81206860,"status":"done","name":"区立深川第八中学校南側(西寄)","address":"塩浜2-21-14","city":"江東区","number":"19-3"}, 
 {"id":"b909337d-d954-4897-a1e9-4aef86ac259e","lat":35.68572130,"long":139.42253720,"status":"done","name":"緑川東公園南向き","address":"青柳1-37緑川東公園南向き","city":"国立市","number":"11-6"}, 
 {"id":"b90b7146-afe5-44e3-9633-c7a11e8092e9","lat":35.64830080,"long":139.31147820,"status":"done","name":"散田南公園北側フェンス","address":"散田町2-68","city":"八王子市","number":"012-7"}, 
 {"id":"b90bc0f0-82df-4bce-960c-41a1b884e46c","lat":35.65408610,"long":139.71267860,"status":"done","name":"若羽児童遊園地","address":"東4丁目13番3号","city":"渋谷区","number":"6-4"}, 
 {"id":"b911397d-e919-4be3-8618-6f5b0e1bfce9","lat":35.70190940,"long":139.56800530,"status":"done","name":"御殿山通り 歩道植込み","address":"御殿山2-10","city":"武蔵野市","number":"9~5"}, 
 {"id":"b9161a3d-9c6d-44f2-95f5-e592c059b640","lat":35.61666950,"long":139.70897070,"status":"done","name":"荏原保育園／フェンス","address":"荏原2-16-18","city":"品川区","number":"27-3"}, 
 {"id":"b91ae9d6-1fb9-49f0-8111-0c5ef220da03","lat":35.63875680,"long":139.43706890,"status":"done","name":"東寺方中央公園都道側北寄り","address":"落川1148番地1","city":"多摩市","number":"25-03"}, 
 {"id":"b91e315e-604c-4893-8eac-e361c785b23b","lat":35.52321400,"long":139.47070980,"status":"done","name":"都営町田小川アパート前広場フェンス","address":"小川５－１３－１","city":"町田市","number":"2-7"}, 
 {"id":"b91f402f-4758-4418-bcbf-9b63c886eae9","lat":35.62451220,"long":139.45364970,"status":"done","name":"諏訪第4公園西側","address":"諏訪3丁目4番地4","city":"多摩市","number":"05-06"}, 
 {"id":"b9239625-dc0e-482d-8f73-304d566d7354","lat":35.63075970,"long":139.28512760,"status":"done","name":"高尾山学園北側","address":"館町1097-2先","city":"八王子市","number":"103-6"}, 
 {"id":"b9259c47-228c-4098-a0db-e0b5b4952677","lat":35.73951230,"long":139.88473390,"status":"done","name":"北小岩二丁目第3児童遊園南側","address":"江戸川区北小岩2丁目14番24号","city":"江戸川区","number":"278"}, 
 {"id":"b9272062-3bc6-4bf5-b3f3-31fc1d435e73","lat":35.78855140,"long":139.68509700,"status":"done","name":"区立洋弓場入口","address":"東坂下2丁目21番","city":"板橋区","number":"62_7"}, 
 {"id":"b9294646-1fd5-4684-bdc6-234a6777db33","lat":35.76218810,"long":139.51893190,"status":"done","name":"東京都立東久留米総合高等学校正門わき","address":"幸町五丁目８番","city":"東久留米市","number":"８・６"}, 
 {"id":"b9306baf-2380-46dc-aef4-1193b10fcc6d","lat":35.70954450,"long":139.66107270,"status":"done","name":"区立中野中学校北側 植込","address":"中野4-12-3","city":"中野区","number":"20-1"}, 
 {"id":"b930cd61-3c5e-4d5a-9be5-1f914b34df8b","lat":35.69569300,"long":139.53706860,"status":"done","name":"市立境南くつろぎ公園 北側","address":"境南町5-10","city":"武蔵野市","number":"22~5"}, 
 {"id":"b939b816-a27e-450e-8eb4-d2baf4422768","lat":35.65964650,"long":139.46884680,"status":"done","name":"新田川緑道(南町1丁目交差点脇)","address":"南町2-9","city":"府中市","number":"11-5"}, 
 {"id":"b94bfb5c-7421-4a75-92d9-b6a31594b2db","lat":35.81758900,"long":139.20188900,"status":"done","name":"民家南側","address":"二俣尾5丁目1548番地","city":"青梅市","number":"17-3"}, 
 {"id":"b94bfcc4-4745-455c-b6c6-a4a5360d0d3a","lat":35.70839530,"long":139.73634300,"status":"done","name":"日白通り　マルエツ江戸川橋店前","address":"新宿区水道町4-13","city":"新宿区","number":"08-07"}, 
 {"id":"b9579f4d-b51c-40ee-baf1-25ac2805612c","lat":35.60856570,"long":139.74020330,"status":"done","name":"品川エトワール女子高等学校／北側堀","address":"南品川5-12-4","city":"品川区","number":"6-3"}, 
 {"id":"b95c38ba-9358-41b5-9c9a-c11e2dd26949","lat":35.69017680,"long":139.69525670,"status":"done","name":"中央通り 工学院大学前","address":"新宿区西新宿1-24","city":"新宿区","number":"48-04"}, 
 {"id":"b95fa40a-71b6-48a1-aea7-fbe212e904fd","lat":35.63700110,"long":139.59648860,"status":"done","name":"masked","address":"成城3丁目6番23号","city":"世田谷区","number":"58-2"}, 
 {"id":"b96afdbd-b464-4baa-be71-7af3afaf7281","lat":35.56995360,"long":139.71665860,"status":"done","name":"西蒲田大平橋児童公園 北側鉄柵","address":"西蒲田四丁目４番１号","city":"大田区","number":"60-6"}, 
 {"id":"b96b900f-af61-44ab-87d7-99d1c53bce1a","lat":35.58416270,"long":139.70522580,"status":"done","name":"東京都交通局馬込車両基地 入口右側フェンス","address":"南馬込六丁目38番１号","city":"大田区","number":"34-4"}, 
 {"id":"b96bab9e-c16f-4985-bfd3-a6186e37c166","lat":35.69747810,"long":139.69664160,"status":"done","name":"税務署通り 新宿シティタワー前","address":"新宿区西新宿7ｰ7-19","city":"新宿区","number":"47-06"}, 
 {"id":"b96bdaac-a438-4ba4-91e7-f8d547421ff2","lat":35.67887550,"long":139.80561410,"status":"done","name":"区立深川第六中学校東側","address":"平野3-6-13","city":"江東区","number":"5-3"}, 
 {"id":"b96e4622-5d6c-4dd0-b61a-04700eb5fd05","lat":35.71516200,"long":139.53070420,"status":"done","name":"上保谷新田公園南側柵(東寄り)","address":"新町6-9","city":"西東京市","number":"01-08"}, 
 {"id":"b975a8a0-b7bc-452e-abc8-a6742d9ebbee","lat":35.69911290,"long":139.74637180,"status":"done","name":"富士見出張所","address":"富士見一丁目6番7号","city":"千代田区","number":"5-4"}, 
 {"id":"b97bd954-c465-4fd4-806e-851bb92f925e","lat":35.75907020,"long":139.31393510,"status":"done","name":"旭ヶ丘公園","address":"羽東1－35","city":"羽村市","number":"2-6"}, 
 {"id":"b97eace2-f529-4c42-a163-d67e667c950b","lat":35.59577660,"long":139.43699940,"status":"done","name":"向坂バス停留所横のり敷","address":"小野路町７８","city":"町田市","number":"37-4"}, 
 {"id":"b9843ec7-e067-4351-ab78-9f07013a3151","lat":35.72880170,"long":139.66987500,"status":"done","name":"区立江古田区民活動センター西側 フェンス","address":"江原町2-3-15","city":"中野区","number":"25-5"}, 
 {"id":"b9898d19-ae18-4296-be28-ce5a0da64665","lat":34.68535660,"long":139.41159550,"status":"done","name":"民宿和幸付近","address":"差木地字ヤスミバ437番1","city":"大島町","number":"29"}, 
 {"id":"b98bd413-b997-4ae2-9daf-9d13cff521b9","lat":35.72570100,"long":139.46574770,"status":"done","name":"たかの街道緑地","address":"津田町2-4","city":"小平市","number":"8-7"}, 
 {"id":"b98f010a-fb66-4a45-92b5-172d8cc86e5c","lat":35.72116200,"long":139.76329460,"status":"done","name":"藍染保育園北側鉄柵及びコンクリート塀","address":"文京区根 津 ２丁目３４番１５号","city":"文京区","number":"18-01"}, 
 {"id":"b9903b50-ad54-480c-97d5-57ca4e527b9b","lat":35.76930670,"long":139.64337600,"status":"done","name":"たがら公園","address":"田柄2-45-1","city":"練馬区","number":"30-5"}, 
 {"id":"b993318c-db5d-4f3e-98cd-b4a993265d12","lat":35.69273810,"long":139.66952440,"status":"done","name":"区立千代田公園北側 フェンス","address":"本町5-31","city":"中野区","number":"6-6"}, 
 {"id":"b9934d2f-d0d5-4cc1-890e-d6b24719da9c","lat":35.73175680,"long":139.25119950,"status":"done","name":"masked","address":"伊奈1431","city":"あきる野市","number":"13-4"}, 
 {"id":"b993cd3d-fcad-4f77-a676-a99d73ce6c53","lat":35.62560660,"long":139.61190170,"status":"done","name":"仙川（氷川橋脇）","address":"大蔵6丁目7番先","city":"世田谷区","number":"76-9"}, 
 {"id":"b9983847-7ba6-4da2-8349-cd6cd5d0de5b","lat":35.62443400,"long":139.58515200,"status":"done","name":"狛江第六小学校東門左側フェンス際","address":"駒井町1-21-1","city":"狛江市","number":"6-5"}, 
 {"id":"b99a72fa-bdef-482e-8980-0dee6959f639","lat":35.70684840,"long":139.37368720,"status":"done","name":"中神公園","address":"朝日町三丁目10番","city":"昭島市","number":"6-3"}, 
 {"id":"b99aba93-f20d-4a41-9e06-13306f031965","lat":35.75317600,"long":139.73887800,"status":"done","name":"都電荒川線王子駅前停車場","address":"北区王子1-4","city":"北区","number":"18-05"}, 
 {"id":"b99ced38-2c1f-4a23-a3d8-734c975b93a5","lat":35.74210740,"long":139.88727540,"status":"done","name":"北小岩六丁目第二児童遊園北側","address":"江戸川区北小岩6丁目35番15号","city":"江戸川区","number":"293"}, 
 {"id":"b99e5685-7b02-4aac-afae-017c84ac91af","lat":35.69375200,"long":139.65080880,"status":"done","name":"堀ノ内三丁目公園","address":"堀ノ内3-44-10","city":"杉並区","number":"16-4"}, 
 {"id":"b9a3cda0-d0d8-434d-b05f-fc7a68e6cc52","lat":35.76629830,"long":139.84298250,"status":"done","name":null,"address":"葛飾区亀有5-2-1","city":"葛飾区","number":"33-01"}, 
 {"id":"b9a3f4e4-7fdf-4db9-b4e5-3bde5737c500","lat":35.66348190,"long":139.73898970,"status":"done","name":"(旧)財務省関東財務局六本木住宅北側植込","address":"港区六本木1-8-1","city":"港区","number":"22-4"}, 
 {"id":"b9ab109c-8171-4b9d-bcb9-19201ae5dad3","lat":35.68909230,"long":139.73570990,"status":"done","name":"都営四番町第2アパート前","address":"四番町6番地","city":"千代田区","number":"4-5"}, 
 {"id":"b9b24eff-e190-4695-a9bd-1010b88f4f30","lat":35.80466660,"long":139.79004190,"status":"done","name":"東伊興淵之宮公園(北側)","address":"足立区東伊興2-4","city":"足立区","number":"67-05"}, 
 {"id":"b9b49052-3726-4eb9-9b8c-6d85d92e0959","lat":35.71398840,"long":139.56652420,"status":"done","name":"水道部庁舎 南側","address":"吉祥寺北町4-11-46","city":"武蔵野市","number":"11~2"}, 
 {"id":"b9b5e371-74dd-4186-8c6c-187a3709946d","lat":35.69880800,"long":139.49841570,"status":"done","name":"滄浪泉園北門","address":"貫井南町3-2","city":"小金井市","number":"83-5"}, 
 {"id":"b9c22393-e1f6-440c-82b0-fa86caac598a","lat":35.69101580,"long":139.86927340,"status":"done","name":"松江四丁目児童遊園南側植込み","address":"江戸川区松江4丁目2番17号","city":"江戸川区","number":"103"}, 
 {"id":"b9c71218-3e5a-4d6c-a42b-e72211fd63af","lat":35.74802640,"long":139.54120580,"status":"done","name":"はなみずき公園南側植込み(西寄り)","address":"ひばりが丘2-2","city":"西東京市","number":"24-1"}, 
 {"id":"b9cef716-0add-4d5c-b220-ef9463f7cf9e","lat":35.66196570,"long":139.42111450,"status":"done","name":"精進場公園 南側植込み","address":"三沢340-3","city":"日野市","number":"63"}, 
 {"id":"b9cf1273-7390-4696-9186-7779aa9181f9","lat":35.60040980,"long":139.73858820,"status":"done","name":"浜川中学校／西側裏門鉄柵","address":"東大井 3-18-34","city":"品川区","number":"16-2"}, 
 {"id":"b9d1e16c-c361-4970-bd55-6b3e288e31d5","lat":35.73736820,"long":139.63963010,"status":"done","name":"中村橋東自転車駐車場北側フェンス","address":"向山1－14","city":"練馬区","number":"15-5"}, 
 {"id":"b9d3dcf2-6d21-41aa-b2a0-07ec5c206219","lat":35.72063300,"long":139.68468160,"status":"done","name":"落合第二中学校 東側","address":"新宿区西落合1-6-5","city":"新宿区","number":"37-03"}, 
 {"id":"b9deaba4-82c0-486e-9196-53f87f06e520","lat":35.66564530,"long":139.36658410,"status":"done","name":"新田公園北側","address":"高倉町42","city":"八王子市","number":"183-1"}, 
 {"id":"b9df3447-4377-4ba1-8446-d339ebd25600","lat":35.79652950,"long":139.78965240,"status":"done","name":"前沼公園(南側)","address":"足立区西竹の塚2-12","city":"足立区","number":"56-07"}, 
 {"id":"b9e0bdfe-28d8-45ba-aa3d-be6fb6ac2b69","lat":35.66643810,"long":139.31600680,"status":"done","name":"水中学校東","address":"鍵水2-67","city":"八王子市","number":"064-5"}, 
 {"id":"b9e21923-bdc5-47bf-a869-789b11682486","lat":35.63145280,"long":139.67080020,"status":"done","name":"龍雲寺駐車場北側","address":"野沢3丁目40番","city":"世田谷区","number":"83-4"}, 
 {"id":"b9e31ad5-4a51-40d3-89f8-913ea1e2889e","lat":35.79875190,"long":139.26702360,"status":"done","name":"株式会社横河サーテックフェンス","address":"根ヶ布1丁目380番地","city":"青梅市","number":"27-2"}, 
 {"id":"b9e322bc-fd2d-4c5f-8d09-ac2b7a5ffc07","lat":35.78016940,"long":139.84173440,"status":"done","name":"中川小学校(東側)","address":"足立区大谷田3-17-20","city":"足立区","number":"44-01"}, 
 {"id":"b9e8b87e-aa96-45ed-b045-50fe349b9f2b","lat":35.65620000,"long":139.36482200,"status":"done","name":"シティ ハイツ日野旭が丘6号棟 東側植込み","address":"旭が丘4-7","city":"日野市","number":"119"}, 
 {"id":"b9fb038a-b8d2-4b9b-91e3-ce44e2e632ff","lat":35.71222300,"long":139.65971740,"status":"done","name":"区営野方一丁目アパート９号棟西側 フェンス","address":"野方1-10","city":"中野区","number":"29-2"}, 
 {"id":"ba0203f3-7823-488c-b947-b260c58437c1","lat":35.75445960,"long":139.62767660,"status":"done","name":"夏の雲公園南側","address":"光が丘3－4","city":"練馬区","number":"65-6"}, 
 {"id":"ba037472-39c3-4daf-8455-b46aaa20c691","lat":35.75926980,"long":139.74051940,"status":"done","name":"北区立王子六丁目児童遊園","address":"北区王子6-2-60","city":"北区","number":"17-04"}, 
 {"id":"ba0de51d-f243-4111-b3aa-2d30b9c800f6","lat":35.67413400,"long":139.30315740,"status":"done","name":"泉町会館前","address":"泉町1343先","city":"八王子市","number":"114-8"}, 
 {"id":"ba135e97-08f0-4d9c-af46-aae020a05926","lat":35.75746050,"long":139.67654180,"status":"done","name":"桜川二丁目３番遊び場（南）","address":"桜川2丁目3番","city":"板橋区","number":"23_4"}, 
 {"id":"ba1c4834-ce91-4c16-a7ac-4b2c8f0fa593","lat":35.59952450,"long":139.75019480,"status":"done","name":"パトリア品川／植込み","address":"八潮 5-5","city":"品川区","number":"43-1"}, 
 {"id":"ba22247a-64e9-41e5-b305-bf6503c3c13d","lat":35.73330630,"long":139.77851420,"status":"done","name":"西日暮里一丁目広場南側野立","address":"荒川区西日暮里１－６－１０","city":"荒川区","number":"12-06"}, 
 {"id":"ba22c8c1-2b25-4b22-b02e-474959369bd9","lat":35.75047690,"long":139.85584650,"status":"done","name":null,"address":"葛飾区青戸６−８先","city":"葛飾区","number":"18-02"}, 
 {"id":"ba314c81-9fe0-4d87-8902-0260987f766e","lat":35.71574410,"long":139.85391560,"status":"done","name":"新小岩公園","address":"葛飾区西新小岩１－１－３","city":"葛飾区","number":"12-06"}, 
 {"id":"ba330c2b-7aff-4c20-8ae8-ec310fb92a26","lat":35.70025410,"long":139.60882490,"status":"done","name":"神明中学校南側","address":"南荻窪2-37-28","city":"杉並区","number":"40-6"}, 
 {"id":"ba343790-2fb2-4631-ae6b-00ed0f9dcaa0","lat":35.64678800,"long":139.68681100,"status":"done","name":"東山小学校西側","address":"東山2-24-25","city":"目黒区","number":"04-04"}, 
 {"id":"ba37bfc7-5546-4840-aff4-c8f237dee9bc","lat":35.62026310,"long":139.65775330,"status":"done","name":"東京学芸大学附属世田谷小学校西側","address":"深沢4丁目10番1号","city":"世田谷区","number":"93-4"}, 
 {"id":"ba41e24d-e376-4b27-868a-5b6523ee80d2","lat":35.71644500,"long":139.89425350,"status":"done","name":"都立篠崎公園北側","address":"江戸川区北篠崎2丁目1番南側先","city":"江戸川区","number":"488"}, 
 {"id":"ba4d1cc4-5127-4273-86e7-6bff2ab8f409","lat":35.66838830,"long":139.61454050,"status":"done","name":"都営八幡山アパート南側","address":"八幡山3丁目37番7号","city":"世田谷区","number":"48-1"}, 
 {"id":"ba4f23db-a05b-4037-92fe-5d4a259dc42b","lat":35.67636420,"long":139.80028010,"status":"done","name":"区立深川第二中学校西側","address":"冬木22-10","city":"江東区","number":"10-7"}, 
 {"id":"ba4f7606-1e47-440e-bbd8-3d9390599865","lat":35.76183160,"long":139.67379050,"status":"done","name":"上板橋保育園","address":"上板橋2丁目3番8号","city":"板橋区","number":"24_3"}, 
 {"id":"ba692bb9-7471-4b5d-8e1a-f560ed7315f7","lat":35.65457350,"long":139.48601400,"status":"done","name":"二ケ村緑道鉄柵 (株)ジャパングラフィック南側)","address":"是政5-3","city":"府中市","number":"26-2"}, 
 {"id":"ba75a3e8-5d63-4523-b70b-046476abdb50","lat":35.65078300,"long":139.62903120,"status":"done","name":"烏山川緑道（二本橋東）","address":"経堂4丁目35番先","city":"世田谷区","number":"25-8"}, 
 {"id":"ba77afe1-4a26-4ecf-9e50-832d32ac3a3a","lat":35.76066230,"long":139.65515800,"status":"done","name":"北町なかよし公園","address":"北町6-19-7","city":"練馬区","number":"28-3"}, 
 {"id":"ba77dc93-2247-410d-9c9e-977c4bfad497","lat":35.72699640,"long":139.61990320,"status":"done","name":"井草保育園","address":"井草2-15-15","city":"杉並区","number":"47-3"}, 
 {"id":"ba783d40-49d8-440c-a284-29e2b9585bed","lat":35.67514220,"long":139.64835050,"status":"done","name":"杉並和泉学園北東側","address":"和泉2-17-21","city":"杉並区","number":"3-2"}, 
 {"id":"ba7fa8f6-ea7c-4433-9396-6bf7f933f60b","lat":35.64064950,"long":139.31076500,"status":"done","name":"めじろ台二丁目公園西側","address":"めじろ台2-22-17","city":"八王子市","number":"084-3"}, 
 {"id":"ba87f4cb-7d0d-41db-bf2a-8f50f161bfdb","lat":35.66099380,"long":139.44532950,"status":"done","name":"四谷南通幼児公園東側フェンス","address":"四谷3-49","city":"府中市","number":"01-6"}, 
 {"id":"ba89a75d-d305-49b4-b313-a022da20e7fc","lat":35.67972580,"long":139.78622750,"status":"done","name":"箱崎公園","address":"日本橋箱崎町18番18号","city":"中央区","number":"11-3"}, 
 {"id":"ba90002e-7c82-49f5-9544-fe2cb90f3767","lat":35.67608700,"long":139.60202470,"status":"done","name":"公社烏山北住宅１９号棟前公園南側","address":"北烏山3丁目13番","city":"世田谷区","number":"66-7"}, 
 {"id":"ba91259b-5e2f-4c8e-91d2-7f30dfc17540","lat":35.74538790,"long":139.32211210,"status":"done","name":"福生第四小学校南門脇(プール更衣室前擁壁付近)","address":"福生市大字福生1290番地","city":"福生市","number":"2-5"}, 
 {"id":"ba945700-65fb-49a4-8033-047b8ebaf14e","lat":35.65864880,"long":139.54709390,"status":"done","name":"上布田公園東側道路沿","address":"調布ヶ丘1-24-1","city":"調布市","number":"01-7"}, 
 {"id":"ba956f29-22c5-43b7-a00c-95d1574d8cd5","lat":35.65919700,"long":139.64607100,"status":"done","name":"masked","address":"赤堤2丁目36番16号","city":"世田谷区","number":"42-2"}, 
 {"id":"ba99312b-aa24-4e7a-b056-427a4965682e","lat":35.71495290,"long":139.69464730,"status":"done","name":"神田川 せせらぎ橋付近","address":"新宿区上落合1-1","city":"新宿区","number":"39-08"}, 
 {"id":"baa3caa6-e42b-4f80-86bf-1ed90c00484d","lat":35.61009850,"long":139.48792180,"status":"done","name":"平尾近隣公園(44号棟向)","address":"平尾 3-7","city":"稲城市","number":"12-5"}, 
 {"id":"baa41b20-aff0-4fe9-b448-e014fd6b2b6a","lat":35.67270330,"long":139.37572720,"status":"done","name":"日野台公園 南側植栽","address":"日野台4-17","city":"日野市","number":"37"}, 
 {"id":"baa4be33-a6b3-4479-8a41-b7167984fa62","lat":35.70153520,"long":139.65507820,"status":"done","name":"桃園川緑道環七東側","address":"高円寺南1-34-9","city":"杉並区","number":"19-8"}, 
 {"id":"baa80ef2-4cbf-4947-9109-e25af7607861","lat":35.66084930,"long":139.33624960,"status":"done","name":"第一小学校西側フェンス","address":"元横山町2-14-3","city":"八王子市","number":"001-7"}, 
 {"id":"baae5f32-541d-4426-b049-d786bfc796db","lat":35.66537100,"long":139.46884680,"status":"done","name":"自転車駐車場(かえで通り沿い)","address":"本町4-15","city":"府中市","number":"08-1"}, 
 {"id":"baae611a-f2f4-4700-bc99-dc2a764a6f48","lat":35.64227690,"long":139.75165980,"status":"done","name":"芝渚橋東側鉄柵","address":"港区芝浦2-11-5","city":"港区","number":"9-2"}, 
 {"id":"bab84b36-5fc4-4124-b1a6-2b83abbe391f","lat":35.73184360,"long":139.33476300,"status":"done","name":"田村駐車場(ほたる通り側月極駐車場フェンス)","address":"福生市大字熊川929番地1","city":"福生市","number":"8-3"}, 
 {"id":"bab9f7eb-42d4-4a44-bf81-4123be265e0a","lat":35.69647590,"long":139.56004570,"status":"done","name":"下連雀きたうら児童公園","address":"下連雀四丁目19番","city":"三鷹市","number":"17-5"}, 
 {"id":"baba6ced-0841-4134-a4f0-e2ef525c0a5d","lat":35.67489600,"long":139.77551660,"status":"done","name":"京華スクエア南側","address":"八丁堀3丁目17番9号","city":"中央区","number":"6-3"}, 
 {"id":"babc3a6b-02a9-4370-a432-30b9d527549d","lat":35.70198500,"long":139.52147710,"status":"done","name":"東小金井駅西側自転車駐車場管理棟南側フェンス","address":"緑町1-1","city":"小金井市","number":"110-9"}, 
 {"id":"bac395ac-d28d-4702-80a2-a5e3bace11c2","lat":35.64894810,"long":139.63070460,"status":"done","name":"南台公園西側","address":"経堂5丁目38番11号","city":"世田谷区","number":"22-1"}, 
 {"id":"bac77d90-53ff-45e0-8aca-99a5fe9c2c5d","lat":35.69975070,"long":139.80027510,"status":"done","name":"二葉小学校（石原２-２向）","address":"墨田区石原 ２- １- ５","city":"墨田区","number":"08-08"}, 
 {"id":"bac87b72-633a-4768-92cc-3bfff40281ab","lat":35.74478600,"long":139.67494680,"status":"done","name":"小竹みどり公園","address":"小竹町2-70","city":"練馬区","number":"1-7"}, 
 {"id":"bacb6bd0-f01a-4a35-a0ad-407b0a43d0a0","lat":35.69676800,"long":139.80051980,"status":"done","name":"緑町公園前植込地（北斎通り）","address":"墨田区亀沢 ２- ７","city":"墨田区","number":"08-03"}, 
 {"id":"bacb8399-3afe-459b-9df2-82353c043f05","lat":35.65163280,"long":139.71265360,"status":"done","name":"広尾小学校","address":"東3丁目3番3号","city":"渋谷区","number":"4-3"}, 
 {"id":"bace2dc9-4c1e-45eb-8a10-155cfdd9ba33","lat":35.60369690,"long":139.68938260,"status":"done","name":"洗足池公園 西側鉄柵","address":"南千束二丁目15番 先","city":"大田区","number":"17-8"}, 
 {"id":"bad104c6-f08f-4836-a094-fd04415f642c","lat":35.71420300,"long":139.35723900,"status":"done","name":"松原町一丁目中児童遊園","address":"松原町一丁目1番","city":"昭島市","number":"18-6"}, 
 {"id":"bad22561-52f6-4971-bf6a-93f507625254","lat":35.66663240,"long":139.65371450,"status":"done","name":"松原北保育園南側","address":"松原1丁目11番4号","city":"世田谷区","number":"38-8"}, 
 {"id":"bad6af18-8ebb-482c-886f-0391f71b5ef4","lat":35.67011810,"long":139.48602530,"status":"done","name":"masked","address":"八幡町2-2-2-2","city":"府中市","number":"25-7"}, 
 {"id":"bad862a7-b39c-41c4-9c5d-180096e881b8","lat":35.67966440,"long":139.65115180,"status":"done","name":"一本橋公園","address":"和泉4-18-28","city":"杉並区","number":"2-3"}, 
 {"id":"bae21dc1-6e03-48fa-9af2-a645133f0ee4","lat":35.66347500,"long":139.41946400,"status":"done","name":"あらい保育園 西側金網","address":"新井842-2","city":"日野市","number":"137"}, 
 {"id":"baebc2e5-1745-4b47-b80e-9101ec39fd46","lat":35.60229450,"long":139.46472410,"status":"done","name":"masked","address":"真光寺１－２７－３６","city":"町田市","number":"50-4"}, 
 {"id":"baed77fd-a9b7-4501-bc8f-2ab4aa502f77","lat":35.66568130,"long":139.57622470,"status":"done","name":"中原一丁目地区公会堂","address":"中原一丁目26番","city":"三鷹市","number":"2-4"}, 
 {"id":"baee77d6-b8f1-4726-a266-90862c2d7a6f","lat":35.77008280,"long":139.35242960,"status":"done","name":"西多摩農協瑞穂支店前植込み 野立","address":"大字箱根ケ崎2261番地","city":"瑞穂町","number":"3-1"}, 
 {"id":"baf3b05b-4947-42ea-91e5-5d13455a1d70","lat":35.63851970,"long":139.28812780,"status":"done","name":"八王子狭間住宅南側児童公園フェンス","address":"狭間町1464-1","city":"八王子市","number":"034-5"}, 
 {"id":"baf3c1db-75fa-4ee6-94d1-bfb70789e689","lat":35.69557690,"long":139.71007060,"status":"done","name":"天神小学校 消防団倉庫前","address":"新宿区新宿6-14-2","city":"新宿区","number":"24-04"}, 
 {"id":"baf624c6-bd0d-49bf-bf64-7589a9f331ce","lat":35.68596930,"long":139.57112970,"status":"done","name":"東京弘済園フェンス","address":"下連雀五丁目2番","city":"三鷹市","number":"8-3"}, 
 {"id":"baf854e6-35f4-4b37-9e5b-c2bc1e18f519","lat":35.73942500,"long":139.78711350,"status":"done","name":"さつき会館南側鉄柵","address":"荒川区荒川８－１６－１３","city":"荒川区","number":"09-02"}, 
 {"id":"bb0465c8-f3a3-4f59-b78c-bc42c8c09f79","lat":35.66657040,"long":139.87023470,"status":"done","name":"滝野公園東側植込","address":"江戸川区中葛西3丁目22番1号","city":"江戸川区","number":"426"}, 
 {"id":"bb06f7e2-a7e4-44f3-9f13-ec47f757f570","lat":35.61809300,"long":139.67134200,"status":"done","name":"八雲小学校東側","address":"八雲2-5-1","city":"目黒区","number":"35-01"}, 
 {"id":"bb091260-713c-4533-ad60-8bef6f76056c","lat":35.74439460,"long":139.49940820,"status":"done","name":"大沼さざんか公園・西柵","address":"大沼町4-15-7","city":"小平市","number":"19-7"}, 
 {"id":"bb0c56f2-ccc2-4eaf-a27a-deebdfa3aa91","lat":35.65355310,"long":139.60843390,"status":"done","name":"masked","address":"祖師谷5丁目29番16号","city":"世田谷区","number":"57-1"}, 
 {"id":"bb117992-e737-41dd-a9bb-fd700a527351","lat":35.70838630,"long":139.57062130,"status":"done","name":"masked","address":"吉祥寺本町4-30-2","city":"武蔵野市","number":"8~8"}, 
 {"id":"bb1724f4-890d-4f61-b007-7bf48d76fce7","lat":35.66066390,"long":139.31728230,"status":"done","name":"藤和シティホームズ西八王子西側","address":"追分町10-6","city":"八王子市","number":"002-3"}, 
 {"id":"bb17ce7d-5980-4d28-9e2b-2951bdf2d2fc","lat":35.65692300,"long":139.74091100,"status":"done","name":"飯倉いきいきプラザ南側植込右寄り","address":"港区東麻布２－１６－１１","city":"港区","number":"23-5"}, 
 {"id":"bb1814ed-153a-41f9-af78-1e0875809a2a","lat":35.61156630,"long":139.70279460,"status":"done","name":"立会道路(荏原南公園前)／植込み","address":"荏原6-16-4","city":"品川区","number":"28-3"}, 
 {"id":"bb220aa6-4c94-425a-91dc-7e3416423b79","lat":35.66865480,"long":139.57542860,"status":"done","name":"新川あおやぎ公園西側フェンス","address":"新川一丁目11番","city":"三鷹市","number":"2-2"}, 
 {"id":"bb24e232-05b1-45a5-a1c6-705aa789b6f8","lat":35.57036990,"long":139.73546310,"status":"done","name":"大森第一小学校 西側植込","address":"大森東三丁目１番18号","city":"大田区","number":"21-2"}, 
 {"id":"bb298fbb-b8fb-4443-81da-027ed69ad8cd","lat":35.77047320,"long":139.47920790,"status":"done","name":"都営久米川町1丁目アパート集会室前","address":"久米川町1-49","city":"東村山市","number":"3-4"}, 
 {"id":"bb2cd706-4a22-4e18-9434-d2dc441a9e8e","lat":35.64190200,"long":139.70380700,"status":"done","name":"東京共済病院西側","address":"中目黒2-3","city":"目黒区","number":"07-09"}, 
 {"id":"bb307833-2c09-4557-99a8-b2dc4dda5d37","lat":35.62155730,"long":139.70933140,"status":"done","name":"後地公園／公園内植込み","address":"小山 2-9-16","city":"品川区","number":"24-1"}, 
 {"id":"bb37091b-a7e3-440a-8b7d-acf6d6d2050e","lat":35.67862500,"long":139.79566520,"status":"done","name":"区立亀堀公園北側","address":"深川1-11-18","city":"江東区","number":"10-2"}, 
 {"id":"bb401db3-d050-4ca8-a18f-607fdd9aea5b","lat":35.79752660,"long":139.29238980,"status":"done","name":"市立第三中学校前フェンス","address":"大門2丁目301番地","city":"青梅市","number":"4-4"}, 
 {"id":"bb515b79-99c6-44b4-82f1-ff97cbb0c54c","lat":35.55776620,"long":139.43030680,"status":"done","name":"東京都水道局町田サービスステーション前","address":"木曽東１－４－１","city":"町田市","number":"45-4"}, 
 {"id":"bb5308ec-8d6a-4406-9c48-c5e45ce3d103","lat":35.72120640,"long":139.54663300,"status":"done","name":"田無柳沢児童センター北側柵(西寄り)","address":"向台町1-7-25","city":"西東京市","number":"04-06"}, 
 {"id":"bb600b5f-7f79-46dc-861b-b2c15acb960e","lat":35.76230540,"long":139.47155090,"status":"done","name":"市立久米川小学校正門横","address":"久米川町4-11-1","city":"東村山市","number":"2-1"}, 
 {"id":"bb646314-d32a-44e3-a5f4-83bb12610484","lat":35.74817480,"long":139.73661980,"status":"done","name":"北区立滝野川第三小学校正門左側","address":"北区滝野川1-12-27","city":"北区","number":"12-02"}, 
 {"id":"bb6855f8-d4b4-4068-a917-e1ae1ab0f544","lat":35.70788710,"long":139.45232010,"status":"done","name":"第十小学校南東側フェンス","address":"戸倉3-5","city":"国分寺市","number":"15-2"}, 
 {"id":"bb6c9be0-b961-40b1-8747-f982abf7bd84","lat":35.80838800,"long":139.21835300,"status":"done","name":"二俣尾駅前","address":"二俣尾4丁目1074番地の1","city":"青梅市","number":"16-7"}, 
 {"id":"bb7eb648-1cb0-4a85-887a-caaa503a7a7a","lat":35.57118960,"long":139.72022360,"status":"done","name":"邦西ふれあい児童公園 東側植込","address":"大森西七丁目１番４号","city":"大田区","number":"26-7"}, 
 {"id":"bb8317c9-545e-4369-a669-cff1d7fde868","lat":35.60256490,"long":139.72288340,"status":"done","name":"西大井広場／南側入口鉄柵","address":"西大井 1-4-10","city":"品川区","number":"21-3"}, 
 {"id":"bb84801c-03c1-4b09-b872-2c8167c4e3fe","lat":35.66930770,"long":139.55551410,"status":"done","name":"深大寺給水所フェンス","address":"深大寺南町5-56-1","city":"調布市","number":"07-7"}, 
 {"id":"bb84fa72-1fb3-429e-9392-b8f0fa7a5431","lat":35.70567580,"long":139.55043600,"status":"done","name":"上連雀一丁目19番先堀合遊歩道植込","address":"上連雀一丁目19番","city":"三鷹市","number":"29-5"}, 
 {"id":"bb8529fc-5b88-484d-9440-8372a08c2295","lat":35.72396570,"long":139.58064070,"status":"done","name":"石神井西小学校北側","address":"関町北1－1－5","city":"練馬区","number":"46-7"}, 
 {"id":"bb891131-7fcf-4250-bf9b-e511e5dc582a","lat":35.68947800,"long":139.57733930,"status":"done","name":"高山小学校グラウンド東側","address":"牟礼四丁目6番","city":"三鷹市","number":"9-3"}, 
 {"id":"bb8e7d28-b327-49ba-aebf-534dfe4ed382","lat":35.68504400,"long":139.90510950,"status":"done","name":"区立くつろぎの家公園北側","address":"江戸川区江戸川2丁目38番11号","city":"江戸川区","number":"379"}, 
 {"id":"bb9283f8-b85d-4066-8ad2-ce95db3c8dac","lat":null,"long":null,"status":"done","name":"落合公園 南側","address":"新宿区中井1-14","city":"新宿区","number":"42-08"}, 
 {"id":"bb94928e-373f-4674-a6f5-b4cf08bcb1b8","lat":35.72695160,"long":139.33042240,"status":"done","name":"明神下公園東側(鉄パイプ)","address":"福生市南田園一丁目12番地1","city":"福生市","number":"9-5"}, 
 {"id":"bb96697c-32f7-456d-83d7-51c1f5e2d9e0","lat":35.66846100,"long":139.53770510,"status":"done","name":"大沢コミュニティ・センター西側","address":"大沢四丁目25番","city":"三鷹市","number":"28-7"}, 
 {"id":"bb972150-fbe5-440e-a42f-7a8201c82caa","lat":35.71589220,"long":139.71874340,"status":"done","name":"目白台一丁目子供の遊び場北側入口右金網","address":"文京区目白台 １丁目１６番","city":"文京区","number":"25-05"}, 
 {"id":"bb9c6bad-20ad-46fd-ac5a-2f92554dcc9a","lat":35.70401060,"long":139.67692810,"status":"done","name":"区立城山ふれあいの家南側 ブロック塀","address":"中野1-20-4","city":"中野区","number":"15-8"}, 
 {"id":"bba14767-6346-441e-8f19-533a63ca8d23","lat":35.73099420,"long":139.74965090,"status":"done","name":"公益社団法人日本アイソトープ協会入口左側フェンス","address":"文京区本駒込 ２丁目２８番４５号","city":"文京区","number":"23-06"}, 
 {"id":"bba547fc-4ac9-4580-8f00-95683cb580ce","lat":35.71940800,"long":139.49112140,"status":"done","name":"公団小平団地・2街区17号棟・東側","address":"喜平町3-2-17","city":"小平市","number":"15-3"}, 
 {"id":"bbaa9471-0994-496e-8bde-938d4387019e","lat":35.69912890,"long":139.79601400,"status":"done","name":"横網町公園（NTT向）","address":"墨田区横網 ２- ３-２５","city":"墨田区","number":"01-04"}, 
 {"id":"bbab76bb-239a-4e08-b41a-3e434bcdd2e1","lat":35.68520710,"long":139.72304900,"status":"done","name":"須賀神社","address":"新宿区須賀町5","city":"新宿区","number":"02-06"}, 
 {"id":"bbadedb0-8c34-4d51-b5a3-184b05dc8659","lat":35.66670220,"long":139.68744830,"status":"done","name":"富ヶ谷三本杉公園 入口横植込み","address":"富ヶ谷2丁目2番13号","city":"渋谷区","number":"23-7"}, 
 {"id":"bbb46767-ea5f-4424-989d-c976e8928bb2","lat":35.60571780,"long":139.71794400,"status":"done","name":"ゆたか防災広場／植込み","address":"豊町6-11","city":"品川区","number":"39-1"}, 
 {"id":"bbcb3b0c-57fc-465e-a0e0-c5d5070eafab","lat":35.73537710,"long":139.80442990,"status":"done","name":"トミンタワー南千住四丁目南側植込野立","address":"荒川区南千住４－９－７","city":"荒川区","number":"02-04"}, 
 {"id":"bbcb956e-4576-443c-8a64-102027ca0180","lat":35.68358380,"long":139.65121460,"status":"done","name":"だいじょうじ公園","address":"堀ノ内1‐9‐26","city":"杉並区","number":"4-1"}, 
 {"id":"bbceeae6-3fbd-498d-a993-827860e60638","lat":35.73145780,"long":139.83233440,"status":"done","name":"四つ木１丁目７番先植込み","address":"葛飾区四つ木１－７先","city":"葛飾区","number":"07-04"}, 
 {"id":"bbcfbabb-044b-49b3-b816-6a5c50b2eec7","lat":35.74416680,"long":139.57257260,"status":"done","name":"大泉第二小学校西側","address":"南大泉4－29－11","city":"練馬区","number":"58-8"}, 
 {"id":"bbcfeb63-cd20-4e51-bfd9-95513bd8c5e1","lat":35.63582300,"long":139.73294420,"status":"done","name":"区立高輪一丁目緑地","address":"港区高輪１－２７－２７","city":"港区","number":"17-5"}, 
 {"id":"bbd478db-b1b8-4414-8582-ca533c888293","lat":35.61802020,"long":139.70725240,"status":"done","name":"荏三公園／フェンス","address":"荏原3-3-10","city":"品川区","number":"27-4"}, 
 {"id":"bbe1adda-9e87-42d4-bb08-c2c0227e0ced","lat":35.68237600,"long":139.87851610,"status":"done","name":"一之江第二小学校東側","address":"江戸川区春江町4丁目16番地","city":"江戸川区","number":"177"}, 
 {"id":"bbe83b27-62b1-48d2-9c76-533032549c52","lat":35.57636040,"long":139.67704490,"status":"done","name":"鵜の木三丁目中央児童公園 南西側入口左側植込","address":"鵜の木三丁目24番13号","city":"大田区","number":"7-7"}, 
 {"id":"bbefaee8-873a-48ae-a134-38b5256b0da3","lat":35.70917660,"long":139.62368400,"status":"done","name":"都営天沼二丁目アパート　集会所南側","address":"天沼2-30-11","city":"杉並区","number":"30-6"}, 
 {"id":"bbefed4c-1249-4241-a9cf-560095f33d0b","lat":35.72585350,"long":139.88692530,"status":"done","name":"南小岩三丁目児童遊園東側植込み","address":"江戸川区南小岩3丁目15番3号","city":"江戸川区","number":"268"}, 
 {"id":"bbf62384-434e-4a99-82a9-0a74afcff5eb","lat":35.57077330,"long":139.45692800,"status":"done","name":"ゆうき山公園","address":"金井ヶ丘１丁目１４番","city":"町田市","number":"28-6"}, 
 {"id":"bbfca7a0-cafa-49f2-b661-755011547703","lat":35.73582140,"long":139.67923610,"status":"done","name":"日本大学芸術学部東側フェンス","address":"旭丘2-24-1","city":"練馬区","number":"5-6"}, 
 {"id":"bbfd33f0-ff97-4f7c-9f4d-a73c28919a26","lat":35.66978170,"long":139.81561970,"status":"done","name":"区立東陽公園南側","address":"東陽3-27-27","city":"江東区","number":"15-6"}, 
 {"id":"bc01cee7-82e6-4fa4-a4a3-f4af3a296165","lat":35.79440370,"long":139.53881890,"status":"done","name":"清明小学校プール東側市道1038号線沿","address":"旭が丘二丁目774-2","city":"清瀬市","number":"1-4"}, 
 {"id":"bc038fc9-617d-49e6-9a3d-d8487bcce145","lat":35.64103600,"long":139.67662150,"status":"done","name":"都営下馬二丁目アパート２号棟西側","address":"下馬2丁目33番","city":"世田谷区","number":"80-1"}, 
 {"id":"bc0739d1-4f60-4861-8451-7eb2154b345a","lat":35.72893250,"long":139.76033630,"status":"done","name":"駒込林町公園南側入口右鉄柵","address":"文京区千駄木 ３丁目１５番","city":"文京区","number":"21-04"}, 
 {"id":"bc0a07cf-3e64-430a-aaa1-c3a092a311fa","lat":35.71836400,"long":139.87680300,"status":"done","name":"鹿本中学校東側金網","address":"江戸川区松本1丁目36番1号","city":"江戸川区","number":"117"}, 
 {"id":"bc13cccb-4f40-4aea-9be0-96f08353a42a","lat":35.74051170,"long":139.88561190,"status":"done","name":"北小岩小学校西側","address":"江戸川区北小岩2丁目15番1号","city":"江戸川区","number":"280"}, 
 {"id":"bc13fa03-c23c-49e5-805a-8bbfe9f6c413","lat":35.76372880,"long":139.78880740,"status":"done","name":"関原一丁目さんかく児童遊園(南側)","address":"足立区関原1-12-18","city":"足立区","number":"25-07"}, 
 {"id":"bc17a3c7-199c-450e-9197-95f736631ff4","lat":35.71090130,"long":139.50549220,"status":"done","name":"市営住宅北側植込み","address":"桜町2-8","city":"小金井市","number":"134-8"}, 
 {"id":"bc1ceca2-53c3-4a1f-839b-3eacab0d9b28","lat":35.66996620,"long":139.73763070,"status":"done","name":"赤坂子ども中高生プラザ南東駐輪場前","address":"港区赤坂６－６－１４","city":"港区","number":"31-5"}, 
 {"id":"bc236d76-9362-4e0c-8185-57cab59f8a3e","lat":35.79409770,"long":139.66467550,"status":"done","name":"新河岸一丁目公園（南）","address":"新河岸1丁目3番6号","city":"板橋区","number":"61_4"}, 
 {"id":"bc2b9a70-ce6a-4fd4-9ff0-7c01cce24fe4","lat":35.62929280,"long":139.48156270,"status":"done","name":"稲城市立長峰小南","address":"長峰 2-8","city":"稲城市","number":"14-4"}, 
 {"id":"bc2fb126-64a9-48c9-8eb6-cf51e77caa24","lat":35.76901180,"long":139.35583860,"status":"done","name":"masked","address":"大字石畑1834番地","city":"瑞穂町","number":"2-3"}, 
 {"id":"bc3128c0-1827-41e0-bd5c-95351d7b27df","lat":35.70105500,"long":139.91358740,"status":"done","name":"下篠崎第2児童遊園西側","address":"江戸川区下篠崎町18番13号","city":"江戸川区","number":"358"}, 
 {"id":"bc38adcf-351a-4958-99be-8d5fa531be5b","lat":35.74867310,"long":139.76637230,"status":"done","name":"宮の前ひろば館東側パネル板","address":"荒川区東尾久５－４５－１１","city":"荒川区","number":"23-02"}, 
 {"id":"bc410886-6bba-40b8-a57e-864da028c0e2","lat":35.71461570,"long":139.53643210,"status":"done","name":"新町児童遊園北側柵","address":"新町5-1","city":"西東京市","number":"01-03"}, 
 {"id":"bc49d2d5-603d-4188-8313-741cf53c2fde","lat":35.70995230,"long":139.77230080,"status":"done","name":"不忍通り水上音楽堂脇植込","address":"上野公園２番","city":"台東区","number":"6-4"}, 
 {"id":"bc4ca71f-b7d0-4d65-a84f-f76bd5c5c575","lat":35.77538560,"long":139.73055570,"status":"done","name":"北区立志茂四わかば児童遊園南側空地(まちづくり用地)","address":"北区志茂4-31-1","city":"北区","number":"30-07"}, 
 {"id":"bc5518a5-967a-40f2-a004-ed6b5310c639","lat":35.62710710,"long":139.48438330,"status":"done","name":"屋駐車場前","address":"坂浜 409","city":"稲城市","number":"4-3"}, 
 {"id":"bc552313-c126-4683-bb35-69a7f2392ac9","lat":35.71277710,"long":139.80339530,"status":"done","name":"隅田公園（向島１-６・７向）","address":"墨田区向島 １- ３","city":"墨田区","number":"15-01"}, 
 {"id":"bc58d159-fea6-472c-a2c7-6e92d866c621","lat":35.67249250,"long":139.88310620,"status":"done","name":"新川口児童遊園北側","address":"江戸川区江戸川5丁目32番地","city":"江戸川区","number":"189"}, 
 {"id":"bc5a6396-af1a-40ca-a88c-c3bd57c9caa5","lat":35.74638330,"long":139.60871540,"status":"done","name":"むくのき公園","address":"石神井町２－１８","city":"練馬区","number":"38-9"}, 
 {"id":"bc5d38e6-b8d0-40b2-9b43-b9159f877166","lat":35.75482580,"long":139.31313250,"status":"done","name":"羽村東小学校前","address":"羽東2－18－1","city":"羽村市","number":"1-5"}, 
 {"id":"bc6671c4-93ca-4c97-8d80-cdbf1b58aa61","lat":35.52192010,"long":139.46773740,"status":"done","name":"南第一小学校西門横","address":"南町田１－１０－１","city":"町田市","number":"2-3"}, 
 {"id":"bc6880d3-939e-4e33-af9c-c71939c777fd","lat":35.68291050,"long":139.78203850,"status":"done","name":"銀杏八幡宮","address":"日本橋蛎殻町1丁目7番7号","city":"中央区","number":"10-4"}, 
 {"id":"bc6a21b7-b55f-45e2-aad2-b71231d57367","lat":35.77118610,"long":139.67274120,"status":"done","name":"東京都住宅供給公社中台住宅７号棟","address":"若木2丁目13番7号","city":"板橋区","number":"36_6"}, 
 {"id":"bc6ca99f-1e3c-4c3d-8dcb-861d20e9cce2","lat":35.70792240,"long":139.83449400,"status":"done","name":"福寿公園","address":"墨田区立花 ３-２４- ３","city":"墨田区","number":"19-01"}, 
 {"id":"bc75a59c-d345-4d86-b7f3-91be9a41e901","lat":35.76257970,"long":139.68761340,"status":"done","name":"常盤台北口公園（東）","address":"常盤台2丁目20番20号","city":"板橋区","number":"20_7"}, 
 {"id":"bc75c645-4182-41ae-b1c7-1b05ca83f752","lat":35.56271780,"long":139.44916440,"status":"done","name":"日向台東公園前","address":"本町田１０５３－３４","city":"町田市","number":"21-5"}, 
 {"id":"bc7db894-9b77-432b-9686-d8e2a58ae7e9","lat":35.74343170,"long":139.60286350,"status":"done","name":"石神井庁舎北側","address":"石神井町３－３０－２６","city":"練馬区","number":"39-2"}, 
 {"id":"bc7de94f-fbf7-464d-be32-13cfefe30ede","lat":35.73025600,"long":139.58791110,"status":"done","name":"都営上石神井アパート上石神井保育園","address":"上石神井4-21-3","city":"練馬区","number":"44-8"}, 
 {"id":"bc8d1b71-13c7-4805-b6fd-b78000888703","lat":35.77719000,"long":139.71650890,"status":"done","name":"UR都市機構ヌーヴェル赤羽台エレベーターホール","address":"北区赤羽台1-4","city":"北区","number":"38-07"}, 
 {"id":"bc903bbc-7a4f-4763-84bd-e954ad1b0f1d","lat":35.67040900,"long":139.45867600,"status":"done","name":"松村氏所有地(畑)塀","address":"本宿町1-2","city":"府中市","number":"3-4"}, 
 {"id":"bc916e84-4b22-45e1-aa69-e7e06393ef8a","lat":35.77281330,"long":139.59197010,"status":"done","name":"大泉学園公園","address":"大泉学園町8－9","city":"練馬区","number":"59-4"}, 
 {"id":"bc9d907a-0c63-45f4-a9c8-33bedef3befb","lat":35.62043660,"long":139.65941690,"status":"done","name":"東京学芸大学附属世田谷中学校西側","address":"深沢4丁目3番1号","city":"世田谷区","number":"93-9"}, 
 {"id":"bc9e4ea8-a6e1-4dd7-961e-658ee3b291b5","lat":35.69054650,"long":139.59618560,"status":"done","name":"区営久我山四丁目アパート","address":"久我山4-13-18","city":"杉並区","number":"56-4"}, 
 {"id":"bca08b40-de4d-44a1-a273-479914b2318c","lat":35.56416840,"long":139.68588150,"status":"done","name":"矢口中学校 南側コンクリート塀","address":"下丸子二丁目23番１号","city":"大田区","number":"70-6"}, 
 {"id":"bca30d20-ac3f-4965-a4d2-2486cb925935","lat":35.72223640,"long":139.52088010,"status":"done","name":"多摩湖自転車道沿い","address":"花小金井南町3-34-42","city":"小平市","number":"23-8"}, 
 {"id":"bcaa38e5-cc65-4e3c-ae2c-88656b368ca9","lat":35.74044810,"long":139.65126170,"status":"done","name":"練馬けやき公園","address":"練馬2-9-4","city":"練馬区","number":"10-6"}, 
 {"id":"bcb20146-343c-4863-bae1-e8946db9f9c6","lat":35.66628110,"long":139.64494020,"status":"done","name":"弁天児童遊園東側","address":"松原3丁目22番12号","city":"世田谷区","number":"40-3"}, 
 {"id":"bcb80aa4-64d8-4a56-b15d-50e6002f96f1","lat":35.69429580,"long":139.38959340,"status":"done","name":"富士見町団地３３～３４号棟間東側植え込み","address":"富士見町６－３３","city":"立川市","number":"15－６"}, 
 {"id":"bcb9887f-6b65-4831-98ff-70896c631285","lat":35.69551340,"long":139.72032240,"status":"done","name":"区営河田町アパート集会所前","address":"新宿区河田町3-3","city":"新宿区","number":"18-03"}, 
 {"id":"bcbd416a-e552-4bfc-bf06-a3f6520f757e","lat":35.60019640,"long":139.65485730,"status":"done","name":"宇佐神社南側","address":"尾山台2丁目11番3号","city":"世田谷区","number":"107-3"}, 
 {"id":"bcc210ae-5821-4755-b58c-77664e378ba8","lat":35.77739200,"long":139.79520070,"status":"done","name":"梅島第一小学校(南側)","address":"足立区梅島3-37-4","city":"足立区","number":"30-01"}, 
 {"id":"bcc9569e-b524-4a2e-96ac-d224c4af1e21","lat":35.78570850,"long":139.72034950,"status":"done","name":"北区立第四岩淵小学校北側","address":"北区赤羽3-24-23","city":"北区","number":"33-04"}, 
 {"id":"bccadc92-6e9c-4720-af05-43e98042b392","lat":35.72559650,"long":139.46034730,"status":"done","name":"小川第2公園・南側","address":"小川町1-1035-5","city":"小平市","number":"7-1"}, 
 {"id":"bcd3fd47-6891-4fed-8f66-e41f6c7c5013","lat":35.68821540,"long":139.77016770,"status":"done","name":"常盤小学校南側","address":"日本橋本石町4丁目4番26号","city":"中央区","number":"8-3"}, 
 {"id":"bce30104-3d89-4957-a954-593a8f8c8e0e","lat":35.65845800,"long":139.60619370,"status":"done","name":"千歳中学校北側","address":"千歳台6丁目15番1号","city":"世田谷区","number":"54-5"}, 
 {"id":"bce4d142-c0c2-4f0b-9080-d69c06b9d3fd","lat":35.60236630,"long":139.66716220,"status":"done","name":"八幡小学校北側","address":"玉川田園調布2丁目17番15号","city":"世田谷区","number":"111-4"}, 
 {"id":"bcec3cae-b2e9-4543-bca7-ed4a60214dd7","lat":35.73847530,"long":139.77095180,"status":"done","name":"東京電力ホールディングス（株）旧荒川電力所東側コンクリート塀","address":"荒川区東尾久１－２１－２","city":"荒川区","number":"21-07"}, 
 {"id":"bcf002eb-b7b0-4e05-bd57-4644bc7010fc","lat":35.63980900,"long":139.75578440,"status":"done","name":"海岸三丁目１１番区道植込","address":"港区海岸３－１１","city":"港区","number":"40-7"}, 
 {"id":"bcf18dc1-8fed-4310-986a-4b5335c8e180","lat":35.76719030,"long":139.82537850,"status":"done","name":"東綾瀬公園(職業能力開発センター向かい)","address":"足立区綾瀬5-4","city":"足立区","number":"38-08"}, 
 {"id":"bcf4afc2-d3e2-4019-9370-31e453f7b741","lat":35.64026800,"long":139.56514400,"status":"done","name":"西和泉グランド東門左側植込(体育館寄り)","address":"西和泉1-16-1","city":"狛江市","number":"4-5"}, 
 {"id":"bcf6b326-2b59-4911-b16f-8216b506f7b5","lat":35.73358000,"long":139.55966180,"status":"done","name":"URプロムナード東伏見79号棟西側道路脇(南寄り)","address":"富士町1-7","city":"西東京市","number":"17-1"}, 
 {"id":"bd03405f-5ea3-43c8-b1c2-1d6af6c31376","lat":35.78362000,"long":139.29748790,"status":"done","name":"わかぐさ公園東側","address":"河辺町8丁目14番地の3","city":"青梅市","number":"30-6"}, 
 {"id":"bd1ab6f3-962b-4a1d-8589-9a34999fbdb5","lat":35.59162680,"long":139.68025130,"status":"done","name":"芝信用金庫雪が谷支店 駐車場南側鉄柵","address":"雪谷大塚町８番５号","city":"大田区","number":"3-4"}, 
 {"id":"bd1efb97-63f7-479a-9b48-cf435f066998","lat":35.73555500,"long":139.78017090,"status":"done","name":"三河島保育園東側鉄柵","address":"荒川区荒川３－５４－１","city":"荒川区","number":"11-01"}, 
 {"id":"bd21dfde-a001-43b5-a799-f5a3c4a90d91","lat":35.66881190,"long":139.47862270,"status":"done","name":"大國魂神社北側玉垣","address":"宮町3-1","city":"府中市","number":"17-5"}, 
 {"id":"bd24ff1c-8431-4d11-9588-2d09dcdc29bf","lat":35.70650800,"long":139.83618860,"status":"done","name":"旧平井第二小学校","address":"江戸川区平井6丁目1番17号","city":"江戸川区","number":"18"}, 
 {"id":"bd2fedc8-46c8-4722-b7d2-b9a95634c36a","lat":35.76530070,"long":139.75147240,"status":"done","name":"UR都市機構豊島五丁目団地南入口付近","address":"北区豊島5-4","city":"北区","number":"16-06"}, 
 {"id":"bd313634-7209-467d-9dd9-7597bd540c37","lat":35.72661070,"long":139.14739550,"status":"done","name":"人里公衆トイレ下","address":"1696番地","city":"檜原村","number":"6"}, 
 {"id":"bd3399ff-f1b7-418f-859f-343993f8309e","lat":35.72042910,"long":139.32223110,"status":"done","name":"さわやかピュアコインランドリー前","address":"小川１０５５－３","city":"あきる野市","number":"8-4"}, 
 {"id":"bd340f24-cbc3-487a-996d-ec877287214c","lat":35.77906240,"long":139.72345940,"status":"done","name":"聖母の騎士幼稚園東側","address":"北区赤羽2-1-12","city":"北区","number":"31-06"}, 
 {"id":"bd3a1138-8d9a-4564-8124-981d3faa4463","lat":35.77026030,"long":139.67348190,"status":"done","name":"公社中台住宅１号棟","address":"若木2丁目13番1号","city":"板橋区","number":"36_5"}, 
 {"id":"bd3d8927-ce1f-465b-b8f9-1ceac5ee784c","lat":35.74942080,"long":139.42274700,"status":"done","name":"芝中住宅イ23号棟東側フェンス","address":"蔵敷3-799-10","city":"東大和市","number":"2-6"}, 
 {"id":"bd3f3452-873c-42c7-b5be-70c365ed9e1f","lat":35.66923320,"long":139.71895310,"status":"done","name":"青山運動場管理棟左側鉄柵","address":"港区南青山2-21-12","city":"港区","number":"34-4"}, 
 {"id":"bd41ce11-0f67-4696-ab7c-bd835dd68cdc","lat":35.62890930,"long":139.40149830,"status":"done","name":"堀之内洗馬川公園東側道路沿い","address":"堀之内2-25-1","city":"八王子市","number":"050-2"}, 
 {"id":"bd438799-61b6-4c58-bdd0-e46e6c12b917","lat":35.68703380,"long":139.82125990,"status":"done","name":"都立科学技術高等学校東側","address":"大島1-2-31","city":"江東区","number":"35-7"}, 
 {"id":"bd5173c4-e645-4d1e-b165-7cfac19e23c1","lat":35.63002200,"long":139.59172400,"status":"done","name":"ひかり作業所右側フェンス際","address":"岩戸南3-11-9","city":"狛江市","number":"10-5"}, 
 {"id":"bd52d306-7f3e-4cbd-80ea-b92ecfe2ccb7","lat":35.67939380,"long":139.23530860,"status":"done","name":"小津町会館入口交差点","address":"小津町560","city":"八王子市","number":"132-2"}, 
 {"id":"bd62fd8a-16ce-49b3-aa8c-7d1865cf1bad","lat":35.66889000,"long":139.74191000,"status":"done","name":"赤坂榎坂町緑地前歩道植込","address":"港区赤坂１－７","city":"港区","number":"31-1"}, 
 {"id":"bd648be1-2f02-4baf-8cff-ee1103151291","lat":35.68323840,"long":139.82751990,"status":"done","name":"日本通運()株小名木川事業所西側","address":"北砂3-3-5","city":"江東区","number":"44-4"}, 
 {"id":"bd69b988-7c62-4621-b37b-176f835367c1","lat":35.69621230,"long":139.57415480,"status":"done","name":"井の頭恩賜公園東入口","address":"井の頭五丁目17番","city":"三鷹市","number":"12-5"}, 
 {"id":"bd6df693-ad40-4cec-9020-0583cd2d7d8b","lat":35.56603460,"long":139.72556320,"status":"done","name":"北蒲広場 南側フェンス","address":"蒲田二丁目10番１号","city":"大田区","number":"43-3"}, 
 {"id":"bd6e511f-1230-4e75-af16-1e13b0288492","lat":35.72327810,"long":139.28671110,"status":"done","name":"瀬沼商店北側道路際","address":"油平２４８","city":"あきる野市","number":"6-4"}, 
 {"id":"bd713f85-a04d-4a0e-a5bc-110208e64d06","lat":35.66659060,"long":139.57901120,"status":"done","name":"都営三鷹新川一丁目アパート集会所北側","address":"新川一丁目2番","city":"三鷹市","number":"2-1"}, 
 {"id":"bd72af98-0b14-4a5b-b81d-d36ef1dfaf4b","lat":35.66723580,"long":139.39999020,"status":"done","name":"駒形下公園 西側用水路柵","address":"川辺堀之内85-1","city":"日野市","number":"223"}, 
 {"id":"bd775e25-5cda-4255-8b62-d277bd1f9a6f","lat":35.75389310,"long":139.52529500,"status":"done","name":"落合川水生公園わき","address":"中央町一丁目５番","city":"東久留米市","number":"１０・６"}, 
 {"id":"bd7c4a84-81e0-46f4-a730-b3acade29db4","lat":35.74304770,"long":139.55751150,"status":"done","name":"泉町きつつき公園東側柵(北寄り)","address":"泉町5-9","city":"西東京市","number":"20-2"}, 
 {"id":"bd7fa73f-49ca-48e2-bbce-d260528f9f2d","lat":35.66134410,"long":139.53177150,"status":"done","name":"上石原配水所東側道路沿フェンス","address":"上石原1-34-7","city":"調布市","number":"30-1"}, 
 {"id":"bd809bd6-b07d-4152-a418-ff80f77e535d","lat":35.57794810,"long":139.69950890,"status":"done","name":"（株）寺岡精工本社 西側バスケットコートフェンス","address":"久が原五丁目13番12号","city":"大田区","number":"9-4"}, 
 {"id":"bd81ea67-35e4-4b23-a025-28dde25b5b9c","lat":35.57438710,"long":139.72839650,"status":"done","name":"富士見橋保育園 南側フェンス","address":"大森西三丁目２番２号","city":"大田区","number":"25-7"}, 
 {"id":"bd84f6ae-e3f8-40a2-9c06-82e519f707d7","lat":35.72310000,"long":139.88465700,"status":"done","name":"南小岩小学校南側","address":"江戸川区南小岩4丁目16番1号","city":"江戸川区","number":"269"}, 
 {"id":"bd897293-3c3b-40e1-9f12-3b41b5a238e4","lat":35.72448400,"long":139.79805250,"status":"done","name":"区立東浅草小学校表門ヘイ","address":"東浅草２丁目２７番１９号","city":"台東区","number":"24-1"}, 
 {"id":"bd8efb91-e7f8-4ca5-bbad-6c025a02beab","lat":35.67177110,"long":139.21625450,"status":"done","name":"夕やけ小やけふれあいの里育苗園(温室)前植込","address":"上恩方町2008先","city":"八王子市","number":"131-3"}, 
 {"id":"bd9050f2-a1d4-4cd1-b575-c42d3fa5c8ef","lat":35.68602060,"long":139.45130850,"status":"done","name":"ＵＲ都市機構第1団地36号棟北側緑地","address":"富士見台1-28-19ＵＲ都市機構第1団地36号棟北側緑地","city":"国立市","number":"9-5"}, 
 {"id":"bd9826fe-c370-4f7e-8aef-264b34cfe4e8","lat":35.66702280,"long":139.67756090,"status":"done","name":"上原中学校② 西側植込み","address":"上原3丁目41番2号","city":"渋谷区","number":"24-7"}, 
 {"id":"bd98d1de-c960-4d26-b11f-d87c2e8cb86c","lat":35.75423580,"long":139.78979370,"status":"done","name":"帝京科学大学千住キャンパス8号館(東側)","address":"足立区千住桜木2-3-1","city":"足立区","number":"09-04"}, 
 {"id":"bd98e290-e48a-48cb-8e7f-e8c02f08fa29","lat":35.74901400,"long":139.53405000,"status":"done","name":"南中学校南側","address":"学園町二丁目１番","city":"東久留米市","number":"１４・１"}, 
 {"id":"bd9ad767-e882-4b2c-84aa-b11e506c8528","lat":35.72230060,"long":139.72720330,"status":"done","name":"豊島岡御陵北側アルミフェンス東寄り","address":"文京区大 塚 ５丁目３９番","city":"文京区","number":"26-04"}, 
 {"id":"bd9c071b-02ff-46ea-8dc2-df59d7f61e3f","lat":35.71815360,"long":139.31583720,"status":"done","name":"小川交差点西側畑","address":"小川１８－１","city":"あきる野市","number":"8-2"}, 
 {"id":"bd9ea8df-2c10-4f22-be96-6dbf1e7c868d","lat":35.78517320,"long":139.68235680,"status":"done","name":"坂下三丁目緑地（南）","address":"坂下3丁目9番19号","city":"板橋区","number":"39_7"}, 
 {"id":"bda66d11-4635-4570-a6c8-2695d7629b23","lat":35.76414310,"long":139.66560660,"status":"done","name":"NTT東日本北町営業所裏塀","address":"北町１－１２－１","city":"練馬区","number":"22-5"}, 
 {"id":"bda7f099-c4bf-446d-91a7-68dc17289299","lat":35.64390690,"long":139.53754590,"status":"done","name":"多摩川五丁目児童遊園北側道路","address":"多摩川5-3-6","city":"調布市","number":"04-6"}, 
 {"id":"bdafab24-d9e4-41db-ac31-9924d4c4996a","lat":35.68272760,"long":139.48812050,"status":"done","name":"東京農工大学牛舎西側フェンス","address":"天神町3-2","city":"府中市","number":"23-1"}, 
 {"id":"bdb05d53-1daa-4506-abb2-8c7daccf2dd8","lat":35.55358370,"long":139.74259510,"status":"done","name":"南前堀緑地 南側植込","address":"東糀谷三丁目９番２号 先","city":"大田区","number":"49-5"}, 
 {"id":"bdbdd5e6-79ff-4e16-87c1-66bd599ba3c9","lat":35.67181240,"long":139.27297150,"status":"done","name":"よしの沢公園南側植込","address":"川町128-318","city":"八王子市","number":"116-5"}, 
 {"id":"bdc19b2e-357e-4729-8b23-3cb769698291","lat":35.65926530,"long":139.60420880,"status":"done","name":"都立芦花高等学校東側","address":"粕谷3丁目8番1号","city":"世田谷区","number":"54-7"}, 
 {"id":"bdcf5722-8ae6-4c52-af26-7cf8d8c6b1ea","lat":35.77823200,"long":139.62592360,"status":"done","name":"成増一丁目向新田の森（西）","address":"成増1丁目35番16号","city":"板橋区","number":"49_8"}, 
 {"id":"bde0ef59-1271-4865-94cc-45a85d01238f","lat":35.69399250,"long":139.56014520,"status":"done","name":"八幡神社バス停横","address":"下連雀四丁目18番","city":"三鷹市","number":"17-3"}, 
 {"id":"bde2bf10-0e0b-45de-a3b1-669fff519649","lat":35.60706530,"long":139.49979040,"status":"done","name":"平尾ショッピングセンター向側","address":"平尾 2-16-10","city":"稲城市","number":"9-3"}, 
 {"id":"bde4bd9f-0e38-4b69-811a-ebdf9c9519b2","lat":35.56305120,"long":139.70343290,"status":"done","name":"小林児童公園 北側鉄柵","address":"東矢口三丁目11番26号","city":"大田区","number":"65-7"}, 
 {"id":"bde58ff8-783c-4ee5-9767-e5cb413595eb","lat":35.63176600,"long":139.58403700,"status":"done","name":"岩戸第二児童遊園内フェンス際","address":"岩戸南1-2-12","city":"狛江市","number":"3-7"}, 
 {"id":"bde8f907-070c-472b-96d2-42210263e7c1","lat":35.63467900,"long":139.69395700,"status":"done","name":"目黒中央中学校西側","address":"中町2-37-38","city":"目黒区","number":"15-01"}, 
 {"id":"bdee155f-39a2-4220-ab17-13c82c161b69","lat":35.61258500,"long":139.67943300,"status":"done","name":"中根住区センター前","address":"大岡山1-37-2","city":"目黒区","number":"34-01"}, 
 {"id":"bdf999a3-c5b1-4d36-8922-b85a74c0bb3c","lat":35.61382400,"long":139.69498000,"status":"done","name":"旧第九中学校南西側","address":"洗足1-29-26","city":"目黒区","number":"25-05"}, 
 {"id":"bdfd1f12-6d7e-48a0-801f-9e4a999747ce","lat":35.71988230,"long":139.26838700,"status":"done","name":"masked","address":"引田795-1","city":"あきる野市","number":"10-6"}, 
 {"id":"bdfe0c60-fe5f-4d5b-8007-4311c2ef0c49","lat":35.75214090,"long":139.43984780,"status":"done","name":"都営狭山4丁目アパート東側広場","address":"狭山4-1457-2","city":"東大和市","number":"12-1"}, 
 {"id":"bdffe778-d444-4b00-9fec-d351c3938241","lat":35.72121330,"long":139.26658000,"status":"done","name":"masked","address":"引田729-1","city":"あきる野市","number":"10-4"}, 
 {"id":"be0f03da-d2d1-468f-b355-75731bdf4d30","lat":35.63637340,"long":139.58100160,"status":"done","name":"masked","address":"岩戸北1-6","city":"狛江市","number":"14-7"}, 
 {"id":"be0fb205-d104-4877-a7d4-0c4adc2a839f","lat":35.70170900,"long":139.67162750,"status":"done","name":"桃園川緑道中央分離帯（中央4-41-3） 植込","address":"中央4-41-3","city":"中野区","number":"14-3"}, 
 {"id":"be129209-48c2-49b0-885f-706d60a995b0","lat":35.78728200,"long":139.79225920,"status":"done","name":"六月町公園(西側)","address":"足立区六月3-17-1","city":"足立区","number":"53-08"}, 
 {"id":"be196e8e-342d-4904-923c-2e03f34a7b3f","lat":35.61722400,"long":139.69891400,"status":"done","name":"サイクルスポット西小山店前植込","address":"目黒本町5-7","city":"目黒区","number":"24-06"}, 
 {"id":"be1cdff4-2788-41aa-8ba6-752b4be4395c","lat":35.70481660,"long":139.50477650,"status":"done","name":"小野建設南側植木畑","address":"本町5-37","city":"小金井市","number":"137-3"}, 
 {"id":"be1e6ebc-11cd-40cb-9b21-f2f7a51c71f4","lat":35.70134290,"long":139.56611480,"status":"done","name":"玉川上水遊歩道 フェンス沿い","address":"御殿山2-14","city":"武蔵野市","number":"9~6"}, 
 {"id":"be2872f2-4079-463c-8d29-33093b14b066","lat":35.69377430,"long":139.79520980,"status":"done","name":"両国小学校（両国４-２７向）","address":"墨田区両国 ４-２６- ６","city":"墨田区","number":"02-05"}, 
 {"id":"be29dbfa-226d-435b-9d3d-92c25f9f1842","lat":35.61213300,"long":139.66609600,"status":"done","name":"自由ヶ丘学園高校南側","address":"自由が丘2-21","city":"目黒区","number":"33-01"}, 
 {"id":"be2c6df9-0abf-41e5-b824-69654a80beb3","lat":35.83370050,"long":139.28984670,"status":"done","name":"民家南側","address":"富岡2丁目790番地の1","city":"青梅市","number":"21-4"}, 
 {"id":"be2f14d7-13a0-4cb7-8452-35092f347e50","lat":35.64414100,"long":139.68829600,"status":"done","name":"寿福寺前バス停横","address":"上目黒5-13","city":"目黒区","number":"04-07"}, 
 {"id":"be2f9120-0c80-423d-9d64-906a6cc367f3","lat":35.80042520,"long":139.83729190,"status":"done","name":"神明水の森公園(南東側)","address":"足立区神明3-29","city":"足立区","number":"75-01"}, 
 {"id":"be3267c1-7202-4a12-ba9a-72b64470bd5e","lat":35.76790350,"long":139.79065620,"status":"done","name":"地域包括支援センター関原(南側)","address":"足立区関原2-10-10","city":"足立区","number":"25-06"}, 
 {"id":"be33df9a-316d-4b4f-8dd5-6339e07bc7f7","lat":35.75296940,"long":139.73414770,"status":"done","name":"北区役所駐車場側植込","address":"北区王子本町1-15-22","city":"北区","number":"19-01"}, 
 {"id":"be3803b2-82da-4176-8ff0-79026e316f9e","lat":35.64477680,"long":139.72562980,"status":"done","name":"北里大学白金キャンパス北側入口左側塀","address":"港区白金５－９－１","city":"港区","number":"15-1"},