[{"id":"f2ba44cf-c2ac-44ce-8dd4-0e6e455e5ab2","lat":38.18365040,"long":140.61467380,"status":"done","name":"立野地区集落センター西側","address":"川崎町大字今宿字立野屋敷１６－１","city":"川崎町","number":"第５（立野）"}, 
 {"id":"f2c0b500-84f4-4b01-a224-26684d839fba","lat":38.42887120,"long":141.07562870,"status":"done","name":"松島町農村婦人の家前","address":"幡谷字吉崎４６－１","city":"松島町","number":"幡谷"}, 
 {"id":"f2c26530-e2a7-4ee5-bb45-560cb672dd3b","lat":38.68965520,"long":141.46531350,"status":"done","name":"南三陸町総合体育館町道側法面","address":"南三陸町志津川字沼田５６","city":"南三陸町","number":"第５投票区"}, 
 {"id":"f2ce9514-0af5-48d8-9883-956ddb522c29","lat":38.44437550,"long":140.87569530,"status":"done","name":"masked","address":"大和町吉岡南二丁目２８－３","city":"大和町","number":"吉岡第３投票区"}, 
 {"id":"f2d2184c-4e80-414a-b1c9-9b89716fb36d","lat":38.59715370,"long":140.71346110,"status":"done","name":"masked","address":"加美町字小瀬屋敷２１番地","city":"加美町","number":"第８投票区"}, 
 {"id":"f31c4449-7f12-493f-a640-135dc4fb429f","lat":38.31931550,"long":140.99678980,"status":"done","name":"四季の丘１号公園　南側　（フェンス）","address":"利府町加瀬字十三本塚１６３","city":"利府町","number":"第５投票区（５－３）"}, 
 {"id":"f32873d9-db74-4c16-acd9-699000610a95","lat":37.97138200,"long":140.62576300,"status":"done","name":"masked","address":"斎川字谷地５－１","city":"白石市","number":"62"}, 
 {"id":"f32aa5c0-c505-42ca-a247-42f4f86e2d87","lat":38.85860240,"long":141.52279710,"status":"not_yet","name":"masked","address":"赤岩四十二４３","city":"気仙沼市","number":"54"}, 
 {"id":"f32da09c-b4a5-49af-87ac-f54d02367120","lat":38.42973890,"long":141.09939340,"status":"done","name":"masked","address":"北小泉字宮田前６３","city":"松島町","number":"北小泉"}, 
 {"id":"f333ebd8-a5a1-4b88-af50-f2bfbb6f30d7","lat":38.22693600,"long":140.88656600,"status":"done","name":"JR長町駅東口広場（駐輪場脇植栽）","address":"太白区あすと長町一丁目6地内","city":"仙台市","number":"65"}, 
 {"id":"f33b5002-b2b7-4ff9-b4ef-44bd2443b6fc","lat":38.31255860,"long":141.02545360,"status":"done","name":"カトリック塩釜教会フェンス","address":"新富町１５番１号","city":"塩竈市","number":"103"}, 
 {"id":"f33c1730-c79b-42c1-8ec9-5fd88ea3fbfe","lat":38.42668900,"long":141.20646700,"status":"done","name":"東松島市民体育館フェンス","address":"小松字上浮足１６４番地","city":"東松島市","number":"9"}, 
 {"id":"f3417d33-12c8-4ed2-aca7-aa993afc5104","lat":38.81246650,"long":141.03762800,"status":"not_yet","name":"masked","address":"金成大原木百目鬼10番地1","city":"栗原市","number":"263"}, 
 {"id":"f35fc3b7-001e-478e-807d-8227a770648b","lat":38.26899650,"long":140.85491480,"status":"done","name":"八幡一丁目2番12号東側","address":"青葉区八幡一丁目2番先(112番地)","city":"仙台市","number":"107"}, 
 {"id":"f36e8bac-9c39-4ebe-a189-9d46d101aff3","lat":38.27221950,"long":140.74428590,"status":"done","name":"二岩町内会集会所","address":"青葉区上愛子字車４６番地の１","city":"仙台市","number":"232"}, 
 {"id":"f36fc55e-00ae-4530-b50f-56421d809e37","lat":38.26925080,"long":140.93281650,"status":"done","name":"日の出自動車学校北側","address":"宮城野区日の出町二丁目1番13号","city":"仙台市","number":"13"}, 
 {"id":"f371e021-88a5-4eac-832f-dffba9ee412f","lat":38.30949330,"long":141.01422150,"status":"done","name":"遠藤洋品店隣駐車場フェンス","address":"桜ケ丘１１番地先","city":"塩竈市","number":"32"}, 
 {"id":"f37e17de-95d6-40e8-a9d0-b88b41a27809","lat":38.90352330,"long":141.54851940,"status":"not_yet","name":"竹の里（カフェ桃李の花）　南側　土手","address":"茗荷沢３－２","city":"気仙沼市","number":"55"}, 
 {"id":"f37e8069-953e-42ef-ba79-e5fceda9c239","lat":38.30542800,"long":140.95022600,"status":"done","name":"洞ノ口交差点西側交差点南側（道路敷）","address":"宮城野区岩切字若宮前72番地内","city":"仙台市","number":"186"}, 
 {"id":"f3849872-e610-4c48-8c4a-5b9c9b274ab2","lat":38.43351070,"long":141.19676880,"status":"done","name":"住宅ブロック塀","address":"小松字沖砂利前８番地５","city":"東松島市","number":"37"}, 
 {"id":"f38fbb5b-f852-45a4-946c-3eb439f66590","lat":38.39785540,"long":140.86565460,"status":"done","name":"荒井公民館前（町道山下大沢線側）","address":"大和町小野字荒井２１２","city":"大和町","number":"宮床第３投票区"}, 
 {"id":"f3b21719-921f-437f-8bb1-27be5b2fc1a0","lat":38.14555610,"long":140.53588390,"status":"done","name":"大河原警察署青根駐在所隣駐車場","address":"川崎町青根温泉２－15","city":"川崎町","number":"第４（青根）"}, 
 {"id":"f3cbd385-268b-4a37-962b-eee33c2684f9","lat":38.44721660,"long":140.99624150,"status":"done","name":"石原住民バス停前","address":"大郷町粕川字道北１－１地先","city":"大郷町","number":"第４投票区"}, 
 {"id":"f3d4d598-149f-4240-bfc5-90b533c96dc3","lat":37.94879500,"long":140.79867600,"status":"done","name":"masked","address":"枝野字泉田７","city":"角田市","number":"49"}, 
 {"id":"f3e7207d-23bb-46c2-9676-255c3feb513b","lat":38.27256000,"long":140.92866500,"status":"done","name":"仙台市川北公園南側","address":"宮城野区新田五丁目8番","city":"仙台市","number":"22"}, 
 {"id":"f3ed99bf-4ee1-40ca-9835-41fd9adb5588","lat":38.64495500,"long":141.27752700,"status":"error_wrong_place","name":"masked","address":"登米町寺池道場地内","city":"登米市","number":"55"}, 
 {"id":"f3fbbb12-0a6a-48c3-abdb-03d5a020d0ab","lat":38.31221520,"long":141.02768530,"status":"done","name":"サトウハイツ付近道路フェンス","address":"新富町14番4号地先","city":"塩竈市","number":"104"}, 
 {"id":"f3fd527c-373e-4162-b29d-b26da14077db","lat":38.31426600,"long":140.56457500,"status":"done","name":"masked","address":"太白区秋保町馬場字中84-3","city":"仙台市","number":"253"}, 
 {"id":"f3fed02c-3b80-482d-9a38-e6c4495a5afb","lat":38.58879940,"long":141.16867610,"status":"not_yet","name":"八幡・岸ヶ森西　三差路","address":"涌谷町小里字岸ヶ森西519番地","city":"涌谷町","number":"第９投票区"}, 
 {"id":"f408e1d2-b03f-402d-82ce-b623cf8b07ab","lat":38.26260060,"long":140.90004720,"status":"done","name":"仙台市立宮城野中学校南側通用門脇","address":"宮城野区五輪一丁目4番25号","city":"仙台市","number":"46"}, 
 {"id":"f417e199-e045-4b4c-a744-bf242d5eb293","lat":38.52346800,"long":140.95982400,"status":"done","name":"三本木下三区地区コミュニティセンター前","address":"三本木桑折字八幡東３番地２","city":"大崎市","number":"172"}, 
 {"id":"f41baf13-fc1c-4896-8ee1-7142130904b3","lat":37.98995600,"long":140.77528400,"status":"done","name":"個人所有地（阿武急横倉駅入口：畑）","address":"横倉字左関２５８－３","city":"角田市","number":"33"}, 
 {"id":"f433c9ca-719f-4a7a-a55d-33b6a9c3e67d","lat":38.29856500,"long":141.41758700,"status":"not_yet","name":"masked","address":"田代浜字仁斗田１３７番地先","city":"石巻市","number":"6"}, 
 {"id":"f435f6cd-aae8-4487-8c27-0b3511015d10","lat":38.63998910,"long":141.42351970,"status":"not_yet","name":"西戸地区集会所付近","address":"南三陸町戸倉字日向３９－１付近","city":"南三陸町","number":"第１投票区"}, 
 {"id":"f441188a-bc8f-4ded-b08d-8a779ce8f19d","lat":38.26204410,"long":140.86066590,"status":"done","name":"仙台市西公園（トークネットホール仙台南側)","address":"青葉区桜ケ岡公園３番内(3番地の2外)","city":"仙台市","number":"76"}, 
 {"id":"f4422b1a-a5d0-4837-98d9-f2cd4ef4a1f8","lat":38.48205600,"long":141.37449600,"status":"not_yet","name":"水沼西生活センター脇畑地","address":"水沼字横路４番地３","city":"石巻市","number":"178"}, 
 {"id":"f44549c2-e334-466f-b111-3cb96cfcee72","lat":38.64546740,"long":141.14901120,"status":"not_yet","name":"大袋地内土手駐車場","address":"南方町大袋地内","city":"登米市","number":"245"}, 
 {"id":"f457592f-7101-480a-9063-c5800f916a2b","lat":38.04507440,"long":140.70620600,"status":"done","name":"金ケ瀬公民館フェンス","address":"大河原町金ケ瀬字原８８","city":"大河原町","number":"07-04"}, 
 {"id":"f4723503-5626-4233-b770-a54f08255685","lat":38.56440060,"long":141.04805950,"status":"done","name":"masked","address":"平針字中川前三番４番地２先","city":"美里町","number":"第８投票区"}, 
 {"id":"f473d0a2-452d-461e-ba13-95102baab65d","lat":38.30211040,"long":140.88731160,"status":"done","name":"旭丘堤橋北西側たもと","address":"泉区旭丘堤二丁目１２－３０４","city":"仙台市","number":"117"}, 
 {"id":"f4907188-b880-4fea-a9e4-247d9c06b5db","lat":38.47008900,"long":141.09150700,"status":"done","name":"masked","address":"鹿島台平渡字吹上６７番地","city":"大崎市","number":"212"}, 
 {"id":"f492bb76-1f75-4b3d-9edc-785f5258db89","lat":38.17368220,"long":140.74827880,"status":"done","name":"櫛道生活センター前","address":"村田町大字菅生字櫛挽150","city":"村田町","number":"13-04"}, 
 {"id":"f49597bf-4ff9-4d01-9826-094ed30b846e","lat":38.28348500,"long":141.00291400,"status":"done","name":"コジマ×ビックカメラ多賀城店駐車場南側（フェンス）","address":"町前二丁目７番地内","city":"多賀城市","number":"114"}, 
 {"id":"f498c1c4-e474-44a1-947f-31ff02eabcf7","lat":38.06164580,"long":140.80055790,"status":"done","name":"剣崎公園内","address":"剣崎２丁目５－１","city":"柴田町","number":"第９投票区"}, 
 {"id":"f49e839b-86f2-4aa2-99f1-80f431e668cb","lat":38.51946300,"long":141.08280900,"status":"done","name":"須摩屋公会堂前","address":"松山須摩屋字新江下25番地1","city":"大崎市","number":"152"}, 
 {"id":"f4adcc08-c1c9-48d9-8cd3-d557bd5d9a23","lat":38.64494240,"long":141.41269330,"status":"done","name":"荒町ふれあいセンター敷地","address":"南三陸町戸倉字町２７－２","city":"南三陸町","number":"第１投票区"}, 
 {"id":"f4aedd11-e89c-42e1-80a7-c7043fe1a003","lat":38.74414400,"long":140.94220000,"status":"done","name":"鎌折丁字路（道路敷）","address":"一迫真坂字鎌折1番3","city":"栗原市","number":"177"}, 
 {"id":"f4be47cf-85ee-4e9b-bc2c-64dc10532d20","lat":38.54440510,"long":140.83530400,"status":"done","name":"masked","address":"色麻町四𥧄字新徳明58番地2","city":"色麻町","number":"第１投票区"}, 
 {"id":"f4bf6274-3686-44fa-950c-cc446bf2e2e6","lat":38.01465600,"long":140.61888100,"status":"done","name":"福岡公民館前","address":"福岡長袋字陣場が丘１２－１","city":"白石市","number":"114"}, 
 {"id":"f4c59b5f-d490-4efb-a8a7-a91788825cec","lat":38.10081290,"long":140.72321840,"status":"done","name":"masked","address":"村田町大字小泉字高田41－1","city":"村田町","number":"05-01"}, 
 {"id":"f4d0129b-e15e-4967-ad3b-52a33d9f563d","lat":38.46923400,"long":141.06546000,"status":"done","name":"個人所有地内","address":"鹿島台深谷字南堀籠７４番地１","city":"大崎市","number":"220"}, 
 {"id":"f4d7b497-34a1-4719-af7a-e71804e9d1b1","lat":38.59389100,"long":141.00508100,"status":"done","name":"長岡針公会堂","address":"古川長岡針字新輪野内６５番地","city":"大崎市","number":"109"}, 
 {"id":"f4e68d5e-1dcd-4a4f-8e2a-910e5691f771","lat":38.58352700,"long":140.89582800,"status":"done","name":"大崎市西古川地区公民館","address":"古川保柳字氏子２０２番地","city":"大崎市","number":"69"}, 
 {"id":"f4f16921-cc9a-444e-a06a-673ef6479d06","lat":38.57824550,"long":140.95530150,"status":"done","name":"旧大崎市民病院南病棟向い立体駐車場","address":"古川千手寺町１丁目３番２４","city":"大崎市","number":"1"}, 
 {"id":"f4fa6f11-93ff-4ade-aaad-436173ffaa35","lat":38.29138200,"long":140.91792300,"status":"done","name":"仙台市鶴ケ谷中央公園西側","address":"宮城野区鶴ケ谷六丁目1番","city":"仙台市","number":"106"}, 
 {"id":"f4fc1676-7138-4510-b609-6a92ec980289","lat":38.25936920,"long":140.91921200,"status":"done","name":"仙台市立東宮城野小学校東側","address":"宮城野区東宮城野5番1号","city":"仙台市","number":"34"}, 
 {"id":"f518aecd-e585-4fb7-8721-248f38edd2c4","lat":38.26229650,"long":140.99989150,"status":"done","name":"仙台市西原排水機場東側","address":"宮城野区蒲生二丁目1番4号","city":"仙台市","number":"169"}, 
 {"id":"f51c1c8f-eb78-4a6c-af4c-4d9d4b509076","lat":38.87223400,"long":141.08917200,"status":"done","name":"masked","address":"金成片馬合佐野原38番地1","city":"栗原市","number":"239"}, 
 {"id":"f52047d9-a330-4127-92e1-98d28c159008","lat":38.29681100,"long":140.82178380,"status":"done","name":"仙台市中山吉成二丁目公園","address":"青葉区中山吉成二丁目２番内(66番地の281)","city":"仙台市","number":"321"}, 
 {"id":"f52d0f9a-8e6c-4487-bf09-7ef4ed3e04d7","lat":38.34133900,"long":140.88513200,"status":"done","name":"明石南五丁目南公園西側","address":"泉区明石南五丁目2地内（明石南五丁目2-2付近）","city":"仙台市","number":"270"}, 
 {"id":"f537ac1c-3ab7-4c88-a2f4-af6ac73fcb72","lat":38.26861800,"long":140.83454780,"status":"done","name":"聖橋南側","address":"青葉区八幡六丁目１１番先(42番地の44）","city":"仙台市","number":"104"}, 
 {"id":"f53e937b-4cbe-46b3-ad8e-ccba0f91df16","lat":38.29244870,"long":141.04057520,"status":"done","name":"masked","address":"大代五丁目８－１２","city":"多賀城市","number":"92"}, 
 {"id":"f543bf56-1859-40cd-8b10-d694557dcd1c","lat":38.20628210,"long":140.58164760,"status":"done","name":"川崎町公民館古関分館前","address":"川崎町大字今宿字叺畑８－１","city":"川崎町","number":"第７（古関）"}, 
 {"id":"f54980dd-7261-459b-9aa1-64d7205c9e1f","lat":38.24219530,"long":140.63213720,"status":"done","name":"個人所有畑地","address":"川崎町大字本砂金字山崎１０６－６","city":"川崎町","number":"第１１（川内）"}, 
 {"id":"f555f58f-51bd-490e-a7ee-e8568311fe92","lat":38.34468980,"long":140.99742170,"status":"done","name":"資材置き場　西側　（野立て）","address":"利府町春日字新堀１４－１","city":"利府町","number":"第７投票区（７－２）"}, 
 {"id":"f5673926-b799-46bf-b1b1-d7b7ea42bbca","lat":38.42000200,"long":141.22496000,"status":"done","name":"ウッディーゴルフスクエアー矢本東側空地","address":"矢本字蜂谷浦１４５番地２","city":"東松島市","number":"27"}, 
 {"id":"f57208d8-6e08-4f1a-9462-bfe867dd3244","lat":38.27234240,"long":140.85154990,"status":"done","name":"八幡二丁目1番12号東側","address":"青葉区八幡二丁目1番先（363番地の4）","city":"仙台市","number":"106"}, 
 {"id":"f5760a93-2aac-4298-9b88-6386d6db03b1","lat":38.37398500,"long":141.14556900,"status":"done","name":"住宅北側空地","address":"新東名一丁目１５番地５","city":"東松島市","number":"110"}, 
 {"id":"f58b9f75-3ce4-4c19-81ad-5c4560be97bd","lat":38.34997340,"long":140.96674200,"status":"done","name":"さわおと北公園　入口　（野立て）","address":"利府町しらかし台五丁目１８－２","city":"利府町","number":"第９投票区（９－６）"}, 
 {"id":"f5b54e25-1089-4f03-a0af-7fa9068c49b5","lat":38.40117610,"long":140.89013430,"status":"done","name":"富谷中央公民館南側フェンス","address":"富谷市富谷西沢１３","city":"富谷市","number":"01-03"}, 
 {"id":"f5daa6d1-e5af-4363-a7bc-fba6a3f90d32","lat":38.51114700,"long":141.01033000,"status":"done","name":"松山下伊場野地区公民館","address":"松山下伊場野字松木６番地","city":"大崎市","number":"155"}, 
 {"id":"f5e03e70-945c-4abf-bc2e-5a4ad280a855","lat":38.70680210,"long":141.42927560,"status":"not_yet","name":"横断１号線天神路肩","address":"南三陸町入谷字天神１８８","city":"南三陸町","number":"第９投票区"}, 
 {"id":"f5e503ea-bc86-4a30-a93d-341c30a24ef6","lat":37.95213700,"long":140.54588300,"status":"done","name":"学校下バス停留所脇","address":"小原字伊勢原道下１－２","city":"白石市","number":"168"}, 
 {"id":"f5ed8e7e-8c19-4aa5-ac76-b7f8e6ef7ce2","lat":38.37280110,"long":140.87851570,"status":"done","name":"大清水一丁目第１公園西側柵","address":"富谷市大清水一丁目３ー３","city":"富谷市","number":"09-08"}, 
 {"id":"f5f0ba67-d049-4189-8285-8643bf45d4a0","lat":38.31485770,"long":141.00093060,"status":"done","name":"大日向町バス停前法面","address":"大日向町１番地内","city":"塩竈市","number":"11"}, 
 {"id":"f5fa1b0b-44cb-481e-8e60-de23cba73b47","lat":38.55980900,"long":141.05228800,"status":"done","name":"masked","address":"牛飼字御蔵場１４番地","city":"美里町","number":"第１投票区"}, 
 {"id":"f616e357-0982-49ce-9909-b9ba674f7157","lat":38.34499000,"long":140.88319400,"status":"done","name":"明石南六丁目公園西側入口","address":"泉区明石南六丁目15（明石南六丁目1-1付近）","city":"仙台市","number":"271"}, 
 {"id":"f6178070-fb31-4519-91d9-f7bc5850288f","lat":38.03431630,"long":140.85796360,"status":"done","name":"民家前ブロック塀","address":"亘理町字中町東１７９番２","city":"亘理町","number":"亘理第１投票区"}, 
 {"id":"f6389fb1-9ab9-41ff-bb27-febdb802309b","lat":38.03084200,"long":140.70185900,"status":"done","name":"白川水稲生産組合前","address":"白川小奥字表前７１","city":"白石市","number":"101"}, 
 {"id":"f63d5cc7-402c-4c9b-a627-53f5fc0196ca","lat":38.28661970,"long":140.88833690,"status":"done","name":"仙台市小松島四丁目公園南側","address":"青葉区小松島四丁目14番地内（28番地の29外）","city":"仙台市","number":"215"}, 
 {"id":"f662876f-9c31-4005-9bb5-3605330c288b","lat":38.84134100,"long":141.62014920,"status":"done","name":"masked","address":"masked","city":"気仙沼市","number":"79"}, 
 {"id":"f6679748-09b3-4fe6-b6d5-0ce982afcde2","lat":38.18204100,"long":140.82560700,"status":"done","name":"masked","address":"高舘川上字西樽水８１番地２","city":"名取市","number":"125"}, 
 {"id":"f66bad01-4c84-4bb0-af7e-8a913aaceeed","lat":38.49918090,"long":141.12099830,"status":"done","name":"masked","address":"大柳字明神１番地２","city":"美里町","number":"第１４投票区"}, 
 {"id":"f678282a-f5e1-4652-8f67-342b76a8a03f","lat":38.35357300,"long":141.51756300,"status":"not_yet","name":"泊浜防災集団移転団地入口","address":"泊浜台１１番地３地先","city":"石巻市","number":"403"}, 
 {"id":"f68304b0-07de-4378-a6ae-9a534fd47768","lat":38.42724560,"long":141.31652130,"status":"done","name":"湊小学校校庭国道沿い","address":"吉野町１丁目３番２１号","city":"石巻市","number":"80"}, 
 {"id":"f688c3f0-8729-447a-8d4a-013ba9cb4b19","lat":38.60770000,"long":141.05476400,"status":"done","name":"masked","address":"田尻沼部字峯崎２番地２","city":"大崎市","number":"339"}, 
 {"id":"f692db0e-f808-413a-8074-4c31216f0779","lat":38.63083550,"long":141.51732940,"status":"done","name":"神割崎入口","address":"南三陸町戸倉字太田４－３","city":"南三陸町","number":"第２投票区"}, 
 {"id":"f6a42737-6949-48f3-b33a-ad79bebe5eff","lat":38.27543680,"long":140.90989380,"status":"done","name":"仙台市宮の杜なかのさと公園西側","address":"宮城野区東仙台四丁目８番","city":"仙台市","number":"124"}, 
 {"id":"f6b20468-8a86-4728-9b41-b0c4969cf159","lat":38.01793300,"long":140.78572100,"status":"done","name":"岡駅前ゲートボール場（敷地）","address":"岡字内越７－４先","city":"角田市","number":"106"}, 
 {"id":"f6b3b955-eeb4-4a6a-921c-fe5abcc0641b","lat":38.42213800,"long":141.20349100,"status":"done","name":"東松島市立矢本西小学校南側フェンス","address":"矢本字四反走６３番地","city":"東松島市","number":"6"}, 
 {"id":"f6bba62a-4304-45d2-8fad-92abfb96a236","lat":38.02312100,"long":140.63772600,"status":"done","name":"masked","address":"小下倉字岩崎山３９－１","city":"白石市","number":"35"}, 
 {"id":"f6cc8c40-1b74-47b1-8315-6d1a18c4e3a8","lat":38.26413740,"long":140.90665870,"status":"done","name":"グランデールコマツ北向い（道路敷）","address":"宮城野区五輪二丁目8番","city":"仙台市","number":"67"}, 
 {"id":"f6e7e4f5-7ef6-4f26-8592-a9cab833459f","lat":38.30280990,"long":140.77146540,"status":"done","name":"芋沢平バス停東側","address":"青葉区芋沢字平4番地の２地先","city":"仙台市","number":"292"}, 
 {"id":"f6f0f061-36b7-4899-ad6b-744292c94d76","lat":38.29421200,"long":140.89056400,"status":"done","name":"南光台三丁目公園東側","address":"泉区南光台三丁目１地内","city":"仙台市","number":"106"}, 
 {"id":"f6f457a9-1315-467c-94c2-87c5033969c8","lat":38.39394310,"long":140.91667340,"status":"done","name":"masked","address":"富谷市大童上八幡１０６ー５","city":"富谷市","number":"04-01"}, 
 {"id":"f6f4e38e-cffc-400c-b39a-387b9ddc5216","lat":38.77646240,"long":141.50391460,"status":"done","name":"在区コミュニティセンター　入口　土手","address":"本吉町卯名沢１０５－４　地先","city":"気仙沼市","number":"121"}, 
 {"id":"f6ff14af-c3d6-45b7-9216-3f9e478680fc","lat":38.25294070,"long":140.80619590,"status":"done","name":"masked","address":"青葉区茂庭字湯ノ沢６３番地の１","city":"仙台市","number":"96"}, 
 {"id":"f707fc24-6a13-455f-a3bb-beaad1d05ba6","lat":38.32775800,"long":140.97748140,"status":"done","name":"利府駅前一号公園　南側　（フェンス）","address":"利府町中央三丁目１８－１","city":"利府町","number":"第１投票区（１－６）"}, 
 {"id":"f70b65e7-7f9e-4937-a21d-9267cb7a3bab","lat":38.29040470,"long":141.00101250,"status":"done","name":"舟橋公園南端（フェンス）","address":"東田中二丁目４０番地内A棟西側","city":"多賀城市","number":"39"}, 
 {"id":"f712af64-58a7-441d-9011-f0c662dddc22","lat":38.31453470,"long":141.02812900,"status":"done","name":"中央ポンプ場フェンス","address":"新富町１番１５号","city":"塩竈市","number":"102"}, 
 {"id":"f7142515-6d07-47fd-b532-bff3d887f408","lat":38.53923960,"long":141.14946370,"status":"done","name":"医療福祉センター","address":"涌谷町涌谷字中江南２７８番地","city":"涌谷町","number":"第６投票区"}, 
 {"id":"f715691e-3665-481e-8427-41f00a86796d","lat":38.30325370,"long":140.85109830,"status":"done","name":"仙台市立立町小学校南側","address":"青葉区立町８番１号","city":"仙台市","number":"73"}, 
 {"id":"f71865ac-b45a-4b64-904d-d3df67f5f94c","lat":38.31857330,"long":140.92519010,"status":"done","name":"鶴が丘一丁目公園西側","address":"泉区鶴が丘一丁目５－４３外（一丁目28-25付近）","city":"仙台市","number":"71"}, 
 {"id":"f71a8f15-13ce-413c-a5a8-054018a8ebc7","lat":38.23801940,"long":140.89617150,"status":"done","name":"古城コミュニティ・センター塀南側","address":"若林区古城一丁目1-15","city":"仙台市","number":"132"}, 
 {"id":"f72cfd13-2143-4ae1-b8a4-ca492e967d32","lat":38.36729810,"long":140.89389310,"status":"done","name":"成田小学校南角法面","address":"富谷市成田三丁目１－１","city":"富谷市","number":"11-04"}, 
 {"id":"f731bc06-94bc-439f-899a-6f21bd88fafa","lat":38.75229300,"long":141.25511460,"status":"done","name":"長崎集落センター","address":"中田町上沼字長崎184番地1","city":"登米市","number":"136"}, 
 {"id":"f7367260-a573-4888-aae9-786a4daf9ba3","lat":38.73832700,"long":140.76988200,"status":"done","name":"masked","address":"鳴子温泉字町３８番地　(踏切付近）","city":"大崎市","number":"300"}, 
 {"id":"f73f890d-3f18-4454-a36e-81765f76a707","lat":38.23292500,"long":140.86682100,"status":"done","name":"緑ケ丘4号緑地","address":"太白区緑ケ丘三丁目5地内","city":"仙台市","number":"25"}, 
 {"id":"f740bbf8-4fb0-4072-bc83-0a733367cc7b","lat":38.17424850,"long":140.64206390,"status":"done","name":"ひだまり公園北側","address":"川崎町大字前川字裏尻３３","city":"川崎町","number":"第１（町）"}, 
 {"id":"f748f3b8-6d30-425c-95c5-48c4c794a7f2","lat":38.71390900,"long":141.02145400,"status":"done","name":"（株）オカザキ南側法面","address":"築館字照越神田16-34","city":"栗原市","number":"35"}, 
 {"id":"f767118b-557b-463c-9899-5fe15efbe5cd","lat":38.23086900,"long":140.83851600,"status":"done","name":"鈎取三丁目7号公園西側","address":"太白区鈎取三丁目12地内","city":"仙台市","number":"170"}, 
 {"id":"f76cd00e-9cfb-4d20-8510-073323f7a7c0","lat":38.08090200,"long":140.91087300,"status":"done","name":"寺島公会堂北側","address":"寺島字押切７５－１","city":"岩沼市","number":"70"}, 
 {"id":"f7770331-8499-468f-a11b-034165f28712","lat":38.05738070,"long":140.85351590,"status":"done","name":"民家前ブロック塀","address":"亘理町逢隈上郡字花立２６番","city":"亘理町","number":"逢隈第２投票区"}, 
 {"id":"f7869359-014a-4000-8173-3eac4eb2d0a7","lat":38.86538300,"long":141.58230600,"status":"done","name":"岩月バス停　後ろ　畑","address":"岩月千岩田１１０ 地先","city":"気仙沼市","number":"75"}, 
 {"id":"f7885482-84fe-421c-8a79-fafbc21dc623","lat":38.56855530,"long":141.11943340,"status":"not_yet","name":"小牛田農林高校演習林入口","address":"涌谷町下郡字台２３番地先","city":"涌谷町","number":"第７投票区"}, 
 {"id":"f7a8c17b-f120-4933-92be-e7a78bd0bcdc","lat":38.60658300,"long":140.94239800,"status":"done","name":"大崎市古川宮沢地区公民館","address":"古川小林字新一本杉１７０番地","city":"大崎市","number":"84"}, 
 {"id":"f7ad13d1-b572-412b-b15f-3b5c3aad0964","lat":37.98696860,"long":140.86556090,"status":"done","name":"masked","address":"山元町大平字清水１番１","city":"山元町","number":"第１投票区"}, 
 {"id":"f7b8400d-8986-492a-8bce-58644178d36a","lat":38.61782000,"long":141.17377610,"status":"not_yet","name":"masked","address":"米山町中津山字山崎51番地","city":"登米市","number":"202"}, 
 {"id":"f7ba286e-0511-46f8-94e3-618ba4a3cd0a","lat":38.26414200,"long":140.86882730,"status":"done","name":"仙台市元鍛冶町公園北西側","address":"青葉区国分町二丁目９番内(9番地の13外)","city":"仙台市","number":"75"}, 
 {"id":"f7bb18c7-8797-426b-b66d-cae8ea0b3bbf","lat":38.60024600,"long":140.95349100,"status":"done","name":"大昇物流西側空き地","address":"古川桜ノ目字新下釜２２９番地先","city":"大崎市","number":"89"}, 
 {"id":"f7bf1f54-d046-4f32-b7d3-fa97fea8d9a8","lat":38.74979400,"long":141.01445000,"status":"done","name":"（株）ヰセキ東北フェンス","address":"築館字下宮野町浦1","city":"栗原市","number":"42"}, 
 {"id":"f7d73a90-e60f-4c47-9b21-66066cdb9cad","lat":38.42709500,"long":141.27273570,"status":"done","name":"市営三ツ股第二復興住宅敷地","address":"三ツ股２丁目８番１号","city":"石巻市","number":"51"}, 
 {"id":"f7dc8d0b-fd97-4384-9ce0-12385ed10c1e","lat":38.70493900,"long":141.47636730,"status":"not_yet","name":"町道大上坊米広線大上坊法面","address":"南三陸町志津川字大上坊４３－１","city":"南三陸町","number":"第７投票区"}, 
 {"id":"f7e27741-e73c-4cce-a52b-e790ae4cdc68","lat":38.66667160,"long":141.06965710,"status":"done","name":"masked","address":"瀬峰横森前156番1","city":"栗原市","number":"210"}, 
 {"id":"f7e84f35-7a58-417a-9c54-e8fa38758138","lat":38.36181650,"long":140.87286210,"status":"done","name":"富谷消防署入口付近","address":"富谷市富ケ丘一丁目２０番","city":"富谷市","number":"07-02"}, 
 {"id":"f7e8855f-9838-4a25-a0b1-dfa409a7e423","lat":38.82581840,"long":140.97754410,"status":"not_yet","name":"旧グリーンヒル浦島向かい（道路敷）","address":"栗駒中野田町西135番地2","city":"栗原市","number":"112"}, 
 {"id":"f8045e39-7c38-41f5-a5a8-1853f6e444ce","lat":38.05233280,"long":140.74974160,"status":"done","name":"高砂公園フェンス","address":"大河原町字高砂町６","city":"大河原町","number":"10-04"}, 
 {"id":"f807235c-5f44-484e-b261-6909825f56ca","lat":38.53422980,"long":141.12232820,"status":"done","name":"ファミリーマート涌谷渋江店先交差点","address":"涌谷町字桑木荒３番地２先","city":"涌谷町","number":"第３投票区"}, 
 {"id":"f80baf84-7694-46ed-b4b0-53b924d521e6","lat":38.30613140,"long":140.77657810,"status":"done","name":"仙台市みやぎ台３号公園","address":"青葉区みやぎ台一丁目２５番内(96番地の25)","city":"仙台市","number":"297"}, 
 {"id":"f81a67e6-37eb-4555-bbce-3637a1f20aa0","lat":38.53566540,"long":141.05090730,"status":"done","name":"masked","address":"青生字水越浦５４番地１２","city":"美里町","number":"第９投票区"}, 
 {"id":"f83c68b2-c7ae-4206-82de-46c43a712985","lat":38.33406250,"long":140.98513790,"status":"done","name":"リフノス　北側　（野立て）","address":"利府町森郷字新椎の木前３１－１","city":"利府町","number":"第１投票区（１－８）"}, 
 {"id":"f859bcad-bde4-49ee-ad51-c6c145a37f9c","lat":38.03153630,"long":140.85285470,"status":"done","name":"上舘生活センター北側フェンス","address":"亘理町字舘南４４番３","city":"亘理町","number":"亘理第１投票区"}, 
 {"id":"f88d67d7-9fe0-4852-af5e-9ceb972146e6","lat":38.45927970,"long":140.87300860,"status":"done","name":"村民グランド入口","address":"大衡村大衡字亀岡１９番地","city":"大衡村","number":"第２投票区"}, 
 {"id":"f893b42d-fc30-44c7-95d8-f9f278f17bb0","lat":38.32195700,"long":140.86975100,"status":"done","name":"仙台市下水道北管理センター入口付近","address":"泉区上谷刈字沼地内（上谷刈字沼下20-5付近）","city":"仙台市","number":"152"}, 
 {"id":"f8a388c2-7998-4042-9ab4-65d6678f3d07","lat":37.92243210,"long":140.76547300,"status":"done","name":"丸森橋左岸","address":"丸森町舘矢間舘山字坪石地内","city":"丸森町","number":"舘矢間投票区"}, 
 {"id":"f8a6e609-eb89-4344-a3bb-7b05091311be","lat":38.33282440,"long":141.03364825,"status":"done","name":"杉の入公園フェンス","address":"杉の入二丁目14番地内","city":"塩竈市","number":"70"}, 
 {"id":"f8ad3294-e713-4c0d-898c-e5c2fb5336e4","lat":38.71017800,"long":140.97079500,"status":"not_yet","name":"masked","address":"築館字上宮野山下6-3","city":"栗原市","number":"44"}, 
 {"id":"f8af76f0-4a63-473d-b3b9-a1d73c75effc","lat":38.60630990,"long":141.28407910,"status":"not_yet","name":"masked","address":"豊里町白鳥23番地３","city":"登米市","number":"152"}, 
 {"id":"f8b81069-eb45-4c34-ad19-5c4979eebfaa","lat":38.32843000,"long":140.83522000,"status":"done","name":"八沢川バス停付近","address":"泉区実沢字立田地内（実沢字八沢橋本11-1 付近）","city":"仙台市","number":"189"}, 
 {"id":"f8ceda8c-bd5e-4141-9629-ee1c61e8ff92","lat":38.58117650,"long":141.16427310,"status":"not_yet","name":"脇会館前","address":"涌谷町小里字五郎沢６９番地","city":"涌谷町","number":"第８投票区"}, 
 {"id":"f8cfc8bf-24c9-44e1-a2dc-87240319fe34","lat":38.51665900,"long":140.91264300,"status":"done","name":"坂本青山団地内公園","address":"三本木坂本字青山３１番地９５","city":"大崎市","number":"162"}, 
 {"id":"f8d24393-9830-413d-bb0a-c58103071249","lat":38.30819660,"long":141.00656400,"status":"done","name":"旧高橋魚屋駐車場フェンス","address":"玉川一丁目５番地内","city":"塩竈市","number":"3"}, 
 {"id":"f8d79f83-7fb2-4b25-959e-abf61487ee38","lat":38.73591200,"long":140.70413200,"status":"done","name":"上野々レストハウス前","address":"鳴子温泉字古戸前１３２番地１０８","city":"大崎市","number":"285"}, 
 {"id":"f8f22495-be85-4e52-8430-a008b0ebe011","lat":38.76334450,"long":141.36956340,"status":"not_yet","name":"東和馬の足農村公園内","address":"東和町米川字馬ノ足26番地3","city":"登米市","number":"88"}, 
 {"id":"f8f64755-a4bc-4736-ac86-08c4ba01bb35","lat":38.23382600,"long":140.83770800,"status":"done","name":"八木山南四丁目緑地公園北側","address":"太白区八木山南四丁目4地内","city":"仙台市","number":"173"}, 
 {"id":"f90e02ad-5fd8-4c8c-b76c-bdc96deba8ba","lat":38.49814070,"long":141.29475260,"status":"done","name":"二子西町内会集会所敷地","address":"二子二丁目１５番地１１","city":"石巻市","number":"220"}, 
 {"id":"f911fb13-e792-429d-944d-75bf537fd964","lat":38.34129700,"long":140.86463900,"status":"done","name":"桂三丁目公園西側","address":"泉区桂三丁目13-4外（桂三丁目16-26付近）","city":"仙台市","number":"253"}, 
 {"id":"f9278be5-7d28-4c86-806f-fdb011e5ca58","lat":38.23584400,"long":140.81936600,"status":"done","name":"太白団地市営住宅20-11棟前（法面）","address":"太白区太白二丁目20地内","city":"仙台市","number":"201"}, 
 {"id":"f93763fa-bb41-4074-bf1b-cf23352a293c","lat":38.30639910,"long":141.02392970,"status":"done","name":"masked","address":"笠神一丁目４－１０","city":"多賀城市","number":"84"}, 
 {"id":"f94136ae-76a0-49cc-8626-ff6b3fc44f9a","lat":38.44031310,"long":141.30880140,"status":"done","name":"旧宮城県東部土木事務所フェンス","address":"東中里２丁目１番１号","city":"石巻市","number":"26"}, 
 {"id":"f9425332-d360-4f6b-879f-96e9281ff8c5","lat":38.66421900,"long":140.86930800,"status":"done","name":"岩出山体育センター入口付近","address":"岩出山上野目字中川原２１番地１","city":"大崎市","number":"252"}, 
 {"id":"f966e429-89f1-4ccc-bd86-c783cf032e3b","lat":38.69035440,"long":141.26681970,"status":"not_yet","name":"小島構造改善センター前","address":"中田町浅水字小島4番地","city":"登米市","number":"145"}, 
 {"id":"f976f62e-b55a-490d-9c3e-63d6c56704e5","lat":38.30040490,"long":141.02092610,"status":"done","name":"東北管区警察学校住宅西側（フェンス）","address":"丸山一丁目１９－１","city":"多賀城市","number":"66"}, 
 {"id":"f99e5918-1561-462a-bbca-e2741d8af5f3","lat":38.16315100,"long":140.87959300,"status":"done","name":"小山２号公園北側","address":"小山三丁目１番街区内","city":"名取市","number":"42"}, 
 {"id":"f99f07b7-d546-4c2f-9c9b-b71753a01e7a","lat":38.42741260,"long":141.12853180,"status":"done","name":"西福田下ポンプ置場隣","address":"西福田字寺前７７番地３","city":"東松島市","number":"94"}, 
 {"id":"f9a1f604-c009-43e1-83b9-f142c3f289a7","lat":38.22446400,"long":140.80438200,"status":"done","name":"仙台南ﾆｭｰﾀｳﾝ市民運動広場東側(南ﾆｭｰﾀｳﾝ西ﾊﾞｽ停付近ﾌｪﾝｽ）","address":"太白区人来田一丁目30地内","city":"仙台市","number":"189"}, 
 {"id":"f9a5d277-2c66-41b8-bddf-a099bb8566ac","lat":38.30287900,"long":141.00810200,"status":"done","name":"masked","address":"留ヶ谷三丁目１０－１１","city":"多賀城市","number":"46"}, 
 {"id":"f9a60076-e04c-4bd7-afa0-c61b66754727","lat":38.23681320,"long":140.84603270,"status":"done","name":"八木山中学校北西側（ﾌｪﾝｽ）","address":"太白区八木山東二丁目27-1","city":"仙台市","number":"31"}, 
 {"id":"f9a65802-80b2-46e1-917a-825c88cefb68","lat":38.48490830,"long":141.13351160,"status":"done","name":"masked","address":"木間塚字夫婦沼東６７番地","city":"美里町","number":"第１５投票区"}, 
 {"id":"f9c27072-fce3-492c-ace4-f2b84aad6076","lat":38.16625200,"long":140.92080700,"status":"done","name":"牛野消防ポンプ積載車車庫北西角","address":"牛野字内海265番地４","city":"名取市","number":"60"}, 
 {"id":"f9f738c7-de9b-4d59-925f-1aa8a2b0e38e","lat":38.31457500,"long":140.86798100,"status":"done","name":"加茂入口バス停法面","address":"泉区加茂一丁目３地内（一丁目4-3向い付近）","city":"仙台市","number":"158"}, 
 {"id":"fa381844-80e9-40ce-8a5c-b14fad35af95","lat":38.05623730,"long":140.78186660,"status":"done","name":"水質障害記念碑前町有地","address":"船岡新栄２丁目９－１１","city":"柴田町","number":"第１５投票区"}, 
 {"id":"fa426951-c114-440d-9ed1-0e41a0705410","lat":38.48078000,"long":140.87533510,"status":"done","name":"masked","address":"大衡村大衡字座府７４番地１５０","city":"大衡村","number":"第５投票区"}, 
 {"id":"fa4b3800-3646-4eab-b4c4-5b90753dbd43","lat":38.07978690,"long":140.87214230,"status":"done","name":"おおくま公園南側フェンス","address":"亘理町逢隈中泉字中１０９番４","city":"亘理町","number":"逢隈第５投票区"}, 
 {"id":"fa53aff9-da87-4b37-b2a4-596e1c85c285","lat":38.25347230,"long":141.49456040,"status":"not_yet","name":"牡鹿消防団長渡分団詰所前","address":"長渡浜大金１番地２","city":"石巻市","number":"389"}, 
 {"id":"fa71f957-a4dd-4c2f-914f-f8b5d80301e1","lat":37.92195030,"long":140.89638160,"status":"done","name":"坂元地域交流センター西道路沿い","address":"山元町坂元字町１４番１","city":"山元町","number":"第６投票区"}, 
 {"id":"fa76a4f2-9002-453f-b3da-cbc876dc6719","lat":38.85678100,"long":140.86731000,"status":"not_yet","name":"文字郵便局東側（道路敷）","address":"栗駒文字大道2番地4","city":"栗原市","number":"127"}, 
 {"id":"fa807bb9-ab34-4fed-a137-6840348d730b","lat":38.29638110,"long":140.84604120,"status":"done","name":"県営桜ケ丘住宅１２号棟西側","address":"青葉区桜ケ丘一丁目２７番１２号","city":"仙台市","number":"172"}, 
 {"id":"fa844c56-f7af-47ee-9184-3dc312cb66e6","lat":38.93479960,"long":141.58140150,"status":"done","name":"masked","address":"東中才１９６","city":"気仙沼市","number":"29"}, 
 {"id":"fa8c1c7c-e1b6-497c-b88d-cfa5e75abf74","lat":38.37941000,"long":141.15562400,"status":"done","name":"野蒜駅北側市道法面","address":"野蒜ケ丘一丁目１０４番地","city":"東松島市","number":"109"}, 
 {"id":"fa9498ee-ea2f-4b37-a14a-bad467b729f4","lat":38.05380850,"long":140.79076280,"status":"done","name":"船岡生涯学習センター西側","address":"大字中名生字西宮前４９","city":"柴田町","number":"第９投票区"}, 
 {"id":"faa9a420-c562-4c3e-8e9c-8f1228142b98","lat":38.45612700,"long":141.26129200,"status":"done","name":"masked","address":"蛇田字南久林３２番地","city":"石巻市","number":"95"}, 
 {"id":"faae5d34-2506-4f08-8337-dacda08fa240","lat":37.95213700,"long":140.54588300,"status":"done","name":"清光寺南側","address":"小原字町１４","city":"白石市","number":"159"}, 
 {"id":"faaeab7f-17e4-4e9c-b687-75591d765e41","lat":38.53970040,"long":141.12820930,"status":"done","name":"涌谷町役場庁舎西側","address":"涌谷町字新町裏１５３番地２","city":"涌谷町","number":"第３投票区"}, 
 {"id":"fab2266a-41e1-40a8-9791-270dcdda914d","lat":38.42806380,"long":141.27516440,"status":"done","name":"開発７８号公園南側","address":"築山１丁目５番地内","city":"石巻市","number":"46"}, 
 {"id":"fabd91ee-0630-4753-829e-0f142811752b","lat":38.42810610,"long":141.30532210,"status":"done","name":"旧中央児童館前フェンス","address":"泉町１丁目１番２号","city":"石巻市","number":"1"}, 
 {"id":"fad05205-d9f1-403a-8915-14bc72596d10","lat":37.94189710,"long":140.77236290,"status":"done","name":"北丸森ふれあい広場前","address":"丸森町木沼字堀内166","city":"丸森町","number":"舘矢間投票区"}, 
 {"id":"fada2f1e-450d-4273-bf5e-47be127e1672","lat":38.30204440,"long":141.01257690,"status":"done","name":"伝上山公園（簡易柵）","address":"伝上山三丁目１５番地内","city":"多賀城市","number":"55"}, 
 {"id":"fadae52f-9a1b-490b-bf38-627f0e339452","lat":38.26811900,"long":140.81793290,"status":"done","name":"ＪＲ仙山線葛岡駅（葛岡駐車場）","address":"青葉区郷六字葛岡下２６番地の６","city":"仙台市","number":"324"}, 
 {"id":"faf1cb7a-f707-4c02-a9e3-1b7e2a1a0354","lat":38.24100950,"long":140.91136320,"status":"done","name":"遠見塚二丁目公園東側","address":"若林区遠見塚二丁目15-24先","city":"仙台市","number":"66"}, 
 {"id":"fafe78b1-cd74-4855-a1c6-8f473d6aecfa","lat":38.00927400,"long":140.62420700,"status":"done","name":"延命寺児童公園東側","address":"字延命寺６７－２","city":"白石市","number":"8"}, 
 {"id":"fb01600f-58aa-4970-8ce8-1d9b9dcff3d9","lat":38.24110400,"long":140.63946780,"status":"done","name":"旧本砂金小学校校庭南側","address":"川崎町大字本砂金字道畑９１","city":"川崎町","number":"第１２（本砂金）"}, 
 {"id":"fb01e2b3-6bd1-4b02-808d-7daa1866a25c","lat":38.06009940,"long":140.75306720,"status":"done","name":"masked","address":"村田町大字沼辺字立石54","city":"村田町","number":"10-04"}, 
 {"id":"fb029572-fd38-4564-b317-184060d91599","lat":38.38411830,"long":140.87147600,"status":"done","name":"杜乃橋一丁目公園東側柵","address":"富谷市杜乃橋一丁目１１－６","city":"富谷市","number":"10-07"}, 
 {"id":"fb03f4dd-02f3-4329-867f-1b24f3416ea1","lat":37.97238500,"long":140.74842800,"status":"done","name":"masked","address":"豊室字深町１０２","city":"角田市","number":"25"}, 
 {"id":"fb0d2ef4-bb2e-4681-b9c4-ec9f17d79fed","lat":38.56236610,"long":141.19317010,"status":"done","name":"ののだけ幼稚園前駐車場","address":"涌谷町吉住字不動沢４番地","city":"涌谷町","number":"第１０投票区"}, 
 {"id":"fb18aac7-5141-4226-9545-59ae8614c796","lat":38.28645400,"long":140.84159450,"status":"done","name":"仙台市貝ケ森１号公園南側","address":"青葉区貝ケ森五丁目４番内(35番地の130)","city":"仙台市","number":"136"}, 
 {"id":"fb233c7d-6ee2-4dc9-9dbc-32132be68fad","lat":38.68086680,"long":141.06441010,"status":"not_yet","name":"東北新生園職員更衣棟（現場）北側","address":"迫町新田字上葉ノ木沢1番地","city":"登米市","number":"42"}, 
 {"id":"fb3127fc-f835-48aa-981f-37d2201cb6b2","lat":38.25462300,"long":140.91424600,"status":"done","name":"仙台市志波北公園東側","address":"宮城野区萩野町二丁目7番","city":"仙台市","number":"29"}, 
 {"id":"fb3a93a0-2070-426e-a921-ad28676af7d2","lat":38.91781860,"long":141.49724550,"status":"done","name":"masked","address":"masked","city":"気仙沼市","number":"64"}, 
 {"id":"fb476d42-0f72-48d0-9d5a-83c9c73f618d","lat":37.91406380,"long":140.76578810,"status":"done","name":"ＪＡみやぎ仙南丸森地区本部入口","address":"丸森町字除27-1","city":"丸森町","number":"丸森第１投票区"}, 
 {"id":"fb562257-5d33-4918-b5a4-8e2b8c5ebb8c","lat":38.44180950,"long":140.89733740,"status":"done","name":"柳丁緑地（公園）前","address":"大和町吉岡字上柴崎１－１","city":"大和町","number":"吉岡第１投票区"}, 
 {"id":"fb59fe24-f6d8-4849-8663-846a51b57d48","lat":38.30752180,"long":140.83723240,"status":"done","name":"仙台市川平市営住宅公園南側","address":"青葉区川平五丁目１３番内(13番地の1)","city":"仙台市","number":"160"}, 
 {"id":"fb5f8c9b-f1e2-4fae-a459-ac552556a153","lat":38.27409640,"long":140.88906130,"status":"done","name":"仙台市福沢市民センター","address":"青葉区福沢町9番9号","city":"仙台市","number":"338"}, 
 {"id":"fb74f07e-6c01-47fc-b4c5-1c83a9c3ebb0","lat":38.33671600,"long":140.87316700,"status":"done","name":"将監中央小学校東側","address":"泉区将監十丁目３－１","city":"仙台市","number":"28"}, 
 {"id":"fb82463a-6f96-488c-9315-d3891aa38972","lat":38.57293060,"long":140.95719390,"status":"done","name":"大崎市古川保健福祉プラザ","address":"古川三日町二丁目５番１号","city":"大崎市","number":"12"}, 
 {"id":"fb94fb21-23d0-4162-9ffc-d3d4bedf85d6","lat":38.44262180,"long":141.30662500,"status":"done","name":"住吉中学校正門側フェンス","address":"東中里３丁目３番１号","city":"石巻市","number":"29"}, 
 {"id":"fba88d01-55bd-43e9-ab39-e38ad0a262ab","lat":38.26638380,"long":140.96456600,"status":"done","name":"仙台市福田町砂押公園西側","address":"宮城野区福田町二丁目30番","city":"仙台市","number":"203"}, 
 {"id":"fbae7a45-607a-4d0d-81a4-4f8c82c9b521","lat":38.21520600,"long":140.80159000,"status":"done","name":"masked","address":"太白区茂庭字人来田西92","city":"仙台市","number":"212"}, 
 {"id":"fbb3ed85-c979-443d-a6a2-1abd3bbbdf86","lat":37.98557700,"long":140.70372000,"status":"done","name":"個人所有地（畑）","address":"高倉字五月田５８－１","city":"角田市","number":"138"}, 
 {"id":"fbbda694-91a6-4afb-92ca-e3cff57e9d15","lat":38.55902010,"long":141.08391790,"status":"not_yet","name":"下小牛田コミュニティセンター南側","address":"南小牛田字下小牛田屋敷３７番地１","city":"美里町","number":"第２投票区"}, 
 {"id":"fbc008ea-6a6a-4142-b8e3-8eee162ef819","lat":38.42447010,"long":140.97249680,"status":"done","name":"masked","address":"大和町鶴巣大平字一本木２２","city":"大和町","number":"鶴巣第３投票区"}, 
 {"id":"fbc195ad-c303-4613-96ed-0c886bad88ef","lat":38.29443680,"long":140.87225980,"status":"done","name":"仙台市藤松保存緑地北側","address":"青葉区鷺ケ森一丁目４番内(9番地の1)","city":"仙台市","number":"187"}, 
 {"id":"fbc2cda9-e512-435a-bb54-229acd4fce31","lat":38.22816100,"long":140.81033300,"status":"done","name":"旗立西公園北側","address":"太白区山田自由ケ丘36地内","city":"仙台市","number":"202"}, 
 {"id":"fbc7bb5e-77a0-4e87-b18a-f7df5c0507df","lat":38.41877430,"long":140.93548800,"status":"done","name":"masked","address":"大和町鶴巣北目大崎字屋敷下１５－１","city":"大和町","number":"鶴巣第１投票区"}, 
 {"id":"fbcf8cb3-d3c1-468f-a8b5-90c91116a40d","lat":38.74551000,"long":141.08078000,"status":"done","name":"志波姫間海区公民館南側（道路敷）","address":"志波姫南郷新間海34","city":"栗原市","number":"284"}, 
 {"id":"fbd3d345-4017-45ab-8284-2206195998a5","lat":37.98361600,"long":140.79348800,"status":"done","name":"masked","address":"梶賀字東２６７","city":"角田市","number":"92"}, 
 {"id":"fbe385ac-8d79-4aae-a390-455f859851f0","lat":38.63723280,"long":140.83007220,"status":"not_yet","name":"旧上多田川小学校入口","address":"加美町上多田川字東田北４番地４","city":"加美町","number":"第６投票区"}, 
 {"id":"fbf7c4ea-7900-4537-b9c9-5a78d8ae8ed7","lat":38.57431400,"long":141.22706860,"status":"not_yet","name":"masked","address":"豊里町東二ツ屋154番地脇","city":"登米市","number":"173"}, 
 {"id":"fc05aaf5-c0e0-4ee1-90fa-b4d8c2a2c8e2","lat":38.58495920,"long":141.00875390,"status":"done","name":"masked","address":"成田字元成田２８番地","city":"美里町","number":"第８投票区"}, 
 {"id":"fc0a567c-45d8-46e7-bbf6-888c1e6a2a1f","lat":38.26097360,"long":140.86997960,"status":"done","name":"仙台市肴町公園北側","address":"青葉区国分町一丁目２番内(2番地の2)","city":"仙台市","number":"79"}, 
 {"id":"fc0b5990-de1c-4f61-b517-e504fef2b73a","lat":38.33160280,"long":141.00634030,"status":"done","name":"清水沢第二公園フェンス","address":"清水沢三丁目３２番地内","city":"塩竈市","number":"48"}, 
 {"id":"fc17ae38-4c44-4c54-a33f-0a084181aadd","lat":38.32089880,"long":140.99552880,"status":"done","name":"十三塚遺跡付近　（野立て）","address":"利府町加瀬字十三本塚153-2","city":"利府町","number":"第５投票区（５－５）"}, 
 {"id":"fc3f62de-bb6c-4510-8dd9-4bb981c07b85","lat":37.94879500,"long":140.79867600,"status":"done","name":"個人所有地（畑）","address":"枝野字長沼４","city":"角田市","number":"53"}, 
 {"id":"fc40e9f8-0d4e-46cf-a597-4f7eb7db16d7","lat":38.75363200,"long":140.72029100,"status":"done","name":"鳴子温泉住宅前市道","address":"鳴子温泉字末沢地内","city":"大崎市","number":"289"}, 
 {"id":"fc4e21ef-4152-45e8-ab63-aa53243a61ae","lat":38.04494900,"long":140.63366700,"status":"done","name":"木須商店北側","address":"福岡深谷字鴫内地内","city":"白石市","number":"140"}, 
 {"id":"fc60c48b-4393-4c03-928f-177fc4d74e4f","lat":38.56225420,"long":141.11476780,"status":"not_yet","name":"涌谷町立さくらんぼこども園入口","address":"涌谷町上郡字永根１番地２","city":"涌谷町","number":"第７投票区"}, 
 {"id":"fc76fbd7-f45c-4628-88b3-70e85d563a39","lat":38.42487090,"long":141.26533530,"status":"done","name":"開発９１５公園","address":"新館２丁目１番","city":"石巻市","number":"50"}, 
 {"id":"fc8a3daa-e031-421c-b2c9-a80e1b8f5f39","lat":38.65542600,"long":140.82165500,"status":"done","name":"馬主集会所前（国道側法面）","address":"岩出山南沢字木戸脇裏１４３番地","city":"大崎市","number":"274"}, 
 {"id":"fc8faec6-99dd-402e-ab57-6617f2a17093","lat":38.32812370,"long":140.91350620,"status":"done","name":"泉消防署松陵出張所西側","address":"泉区松陵五丁目２０－３","city":"仙台市","number":"69"}, 
 {"id":"fc9add99-51aa-4fe3-91c4-1484b8ca5ee6","lat":38.69418120,"long":141.24286650,"status":"done","name":"masked","address":"中田町宝江黒沼字町2番地","city":"登米市","number":"119"}, 
 {"id":"fcb61112-b515-4edb-9f70-644af9c55247","lat":38.12766820,"long":140.69227080,"status":"done","name":"小村崎コミュニティセンター脇","address":"蔵王町大字小村崎字戸ノ内32-2","city":"蔵王町","number":"03-05"}, 
 {"id":"fcb64aa1-210a-4c76-b652-425dc8c23842","lat":38.26168730,"long":140.87348060,"status":"done","name":"電力ビル本館西側","address":"青葉区一番町三丁目７番１号","city":"仙台市","number":"56"}, 
 {"id":"fcbbfb64-7240-46ba-9d82-fbb176829a13","lat":38.12075740,"long":140.72313420,"status":"done","name":"八島氏敷地前","address":"村田町大字村田字大槻下4－1","city":"村田町","number":"01-02"}, 
 {"id":"fcc0367a-f077-4858-b5a8-fb85177d8a70","lat":38.29960600,"long":140.97886700,"status":"done","name":"陸前山王駅前駐車場（フェンス）","address":"山王字千刈田７地内","city":"多賀城市","number":"19"}, 
 {"id":"fccebea5-114e-4250-bb8c-e35bb07f109b","lat":38.30301290,"long":140.63060220,"status":"done","name":"旧仙台市立作並小学校新川分校北側","address":"青葉区新川字中屋敷４６番地の２地先","city":"仙台市","number":"251"}, 
 {"id":"fcdacbbf-9e28-4cb0-a250-fb312fbb938b","lat":38.19662940,"long":140.88093910,"status":"done","name":"安久東公園南側","address":"太白区西中田四丁目4地内","city":"仙台市","number":"128"}, 
 {"id":"fcdefe36-aaff-4f56-829a-be1e44d63868","lat":38.42849300,"long":141.29262710,"status":"done","name":"大街道浄水場入口側フェンス","address":"双葉町４番２６号","city":"石巻市","number":"68"}, 
 {"id":"fce7a20f-f127-46ad-a360-f3a87e2a1b02","lat":38.29909350,"long":141.04582340,"status":"done","name":"境山児童遊園脇（公園用地内）","address":"七ヶ浜町境山一丁目8-349地先","city":"七ヶ浜町","number":"第9投票区"}, 
 {"id":"fcf766b3-3999-41ad-bb7b-2772cc57c518","lat":38.09348670,"long":140.85891840,"status":"done","name":"masked","address":"吹上二丁目４番３８号","city":"岩沼市","number":"6"}, 
 {"id":"fcff38c3-3143-47bb-9b38-456fb6ab20e4","lat":38.66993280,"long":141.14615520,"status":"not_yet","name":"月見橋西側駐車場","address":"南方町新二網地内","city":"登米市","number":"241"}, 
 {"id":"fd160ac1-b3f6-44d1-a7a2-a3aa4ad5fe47","lat":38.29259930,"long":140.68660720,"status":"done","name":"熊ケ根字町一番の四番地先","address":"青葉区熊ケ根字町一番の四番地先","city":"仙台市","number":"246"}, 
 {"id":"fd224f92-1171-41a8-9c4d-865891cf45e8","lat":38.28883270,"long":141.05375420,"status":"done","name":"中田バス停前（道路向い）","address":"七ヶ浜町菖蒲田浜字中田47-1地内","city":"七ヶ浜町","number":"第3投票区"}, 
 {"id":"fd2a431c-0c7d-482c-a19d-aa99f79943ba","lat":38.78939400,"long":141.02967800,"status":"not_yet","name":"栗原根岸農業担い手センター前（道路敷）","address":"栗駒栗原西沢133番地","city":"栗原市","number":"142"}, 
 {"id":"fd485d9e-0f81-4adf-8700-198c45b20bbc","lat":38.01747100,"long":140.62544300,"status":"done","name":"岩崎集会所前","address":"福岡長袋字岩崎２","city":"白石市","number":"115"}, 
 {"id":"fd5b8ba4-0ee4-4ae7-8ecb-118d7a997f7d","lat":38.39015720,"long":141.10086620,"status":"done","name":"手樽地域交流センターフェンス","address":"手樽字釜地前１－１","city":"松島町","number":"手樽"}, 
 {"id":"fd618c26-ef5d-4d01-885e-d0486e02dff3","lat":37.99930560,"long":140.63382820,"status":"done","name":"互助センターフローラ倉庫北側","address":"鷹巣西二丁目４－１１，４－１２","city":"白石市","number":"37"}, 
 {"id":"fd70a2ce-e28b-4f3d-9a3a-5c8fcdf328a8","lat":38.15704690,"long":140.88046610,"status":"done","name":"名取が丘保育所駐車場西側","address":"名取が丘二丁目６番１号","city":"名取市","number":"48"}, 
 {"id":"fd7a532e-1d4c-440a-bdbf-a546022dedda","lat":38.37761640,"long":140.87685100,"status":"done","name":"あけの平二丁目公園南側柵","address":"富谷市あけの平二丁目５－９","city":"富谷市","number":"09-02"}, 
 {"id":"fd7b23fa-4ef4-4dd0-bc50-ba1522b2e37c","lat":38.57620960,"long":141.17595990,"status":"not_yet","name":"沢田会館","address":"涌谷町太田字欠下４２番地","city":"涌谷町","number":"第９投票区"}, 
 {"id":"fd7f2250-f788-4bd0-8f04-3ec0b70d1c7e","lat":38.58714900,"long":141.04447220,"status":"not_yet","name":"高城地区転作推進研修センター南側","address":"中高城字中道１２３番地１","city":"美里町","number":"第８投票区"}, 
 {"id":"fd82358a-aa04-49c9-8fa3-8023962ad9af","lat":38.33962200,"long":140.85940600,"status":"done","name":"桂中央公園東側","address":"泉区桂二丁目34地内（桂三丁目7-11付近）","city":"仙台市","number":"250"}, 
 {"id":"fd905439-c261-4422-b6d3-d205b8e629df","lat":37.99378200,"long":140.60697900,"status":"done","name":"下森合集会所前","address":"大平森合字北六角地内","city":"白石市","number":"66"}, 
 {"id":"fd9222c1-6deb-4e15-8de1-c77bb387c8fb","lat":38.45393800,"long":141.27468900,"status":"done","name":"あけぼの北公園東側フェンス","address":"あけぼの３丁目７番地","city":"石巻市","number":"93"}, 
 {"id":"fd9a1f79-58e2-4e72-bb6c-f068b1fe6052","lat":38.89571330,"long":141.56564470,"status":"done","name":"田谷公園　東側","address":"田谷１４－１","city":"気仙沼市","number":"10"}, 
 {"id":"fda032bb-fb6a-41ad-8529-e38048f075f7","lat":38.38404360,"long":141.06930660,"status":"done","name":"高城コミュニティセンター前","address":"高城字町５０－１","city":"松島町","number":"高城"}, 
 {"id":"fdaae602-a738-4714-9682-65f8cd5c2246","lat":37.99448000,"long":140.61320500,"status":"done","name":"動物病院南側","address":"城南一丁目地内","city":"白石市","number":"74"}, 
 {"id":"fdaedadc-82c9-4d87-b0fd-de74918f115b","lat":38.26764010,"long":140.75874140,"status":"done","name":"宮城総合支所・愛子小学校前バス停西側","address":"青葉区上愛子字新宮前１７番地の２地内","city":"仙台市","number":"223"}, 
 {"id":"fdb346bf-ec2a-4594-9eda-c60f93befc10","lat":38.75239200,"long":140.87246700,"status":"not_yet","name":"masked","address":"一迫字川口中町10番4","city":"栗原市","number":"183"}, 
 {"id":"fdca78de-d17b-473a-b272-760eb8ee479c","lat":38.31249200,"long":140.80899000,"status":"done","name":"北中山四丁目公園東側","address":"泉区北中山四丁目２５－６","city":"仙台市","number":"183"}, 
 {"id":"fde0f7c8-c6d3-4c71-b8a8-c88da138acfc","lat":38.04527370,"long":140.73630870,"status":"done","name":"甲子公園フェンス","address":"大河原町字甲子町２－１","city":"大河原町","number":"04-05"}, 
 {"id":"fde31655-e5fe-40bb-a9ea-0cdc3c4569f8","lat":38.65586100,"long":140.86593600,"status":"done","name":"市道あったか村線と県道岩出山宮崎線のＴ字路付近","address":"岩出山字下川原町４８番地１","city":"大崎市","number":"258"}, 
 {"id":"fde3e7b4-5355-4cc0-ad9e-1fa28b013749","lat":38.59786750,"long":140.79968860,"status":"not_yet","name":"masked","address":"加美町鳥嶋字寺前１番地","city":"加美町","number":"第１３投票区"}, 
 {"id":"fdea8912-18da-4a18-a398-bd026464f79d","lat":38.85509500,"long":140.77973900,"status":"not_yet","name":"山下公衆トイレ跡地（道路敷）","address":"花山字本沢山下49-12付近","city":"栗原市","number":"297"}, 
 {"id":"fdf2162c-7a10-4b44-bebe-202dccd4bf96","lat":38.25773210,"long":140.90178770,"status":"done","name":"宮城野原公園総合運動場交番南側","address":"宮城野区宮城野二丁目11番","city":"仙台市","number":"40"}, 
 {"id":"fe08eaa6-d458-4236-ae5d-63c216f329be","lat":38.28192260,"long":140.78796170,"status":"done","name":"大竹集会所入口","address":"青葉区芋沢字大竹中5番地","city":"仙台市","number":"303"}, 
 {"id":"fe0ea078-264b-46ef-bd7b-e4b9d0cae04e","lat":38.26718500,"long":140.66842700,"status":"done","name":"民地（自動販売機 北側)","address":"太白区秋保町長袋字町32-1","city":"仙台市","number":"244"}, 
 {"id":"fe20c4fa-d6d5-4fac-b2d1-0529fb955c0e","lat":38.81308700,"long":140.93231200,"status":"not_yet","name":"八沢二岐広報板隣（道路敷）","address":"鶯沢南郷久保前101番地6","city":"栗原市","number":"228"}, 
 {"id":"fe26f8ac-1c8e-412d-ab65-3bf7d9202944","lat":38.53851870,"long":141.05469320,"status":"done","name":"masked","address":"北浦字姥ヶ沢３０番地１０","city":"美里町","number":"第５投票区"}, 
 {"id":"fe426015-a522-4fe2-bb1b-3665d0bee486","lat":38.22095900,"long":140.80874600,"status":"done","name":"日本平緑地公園西側","address":"太白区日本平49地内","city":"仙台市","number":"193"}, 
 {"id":"fe51af0a-2151-476b-b4f9-cf0a54500ca3","lat":38.59941500,"long":140.97995000,"status":"done","name":"masked","address":"古川休塚字童子川１２０番地","city":"大崎市","number":"107"}, 
 {"id":"fe6a6b20-98d6-4c94-9123-c585984e059e","lat":38.82917000,"long":140.97912600,"status":"not_yet","name":"中野集落センター東側","address":"栗駒中野要害前28番地","city":"栗原市","number":"111"}, 
 {"id":"fe782be4-da7b-4b4e-ad29-cfac18080343","lat":38.26335540,"long":140.90250570,"status":"done","name":"FKビル駐車場北側","address":"宮城野区五輪一丁目7番","city":"仙台市","number":"52"}, 
 {"id":"fe8725d1-f521-4732-bb0c-26ab4e93628c","lat":38.20271660,"long":140.58238180,"status":"done","name":"masked","address":"川崎町大字今宿字シシナゴ５３－２２","city":"川崎町","number":"第７（古関）"}, 
 {"id":"fe87cc5f-ca6e-4c94-87f2-a9c59551eb34","lat":38.89478700,"long":141.58058200,"status":"done","name":"masked","address":"弁天町二丁目８１－５","city":"気仙沼市","number":"25"}, 
 {"id":"fe8e4c7c-f459-48ba-8b36-fed2016661e4","lat":38.39183800,"long":140.78561400,"status":"done","name":"朴沢集会所南側","address":"泉区朴沢字南６８－１","city":"仙台市","number":"226"}, 
 {"id":"fe911a57-db53-4c92-8c66-f65cc8df55ab","lat":38.72621500,"long":141.02386500,"status":"done","name":"栗原文化会館付近アポロロード南側（道路敷）","address":"築館高田二丁目150-18","city":"栗原市","number":"4"}, 
 {"id":"fea783de-76f3-473e-ae28-96ac113d2455","lat":38.58506090,"long":140.85953340,"status":"done","name":"masked","address":"加美町菜切谷字屋敷１９番地","city":"加美町","number":"第５投票区"}, 
 {"id":"feb02418-6c3a-49bb-a22a-9261aab48f8d","lat":38.53022000,"long":141.24043300,"status":"not_yet","name":"うしちゃんファーム向かい空地","address":"桃生町神取字山畑１０５番地","city":"石巻市","number":"322"}, 
 {"id":"feb25696-ec33-4020-974d-7eb13a765882","lat":38.11100800,"long":140.90838600,"status":"done","name":"masked","address":"押分字南谷地９０番地","city":"岩沼市","number":"67"}, 
 {"id":"fec5ee8e-03a1-4e18-b025-6d7c0aeb1fcc","lat":38.21268100,"long":140.92733800,"status":"done","name":"飯田前公園（今泉神社前バス停付近）","address":"若林区今泉二丁目3-33先（今泉二丁目73-37）","city":"仙台市","number":"107"}, 
 {"id":"fecbed03-7456-41af-8df7-f558c6ebbef9","lat":38.34230060,"long":140.90081910,"status":"done","name":"masked","address":"富谷市明石台一丁目３０－２","city":"富谷市","number":"06-05"}, 
 {"id":"fef72d88-cc4c-4710-af83-8a1d034fa79f","lat":38.41949740,"long":140.92393440,"status":"done","name":"masked","address":"大和町鶴巣北目大崎字寺東６４－２","city":"大和町","number":"鶴巣第１投票区"}, 
 {"id":"fef8acfd-9bdd-46bf-8cfd-7dd8fc510081","lat":37.98183100,"long":140.82618700,"status":"done","name":"喜松院墓地　防火水槽西側","address":"藤田字寺岡４８","city":"角田市","number":"64"}, 
 {"id":"fefd8cde-f477-474a-9d96-33859165ee20","lat":38.17819040,"long":140.63487810,"status":"done","name":"桜地蔵尊東側空き地","address":"川崎町大字前川字堀切１１－３","city":"川崎町","number":"第１（町）"}, 
 {"id":"ff011495-d754-486c-a7e2-03f680f813e3","lat":38.28664450,"long":140.85782020,"status":"done","name":"仙台市立荒巻小学校(プール)西側","address":"青葉区荒巻神明町１３番内(252番地の2)","city":"仙台市","number":"173"}, 
 {"id":"ff0573f6-96d8-451e-b1ac-7980481ba6af","lat":38.48397810,"long":140.97122740,"status":"done","name":"masked","address":"大郷町大松沢字横沢屋敷２０－９","city":"大郷町","number":"第５投票区"}, 
 {"id":"ff0ee35a-d2e4-4915-8d81-e619a5aab936","lat":38.53287100,"long":141.32972700,"status":"not_yet","name":"masked","address":"中島字清水田畑１２２番地","city":"石巻市","number":"194"}, 
 {"id":"ff178364-ba93-4dc3-b98e-f86b7da03256","lat":38.50099600,"long":141.47770700,"status":"not_yet","name":"旧水浜漁村センター向い市有地","address":"雄勝町水浜字水浜４６番地６","city":"石巻市","number":"251"}, 
 {"id":"ff1d7adb-2eb1-4880-91db-22097e2558e3","lat":38.23471220,"long":140.89193840,"status":"done","name":"早昌不動産・若林一丁目3-10敷地南側","address":"若林区若林一丁目3-10","city":"仙台市","number":"15"}, 
 {"id":"ff2a32fa-5388-4f40-88ff-21454f2581ff","lat":38.34502000,"long":140.87370300,"status":"done","name":"将北いこいの公園東側","address":"泉区将監殿五丁目１７","city":"仙台市","number":"38"}, 
 {"id":"ff2e4e37-b3a0-4145-b07f-0ba84c3e4062","lat":38.61978480,"long":141.17684660,"status":"not_yet","name":"的場生活センターフェンス","address":"米山町中津山字刈敷246番地","city":"登米市","number":"203"}, 
 {"id":"ff35ebd2-3f4a-4341-86e9-4ec1fb062937","lat":38.58309840,"long":140.87206380,"status":"not_yet","name":"masked","address":"加美町上狼塚字道行檀３０番地","city":"加美町","number":"第５投票区"}, 
 {"id":"ff3c51f5-b63f-4c0b-8ad1-064f24308663","lat":37.98557700,"long":140.70372000,"status":"done","name":"masked","address":"高倉字新町１３６","city":"角田市","number":"133"}, 
 {"id":"ff42fdae-a28d-4f4f-a8c2-47be723d7fca","lat":38.52579080,"long":141.09515620,"status":"done","name":"masked","address":"字塩釜２６番地１１","city":"美里町","number":"第３投票区"}, 
 {"id":"ff43e4c7-5001-4ec3-9413-9a02e085e1b9","lat":38.07478600,"long":140.83758200,"status":"done","name":"民家前ブロック塀","address":"亘理町逢隈小山字内堀小８７番","city":"亘理町","number":"逢隈第４投票区"}, 
 {"id":"ff456f3e-0247-4ac5-af10-4243afd32d32","lat":37.98952100,"long":140.79444900,"status":"done","name":"masked","address":"梶賀字本佐倉２１－２","city":"角田市","number":"94"}, 
 {"id":"ff4f58ce-f4a2-43b7-98d0-c5b271d54d0b","lat":38.00616500,"long":140.78715500,"status":"done","name":"masked","address":"江尻字島西浦１１７－１","city":"角田市","number":"115"}, 
 {"id":"ff6ebd79-ced9-4924-8ab1-65889808d6da","lat":38.31218300,"long":140.82647700,"status":"done","name":"南中山三丁目公園西側","address":"泉区南中山三丁目１０－２","city":"仙台市","number":"173"}, 
 {"id":"ff7677d0-3e11-4eb9-9d33-df6cb95764f6","lat":38.69933900,"long":141.21797050,"status":"done","name":"愛菜館入り口","address":"中田町石森字本町95番地1","city":"登米市","number":"106"}, 
 {"id":"ff7b10eb-9cc3-40df-b7d6-ee56af08a39e","lat":38.05653460,"long":140.76583630,"status":"done","name":"能化寺前町道三叉路","address":"大字上川名字大坂地内","city":"柴田町","number":"第２投票区"}, 
 {"id":"ff7e98c8-b43a-4081-8d0b-ad5a5ad687fa","lat":38.05724810,"long":140.80450850,"status":"done","name":"下名生上納水門前三叉路水路","address":"大字下名生字上納２８-２付近","city":"柴田町","number":"第９投票区"}, 
 {"id":"ff7f6460-c6d2-4bc8-9cdf-6cf5e8476500","lat":38.43905600,"long":141.27301000,"status":"done","name":"開発５１９号公園","address":"蛇田字新埣寺５４番地内","city":"石巻市","number":"104"}, 
 {"id":"ff90ac29-6a4d-480d-8963-84b02dc61a8c","lat":38.39182700,"long":141.52792400,"status":"done","name":"寄磯地区入口","address":"寄磯浜前浜１２３番地","city":"石巻市","number":"410"}, 
 {"id":"ffaf09dd-efca-454a-8b05-fbe0a4bc0a57","lat":38.62773260,"long":141.34826350,"status":"done","name":"masked","address":"津山町横山字久保58番地","city":"登米市","number":"267"}, 
 {"id":"ffb218b5-40b1-4072-9237-6361bdffc1da","lat":38.12330070,"long":140.58459700,"status":"done","name":"クニミネ工業㈱蔵王工場前（道路敷）","address":"蔵王町遠刈田温泉字小妻坂山 8-49","city":"蔵王町","number":"15-03"}, 
 {"id":"ffc56265-cd40-49d7-8860-cee503438947","lat":38.16134600,"long":140.83451800,"status":"done","name":"masked","address":"愛島笠島字北南沢４８番地５先","city":"名取市","number":"103"}, 
 {"id":"ffc97729-9f1d-44c7-9adb-717d01d38645","lat":38.37796410,"long":141.15045920,"status":"done","name":"東松島市立宮野森小学校脇ガードパイプ","address":"野蒜ケ丘二丁目１番地１","city":"東松島市","number":"108"}, 
 {"id":"ffeab11e-cd50-4fef-b59e-2b28bd8dc7af","lat":38.31423000,"long":140.85960070,"status":"done","name":"県営加茂住宅７号棟北側","address":"泉区加茂二丁目２３－７","city":"仙台市","number":"156"}, 
 {"id":"fff91c20-15b6-4bfd-9ade-cf6f5f483785","lat":38.58000140,"long":141.23892770,"status":"done","name":"豊里下屋浦公園","address":"豊里町下屋浦305番地","city":"登米市","number":"163"}, 
 {"id":"fff9f64e-5ca0-4aae-91ff-d63315bb308a","lat":38.29009200,"long":141.01620500,"status":"done","name":"市営桜木住宅１号棟東側","address":"桜木二丁目４","city":"多賀城市","number":"103"}, 
 {"id":"fffebb0e-95c8-4933-8547-8499c7d13fc2","lat":38.27360030,"long":140.86440940,"status":"done","name":"仙台市立第二中学校南側","address":"青葉区木町通二丁目４番１号","city":"仙台市","number":"12"}]